weight	latitude	longitude	rank	hs_name
7.51945378026559	43.0397885	-76.2657614	1	West Genesee, NY, United States of America
5.9819998201101185	39.0337763	-77.10964349999999	2	Georgetown Prep, MD, United States of America
5.232825833326387	40.7076001	-73.4440122	3	Farmingdale, NY, United States of America
4.75889910271296	40.94151859999999	-72.8672934	4	Shoreham-Wading Riv, NY, United States of America
4.421057799529659	40.7878631	-74.5290688	5	Delbarton, NJ, United States of America
4.162903863546375	38.9829602	-76.9423133773692	6	Calvert Hall, MD, United States of America
3.9564341424901213	40.81222	-73.3894399	7	St Anthony's, NY, United States of America
3.785877858716706	39.3723638	-76.6361295	8	Boys' Latin, MD, United States of America
3.6415499053657103	41.292594	-73.8029119	9	Yorktown, NY, United States of America
3.5171127763150825	38.8019293	-107.715892	10	Hotchkiss, CT, United States of America
3.4082128387342285	39.40321005	-76.6271126171668	11	Loyola, MD, United States of America
3.3117419018154495	42.5453345	-72.6046808	12	Deerfield, MA, United States of America
3.225410444488128	40.5934382	-73.9862499	13	Lafayette, NY, United States of America
3.147487705924498	40.7330556	-73.6530555	14	Garden City, NY, United States of America
3.0766364339818812	39.8894	-75.3336999	15	Ridley, PA, United States of America
3.0118039596490895	38.9911172	-77.1270588	16	Landon, MD, United States of America
2.9521481629564637	40.1219539	-83.0989496709546	17	Dublin Scioto, OH, United States of America
2.8969858071326935	41.12858455	-73.489421231771	18	New Canaan, CT, United States of America
2.845755644188063	39.3278867	-76.6257547	19	Gilman, MD, United States of America
2.7979915310392007	40.024739	-75.5123591	20	Malvern Prep, PA, United States of America
2.7533024862805373	38.9751925	-76.48887789999999	21	St Mary's Annapolis, MD, United States of America
2.711357657614997	40.0399648	-75.360608025	22	Radnor, PA, United States of America
2.6718748271859836	41.71161155	-87.718941275254	23	Brother Rice, MI, United States of America
2.6346115076740895	42.564178	-70.8790279	24	Beverly, MA, United States of America
2.5993579637498168	40.89520265	-74.4273233602014	25	Mountain Lakes, NJ, United States of America
2.5659316836744748	41.6039856	-73.1239992	26	Taft School, CT, United States of America
2.534172956572371	42.7736705	-78.730585	27	Orchard Park, NY, United States of America
2.5039413022330104	42.14802660000001	-77.1106719	28	Corning East, NY, United States of America
2.4751125650758006	43.2004366	-71.551175	29	Concord, NH, United States of America
2.447576530482218	43.2035647	-77.4681161	30	Webster Schroeder, NY, United States of America
2.4212349556135164	39.6493139	-105.0561646	31	Kent Denver, CO, United States of America
2.395999931818377	42.895364	-71.317286	32	Pinkerton, NH, United States of America
2.3717925143457963	41.0850166	-73.4906280751206	33	Darien, CT, United States of America
2.348541569081928	38.9581808	-76.9421547433805	34	DeMatha, MD, United States of America
2.3261827966663255	40.79288105	-73.7045040358531	35	Manhasset, NY, United States of America
2.3046579024942484	39.46068935	-76.612585140643	36	Dulaney, MD, United States of America
2.2839138874102334	40.916255	-73.0744567809568	37	Ward Melville, NY, United States of America
2.263902438803085	40.905315	-73.0124669	38	Comsewogue, NY, United States of America
2.244579405660245	39.7385784	-75.5554784	39	Tatnall, DE, United States of America
2.225904344178967	37.8671231	-122.271353388549	40	Berkeley, CA, United States of America
2.207840122948313	40.8782306	-73.3421004166701	41	Northport, NY, United States of America
2.1903525786492937	36.091157	-87.2807021	42	Montgomery Bell Ac, TN, United States of America
2.156983937141008	38.8787187	-77.2820454957048	44	Oakton, VA, United States of America
2.141046820946736	39.07779085	-76.5605181555464	45	Severna Park, MD, United States of America
2.1255739050528186	47.3199306	-114.0939979	46	St Ignatius, CA, United States of America
2.1105420097431895	41.13353025	-74.1100881791337	47	Suffern, NY, United States of America
2.09592957487529	40.8564874	-73.4242871	48	Huntington, NY, United States of America
2.081716515758496	40.7306507	-73.220733	49	West Islip, NY, United States of America
2.0678840945018746	43.218001	-77.5983669	50	Irondequoit, NY, United States of America
2.054414804898234	41.7009328	-72.5934232	51	Glastonbury, CT, United States of America
2.04129226918573	42.6471435	-71.1322910355567	52	Phillips Andover, MA, United States of America
2.028501145259191	42.0475245	-70.6793292488759	53	Duxbury, MA, United States of America
2.01602704309839	42.6647282	-77.0613847	54	Penn Yan, NY, United States of America
2.003856449345829	35.098424	-89.8570311	55	Memphis Univ School, TN, United States of America
1.9919766591071613	42.9084609	-77.27235259999999	56	Canandaigua, NY, United States of America
1.9803757141673255	40.3746091	-80.051505429267	57	Mount Lebanon, PA, United States of America
1.9690423469180196	32.7801294	-96.8466692	58	Episcopal Dallas, TX, United States of America
1.957965929380183	32.9573985	-117.224896678294	59	Torrey Pines, CA, United States of America
1.947136426780887	40.8633333	-73.2430555	60	Smithtown, NY, United States of America
1.9365443552093458	28.58795735	-81.3906581888158	61	Bishop Moore, FL, United States of America
1.9160370950058134	35.9685936	-78.9446674	63	Durham Academy, NC, United States of America
1.9061053608358167	34.0484502	-84.2085954	64	Chattahoochee, GA, United States of America
1.8963779044313773	39.9169129	-75.4207639	65	Penn Charter, PA, United States of America
1.8868474770588919	39.3947049	-76.7769673	66	McDonogh, MD, United States of America
1.8775071920882587	40.1372446	-75.21528769999999	67	Germantown Academy, PA, United States of America
1.8683505018196964	26.3835793	-80.1455623	68	Saint Andrews, FL, United States of America
1.8593711761094778	33.753195	-118.009772394229	69	Westminster, GA, United States of America
1.8505632826311114	42.09447385	-87.7198764776642	70	New Trier, IL, United States of America
1.8419211686254582	43.0174406	-76.1734319	71	Corcoran, NY, United States of America
1.8251129657168235	39.7109363	-76.789975	73	St Paul's, MD, United States of America
1.816936823189364	39.127886	-76.6869129	74	Severn, MD, United States of America
1.808906324880992	40.6536111	-73.6727777	75	Lynbrook, NY, United States of America
1.8010169857295912	40.2973299	-74.7296048	76	Lawrenceville, NJ, United States of America
1.793264515493172	40.01684785	-83.0546924783809	77	Upper Arlington, OH, United States of America
1.7856448078876563	40.6676022	-73.6051284	78	Baldwin, NY, United States of America
1.7781539304606802	41.2789753	-73.8584444	79	Lakeland/Panas, NY, United States of America
1.7707881151429337	28.58374845	-81.3201033014906	80	Winter Park, FL, United States of America
1.7635437494238613	43.0578253	-76.1190622	81	Henninger, NY, United States of America
1.7564173681033282	41.06880875	-73.6996917065398	82	Brunswick School, CT, United States of America
1.749405645575139	29.2666253	-82.1144588	83	Pine Crest, FL, United States of America
1.7425053886021782	42.08292405	-87.7600667611925	84	Loyola Academy, IL, United States of America
1.7357135295464026	43.1369037	-77.4701760374478	85	Penfield, NY, United States of America
1.729027120020081	39.0289815	-77.1981184	86	Bullis, MD, United States of America
1.722443324927508	39.28045695	-76.6874066760513	87	Mount St Joseph, MD, United States of America
1.7159594168689976	40.9525987	-72.9253804	88	Rocky Point, NY, United States of America
1.7095727708812882	39.8945915	-75.3719465493986	89	Strath Haven, PA, United States of America
1.7032808594906133	29.9062331	-95.6686189	90	Episcopal Houston, TX, United States of America
1.6970812480566027	39.9276119	-75.3385225	91	Springfield, PA, United States of America
1.690971590386931	41.9987038	-73.3926196	92	Salisbury School, CT, United States of America
1.6849496246042182	43.02066805	-76.0460217822718	93	Jamesville-Dewitt, NY, United States of America
1.679013169248136	43.0077828	-75.95897529999999	94	Fayettev'le-Manlius, NY, United States of America
1.6731601195969859	40.8289878	-73.4834562	95	Syosset, NY, United States of America
1.6673884441942295	43.732406	-71.5889739	96	Holderness, NH, United States of America
1.6616961815665559	42.339821	-75.97507700000001	97	Whitney Point, NY, United States of America
1.6560814371210548	43.1542731	-71.5477547	98	Bow, NH, United States of America
1.650542380210023	38.8255028	-77.0943289	99	Episcopal HS, VA, United States of America
1.645077241352745	43.5909173	-70.2292137	100	Cape Elizabeth, ME, United States of America
1.6396843096043783	41.7362325	-72.7509292757843	101	Conard-West Hartford, CT, United States of America
1.6343619300627878	43.5461828	-72.2581459	102	Kimball Union, NH, United States of America
1.6291085015048208	40.8366091	-73.1014158157605	103	Sachem, NY, United States of America
1.6239224741441143	41.7895402	-72.8345009	104	Avon Old Farms, CT, United States of America
1.6188023475030962	40.6673246	-73.6209621	105	South Side, NY, United States of America
1.6137466683923223	41.4098714	-73.2715494078504	106	Newtown, CT, United States of America
1.6087540289907953	38.9731554	-76.5674712347829	107	Annapolis, MD, United States of America
1.6038230650213192	42.2709264	-71.7967377	108	Belmont Hill, MA, United States of America
1.5941409136621967	32.6917186	-117.1817001	110	Coronado, CA, United States of America
1.5893872002377059	29.52802235	-98.4265190574598	111	St Mary's Hall, TX, United States of America
1.5846901071079813	40.7316667	-73.2544443	112	Bay Shore, NY, United States of America
1.5800484633038712	41.1745396	-73.7576326	113	Horace Greeley, NY, United States of America
1.5754611321623102	40.54474099999999	-80.189606	114	Sewickley Academy, PA, United States of America
1.5709270100308177	36.873678	-76.19358799999999	115	Norfolk Academy, VA, United States of America
1.566445025031694	38.8178183	-77.1011477	116	St Stephen/St Agnes, VA, United States of America
1.562014135882681	42.260537	-71.1847489	117	Noble & Greenough, MA, United States of America
1.5576333307710422	40.04778665	-75.4537537294326	118	Conestoga, PA, United States of America
1.5533016262782189	42.9791148	-70.9516775992823	119	Phillips Exeter, NH, United States of America
1.5490180663523836	34.04375225	-84.4739029975894	120	Lassiter, GA, United States of America
1.5405916869786789	40.9967714	-74.1920109743855	122	Ramapo, NJ, United States of America
1.5364470836351585	35.1876781	-80.7333527	123	Charlotte Cou Day, NC, United States of America
1.5323470553095735	31.4627676	-97.1214578	124	Robinson, VA, United States of America
1.5282907688807894	43.158679	-76.3327099	125	Baldwinsville, NY, United States of America
1.5242774133049135	32.8495844	-96.8076262022552	126	Highland Park, TX, United States of America
1.520306198860577	41.2961798	-73.3369952714363	127	Barlow-Redding, CT, United States of America
1.516376356425726	34.02384975	-84.4522261531746	128	Pope, GA, United States of America
1.5124871367843755	41.2743037	-73.6095203	129	John Jay-Cross River, NY, United States of America
1.5086378099618594	40.6743513	-73.5643147	130	Calhoun, NY, United States of America
1.5048276645871967	42.8256495	-71.5801458	131	Souhegan, NH, United States of America
1.5010560072812704	39.5414903	-76.9924814	132	Westminster, MD, United States of America
1.4973221620695891	41.3126651	-73.7140545837215	133	Somers, NY, United States of America
1.493625469818464	41.4900972	-72.9064913	134	Cheshire HS, CT, United States of America
1.4899652876935023	42.65232015	-71.6621127768527	135	Middlesex, MA, United States of America
1.4827519608798925	41.29341400000001	-72.619822	137	Daniel Hand-Madison, CT, United States of America
1.4791976074373816	40.729291	-73.5254889375394	138	Division-Levittown, NY, United States of America
1.4756773456706151	43.9105642	-69.8311364561996	139	Hyde-Bath, ME, United States of America
1.472190606830314	40.82248745	-73.2023491812515	140	Hauppauge, NY, United States of America
1.4687368356315196	40.74508525	-73.6498182277831	141	Chaminade, NY, United States of America
1.4619260398863223	40.7853765	-73.3717866	143	Half Hollow Hills E, NY, United States of America
1.4585679684639046	38.885289	-77.4645284	144	Westfield, VA, United States of America
1.4552407701820766	41.87159675	-72.821883157628	145	Simsbury, CT, United States of America
1.451943951201873	42.4272548	-71.0465998521096	146	Malden Catholic, MA, United States of America
1.4486770288969713	40.7586111	-73.5263888	147	Hicksville, NY, United States of America
1.4454395315248993	41.74752635	-71.3206242536853	148	Barrington, IL, United States of America
1.442230997910028	27.6000901	-80.33890439999999	149	Saint Edwards, FL, United States of America
1.4390509771378568	41.2045404	-73.4328986	150	Wilton, CT, United States of America
1.43589902826011	43.2111919	-71.5570167	151	Bishop Brady, NH, United States of America
1.4327747200102012	40.697377	-73.3650873	152	Lindenhurst, NY, United States of America
1.429677630528631	38.8400539	-77.2765857	153	Woodson, VA, United States of America
1.4266073470979062	38.9217797	-76.5599615	154	South River, MD, United States of America
1.4235634658866005	40.5245332	-79.8884632352712	155	Shady Side Academy, PA, United States of America
1.4205455917021734	41.8395666	-72.6401410835967	156	Loomis Chaffee, CT, United States of America
1.4175533377522007	39.25355915	-76.8702477135574	157	Centennial, MD, United States of America
1.41164418401007	39.03994495	-76.4534831848471	159	Broadneck, MD, United States of America
1.4087265505958095	42.08600405	-76.0457894938925	160	Vestal, NY, United States of America
1.4058330697479389	40.7208073	-74.370989196874	161	Summit, NJ, United States of America
1.4029633933646244	39.9792137	-75.3852785	162	Marple Newtown, PA, United States of America
1.3972940970269903	33.7668073	-117.7975286	164	Foothill (OC), CA, United States of America
1.3944938157521563	33.5271688	-111.906611842548	165	Saguaro, AZ, United States of America
1.3917160159418493	42.8619583	-73.8000404	166	Shenendehowa, NY, United States of America
1.3889603832999342	40.09126335	-76.4140231496244	167	Hempfield, PA, United States of America
1.3862266097725748	40.6855452	-73.4937671507594	168	Seaford, NY, United States of America
1.3835143933879803	42.2046584	-71.0181333503979	169	Braintree, MA, United States of America
1.3808234381011841	42.28696755	-71.2316980574263	170	Needham, MA, United States of America
1.37815345364367	42.9514554	-76.420768	171	Skaneateles, NY, United States of America
1.375504155377669	43.9864256	-75.6459341	172	Carthage, NY, United States of America
1.3702665061799608	41.9767633	-72.4606399	174	Somers, CT, United States of America
1.3676776128771055	41.81131265	-87.8802093682677	175	Lyons Township, IL, United States of America
1.3651083207621033	40.7548218	-73.4829018	176	Bethpage, NY, United States of America
1.3625583713171845	39.7145405	-77.4033211	177	Friends, MD, United States of America
1.3600275108700532	38.9303888	-77.1533127	178	Potomac McLean, VA, United States of America
1.3575154904764533	37.9379802	-122.5241421	179	Redwood, CA, United States of America
1.3550220658062184	39.6754963	-76.4010768878517	180	North Harford, MD, United States of America
1.3525469970326869	39.9232086	-75.4314683	181	Penncrest, PA, United States of America
1.3500900487253586	40.6991667	-73.3252777	182	Babylon, NY, United States of America
1.3476509897456845	43.4396	-71.562564	183	Tilton, VT, United States of America
1.3452295931458815	42.454775	-76.4970466746796	184	Ithaca, NY, United States of America
1.3380691689654227	40.591955	-80.0758425	187	North Allegheny, PA, United States of America
1.3357162328418646	40.88895955	-73.5918714747227	188	Locust Valley, NY, United States of America
1.3333798838782052	40.429517	-79.6690070705011	189	Franklin Regional, PA, United States of America
1.331059918303145	42.4509118	-74.5776495	190	South Jefferson, NY, United States of America
1.328756135904313	43.1409185	-70.9170031	191	Oyster River, NH, United States of America
1.326468339947862	41.16031295	-73.2547531312219	192	Fairfield Prep, CT, United States of America
1.3241963371002945	39.59912935	-76.6596023713956	193	Hereford, MD, United States of America
1.3219399373524328	41.13250295	-73.7854452746053	194	Pleasantville, NY, United States of America
1.319698953945478	35.9444845	-79.078599237112	195	Chapel Hill, NC, United States of America
1.3174732032990761	38.9018713	-77.0101887	196	Gonzaga, DC, United States of America
1.315262504941341	38.3495624	-75.5732569	197	Parkside, MD, United States of America
1.3108855583399113	39.9678804	-75.5991665	199	West Chester Hend, PA, United States of America
1.3087189640910044	40.9401412	-73.0271798	200	Mt. Sinai, NY, United States of America
1.3065667299930546	39.741585	-104.9559827	201	Denver East, CO, United States of America
1.3044286901307787	41.0859301	-73.4326195	202	McMahon-Norwalk, CT, United States of America
1.3023046813150727	39.8587232	-75.416583	203	Sun Valley, PA, United States of America
1.3001945430250526	38.9098339	-76.919418	204	The Heights, MD, United States of America
1.298098117351603	41.3278708	-73.5303072630782	205	Ridgefield, CT, United States of America
1.2960152489423897	39.6303721	-104.879335	206	Cherry Creek, CO, United States of America
1.2939457849482896	39.5829291	-104.962775007037	207	Arapahoe, CO, United States of America
1.2918895749711967	34.1514844	-85.9180259	208	Tabor, MA, United States of America
1.2898464710131614	42.2844674	-87.9664641	209	Libertyville, IL, United States of America
1.287816327426821	40.86669015	-73.4567175492754	210	Cold Spring Harbor, NY, United States of America
1.2857990008670863	42.3990754	-71.4001700040642	211	Lincoln-Sudbury, MA, United States of America
1.2837943502440428	42.2568317	-71.0693283	212	Milton Academy, MA, United States of America
1.2818022366770354	43.0702133	-75.2856371	213	New Hartford, NY, United States of America
1.2798225234498959	38.9386375	-77.0751267	214	Sidwell Friends, DC, United States of America
1.2778550759672818	40.6894488	-73.5132704684335	215	Wantagh, NY, United States of America
1.273956450203956	39.60000985	-104.797958599554	217	Regis Jesuit, CO, United States of America
1.2720250129586712	33.07225645	-117.230366116231	218	La Costa Canyon, CA, United States of America
1.27010532344872	43.0453937	-76.4728887089275	219	Jordan-Elbridge, NY, United States of America
1.2681972570646776	40.97768845	-74.10647155	220	Ridgewood, NJ, United States of America
1.2663006910775774	40.7853765	-73.3717866	221	Half Hollow Hills W, NY, United States of America
1.2644155046021794	39.1185163	-75.5410111845064	222	Caesar Rodney, DE, United States of America
1.2625415785611152	34.2979205	-77.8724518	223	Wilmington Laney, NC, United States of America
1.2606787956498888	40.6397222	-73.6972221	224	Hewlett, NY, United States of America
1.2588270403027086	42.6305334	-76.1893646468257	225	Homer, NY, United States of America
1.2569861986591244	40.6678787	-73.4531796	226	Massapequa, NY, United States of America
1.2551561585314495	42.08901895	-87.8536262033248	227	Glenbrook South, IL, United States of America
1.2533368093729476	39.9796447	-75.5653868	228	West Chester East, PA, United States of America
1.2515280422467578	43.4504806	-76.5246399	229	Oswego, NY, United States of America
1.2497297497955444	25.7231565	-80.2447719	230	Ransom Everglades, FL, United States of America
1.2479418262118442	42.604433	-71.5628435838169	231	Lawrence Academy, MA, United States of America
1.2461641672090995	40.5885116	-73.6578609	232	Long Beach, NY, United States of America
1.2443966699933522	43.0168412	-71.0003155511422	233	Exeter HS, NH, United States of America
1.2426392332355858	43.7939687	-70.1947715	234	Yarmouth, ME, United States of America
1.2408917570446931	42.0554269	-72.5607093	235	Longmeadow, MA, United States of America
1.239154142941057	43.6133556	-72.5454216	236	Woodstock, VT, United States of America
1.2374262938307268	41.7822222	-73.6866666	237	Millbrook, NY, United States of America
1.2357081139801709	42.4323	-83.1538999	238	Univ Detroit Jesuit, MI, United States of America
1.2339995089915972	40.7356567	-74.2657026	239	Columbia, NJ, United States of America
1.2323003857788186	42.23256415	-70.8092798421583	240	Cohasset, MA, United States of America
1.2306106525436555	32.99885645	-117.025898955243	241	Poway, CA, United States of America
1.228930218752858	25.91755925	-80.2543710792387	242	Pace, GA, United States of America
1.227258995115535	34.3187653	-79.8811743	243	Darlington, GA, United States of America
1.2255968935610764	43.187562	-77.6397246	244	Aquinas Institute, NY, United States of America
1.2239438272175585	40.5925865	-74.6343546	245	Bridgewater-Raritan, NJ, United States of America
1.2222997103906137	42.96228	-78.7903109	246	Amherst, NY, United States of America
1.2206644585427615	26.3383622	-81.4252344	247	Pope John II, FL, United States of America
1.2190379882731817	29.47862575	-81.2095519920948	248	Flagler, FL, United States of America
1.2174202172979212	40.72266825	-73.4932508353811	249	Island Trees, NY, United States of America
1.2158110644305242	28.5416151	-81.5669931081997	250	West Orange, FL, United States of America
1.2142104495630732	47.74830545	-121.98180455	251	Holy Innocents, GA, United States of America
1.212618293647634	29.7413401	-95.4263288	252	Lamar Houston, TX, United States of America
1.2110345186780878	28.73563115	-81.3366099738316	253	Lake Mary, FL, United States of America
1.2078918046549563	40.6539913	-73.601795	255	Freeport, NY, United States of America
1.2063327146400171	42.2644674	-87.8400694	256	Lake Forest, IL, United States of America
1.2047817036145214	38.7905226	-90.4889813	257	St Charles, IL, United States of America
1.2032386985219867	40.9213438	-72.7248928	258	Middle Country, NY, United States of America
1.2017036272464494	42.6887514	-70.8518328	259	Ipswich, MA, United States of America
1.200176418596779	44.00693375	-73.1639788874456	260	Middlebury Union, VT, United States of America
1.1986570022913163	40.6998227	-73.4748467	261	Plainedge, NY, United States of America
1.1971453089428243	41.04018275	-73.6133129328867	262	Greenwich, CT, United States of America
1.1941448179517395	40.09067845	-83.0291908390627	264	Thomas Worthington, OH, United States of America
1.1926558858755603	41.1217847	-73.3896352521464	265	Norwalk, CT, United States of America
1.1911744078611533	41.1917153	-73.6777247905449	266	Fox Lane, NY, United States of America
1.1897003187780752	40.6456522	-74.3501630118898	267	Westfield, NJ, United States of America
1.188233554306169	41.8975977	-71.9625735	268	Pomfret, CT, United States of America
1.186774050922504	37.7877887	-122.2242619	269	Foothill(NOCAL), CA, United States of America
1.1853217458885745	43.0828198	-77.415935872457	270	Fairport, NY, United States of America
1.183876577237752	40.3351571	-80.0706422	271	Upper St Clair, PA, United States of America
1.182438483762981	43.1481445	-76.2158114319789	272	Liverpool, NY, United States of America
1.1795832812391003	40.208505	-75.096709653418	274	Archbishop Wood, PA, United States of America
1.178166053466356	36.8766111	-76.0292664	275	Cape Henry Coll, VA, United States of America
1.1767556633994232	40.7701167	-74.4079338	276	Madison Boro, NJ, United States of America
1.1739551667315928	38.2746352	-122.0307997	278	Fairfield, CT, United States of America
1.171181338774808	35.0304484	-85.2599951	280	McCallie, TN, United States of America
1.1698042871069814	43.95810705	-75.9113279893039	281	Watertown HS, NY, United States of America
1.168433737779625	41.2545384	-73.9345831	282	Hendrick Hudson, NY, United States of America
1.1670696371939957	39.3842073	-88.9592429	283	Tower Hill, DE, United States of America
1.1657119323805587	40.2678599	-80.1182008244671	284	Peters Township, PA, United States of America
1.164360570989417	40.7350984	-73.0940003	285	Sayville, NY, United States of America
1.1616766721164367	39.44732665	-76.8180679854226	287	Franklin, MD, United States of America
1.1603440329493298	42.5477	-83.2617999	288	Detroit Country Day, MI, United States of America
1.159017533816053	42.45600145	-71.1341662183926	289	Winchester, MA, United States of America
1.1576971253274488	40.7287118	-73.5559599	290	East Meadow, NY, United States of America
1.156382758660186	42.1850346	-71.297188	291	Medfield, MA, United States of America
1.1524754296652193	33.02856685	-96.750721583706	294	Plano, TX, United States of America
1.1511847530757549	40.0142	-75.3054999	295	Haverford School, PA, United States of America
1.1498998823896753	41.4178706	-70.595999	296	Martha's Vineyard, MA, United States of America
1.1486207720074542	35.9607794	-79.0289107808845	297	East Chapel Hill, NC, United States of America
1.1473473768396913	40.782876	-73.1384456	298	Connetquot, NY, United States of America
1.1460796522997176	30.0497077	-95.18463	299	Kingwood I, TX, United States of America
1.1448175542963306	38.9491885	-77.1665079	300	Langley, VA, United States of America
1.1435610392266586	42.6999184	-71.1163794	301	North Andover, MA, United States of America
1.1423100639691526	41.8420428	-72.5548099	302	South Windsor, CT, United States of America
1.1398245627698538	39.2750246	-77.0033637273565	304	Glenelg HS, MD, United States of America
1.1385899529301995	44.4861515	-72.9619426	305	Mt Mansfield Union, VT, United States of America
1.1361368084448376	29.5824535	-95.1058914391282	307	Clear Lake, TX, United States of America
1.134918192609201	33.65422815	-117.8901391	308	Monte Vista, CA, United States of America
1.1337048276483936	37.9511624	-122.5365928	309	Marin Catholic, CA, United States of America
1.1324966740533913	26.27435675	-80.2209597386007	310	Coral Springs, FL, United States of America
1.1312936927386648	37.7908735	-122.445576811572	311	University SF, CA, United States of America
1.1300958450362972	41.1450544	-81.8506909	312	Medina, OH, United States of America
1.1277153978504344	40.2907167	-111.6412338	314	Waterford, UT, United States of America
1.126532723067606	37.7857428	-77.5341419	315	Patrick Henry, VA, United States of America
1.1253550312873881	38.5890095	-76.6091255	316	Calverton, MD, United States of America
1.124182285845111	40.8603759	-73.2890049	317	Commack, NY, United States of America
1.1230144504604522	42.2281665	-72.5854986808637	318	South Hadley, MA, United States of America
1.1206933666331858	43.8829869	-69.9877619007994	320	Brunswick, ME, United States of America
1.1183914970536586	38.8947006	-77.1609431407895	322	Bishop O'Connell, VA, United States of America
1.117247680843654	40.6593503	-80.0170742539153	323	Pine Richland, PA, United States of America
1.116108564794162	40.5609008	-80.2031147	324	Quaker Valley, PA, United States of America
1.1149741151738184	39.9528902	-75.2818513	325	Monsignor Bonner, PA, United States of America
1.113844298596171	40.7025073	-73.3447958	326	West Babylon, NY, United States of America
1.1127190820151067	39.5220529	-76.4131134	327	Fallston, MD, United States of America
1.111598432720356	41.7939511	-72.7536243	328	Hall-West Hartford, CT, United States of America
1.110482318333066	43.5823751	-71.2074454	329	Brewster Academy, NH, United States of America
1.1093707068014498	42.04624425	-87.7021812492043	330	Evanston, IL, United States of America
1.1082635663965015	40.7149252	-73.70631809999999	331	Floral Park, NY, United States of America
1.106062573639279	42.64597699999999	-73.787032	333	Albany Academy, NY, United States of America
1.1049686594053139	40.26378655	-74.5221782963702	334	Peddie School, NJ, United States of America
1.1038790925265376	28.4977722	-81.5061208	335	Olympia, FL, United States of America
1.1027938428259758	40.0078006	-75.2792733854084	336	Lower Merion, PA, United States of America
1.1017128804251386	33.57609025	-111.932588487677	337	Chaparral, AZ, United States of America
1.1006361757401932	40.75271605	-73.1837394883089	338	East Islip, NY, United States of America
1.0995636994781983	39.6695542	-76.0763382	339	West Nottingham, MD, United States of America
1.0984954226333936	40.9256538	-73.1409429	340	Stony Brook, NY, United States of America
1.0974313164835516	40.7306507	-73.220733	341	Islip, NY, United States of America
1.0963713525863825	42.1067937	-70.73867489739	342	Marshfield, MA, United States of America
1.0953155027759987	40.5348199	-75.5051837	343	Emmaus, PA, United States of America
1.09426373915943	43.69874465	-72.2832153186343	344	Hanover, NH, United States of America
1.0932160341131978	39.61412305	-104.985033909473	345	Littleton, CO, United States of America
1.0921723602799362	37.8905884	-122.527528299012	346	Tamalpais, CA, United States of America
1.0911326905650707	43.534799	-71.4620174	347	Laconia, NH, United States of America
1.0900969981335435	38.0755077	-78.5005554	348	Albemarle, VA, United States of America
1.089065256406592	42.3157951	-71.0446890909555	349	Boston College HS, MA, United States of America
1.0880374390585736	29.7067936	-95.4385142	350	St Marks, TX, United States of America
1.0870135200138413	43.34845565	-71.9043769497198	351	Kearsarge, NH, United States of America
1.0859934734436651	40.7806544	-72.8495473	352	William Floyd, NY, United States of America
1.0849772737632004	42.8192309	-73.8897254296259	353	Niskayuna, NY, United States of America
1.0839648956285017	41.6156339	-72.8611198766516	354	Southington, CT, United States of America
1.0829563139335823	40.1024408	-76.2998167483992	355	Manheim Township, PA, United States of America
1.0819515038075167	39.98793695	-74.9438015956539	356	Moorestown, NJ, United States of America
1.0809504406115868	35.922502	-78.96258569999999	357	Durham Jordan, NC, United States of America
1.0799530999364713	39.81577685	-75.8151762647722	358	Avon Grove, PA, United States of America
1.0789594575994759	40.8092798	-72.9874046182782	359	Patchogue-Medford, NY, United States of America
1.0779694896418048	37.4531768	-122.191665178136	360	Menlo School, CA, United States of America
1.0769831723258734	40.6906574	-73.6090172	361	Lawrence, NY, United States of America
1.076000482132658	40.6369444	-73.6299999	362	Oceanside, NY, United States of America
1.0750213957590895	39.2827324	-77.2094462410655	363	Damascus, MD, United States of America
1.0740458901154786	43.0604242	-77.5189882	364	Pittsford, NY, United States of America
1.0730739423229845	40.74722	-73.5644399	365	Clarke, NY, United States of America
1.072105529711118	39.2367211	-94.5697657511594	366	Oak Park, IL, United States of America
1.0711406298152788	42.9104522	-76.5507374	367	Auburn, NY, United States of America
1.0701792203743343	40.651412	-73.5238933	368	Bellmore JFK, NY, United States of America
1.0682667848156195	39.2853875	-76.0921701	370	Kent County, MD, United States of America
1.0673157151715753	43.0822349	-76.0276318	371	East Syracuse-Minoa, NY, United States of America
1.0663680489252685	41.7876875	-87.9338967063461	372	Hinsdale Central, IL, United States of America
1.0654237647977285	40.58374395	-79.9401157147933	373	Hampton, PA, United States of America
1.0644828416996184	40.6790333	-75.3141021	374	Moravian Academy, PA, United States of America
1.063545258729042	36.06528515	-78.94353323404	375	Durham Riverside, NC, United States of America
1.062610995169383	30.63259635	-87.0453117621274	376	Milton, GA, United States of America
1.0616800304871767	42.1397222	-77.0563888	377	Corning West, NY, United States of America
1.060752344330009	43.0300663	-76.2021481	378	Westhill, NY, United States of America
1.0598279165244462	40.044179	-75.481988	379	Delaware Friends, PA, United States of America
1.0579887561570833	39.800199	-75.5210476	381	Brandywine, DE, United States of America
1.05707398412509	39.37750795	-76.6986228639169	382	Pikesville, MD, United States of America
1.0561623915003728	40.5170362	-74.8518362	383	Hunterdon Central, NJ, United States of America
1.0552539589743462	30.3328019	-97.7009416	384	St John's, TX, United States of America
1.0543486674055782	40.3578709	-74.6554332	385	Princeton HS, NJ, United States of America
1.0534464978179112	40.6200347	-74.5677171	386	Pingry, NJ, United States of America
1.0525474313986132	40.83005379999999	-73.6795819	387	Port Washington, NY, United States of America
1.051651449496552	39.14681235	-77.0187069262227	388	Sherwood, MD, United States of America
1.0507585336203942	39.74417505	-105.21164608271	389	Golden, CO, United States of America
1.04986866543683	41.6821461	-69.9598363	390	St Christopher's, VA, United States of America
1.0489818267688218	43.0831301	-73.7845651	391	Saratoga Spgs, NY, United States of America
1.0480979995938764	34.1706532	-77.89338649999999	392	Cape Fear Academy, NC, United States of America
1.0472171660423406	41.15466715	-73.3276954327841	393	Staples-Westport, CT, United States of America
1.0463393083957206	39.4133502	-76.9531704	394	Liberty, MD, United States of America
1.045464409085023	36.1264522	-80.3131176	395	Mount Tabor, NC, United States of America
1.0445924506891189	42.18135865	-70.9439389174459	396	Weymouth, MA, United States of America
1.0437234159331301	38.4836465	-90.5007414	397	Cranbrook, MI, United States of America
1.0428572876868365	43.05923205	-70.7652538490579	398	Portsmouth, NH, United States of America
1.0419940489631043	38.9301752	-76.4958195	399	Key School, MD, United States of America
1.0411336829163373	40.6386744	-75.5491527302499	400	Parkland, PA, United States of America
1.0402761728409455	42.5446	-70.9742999	401	Peabody, MA, United States of America
1.0394215021698368	40.8745177	-74.26920369999999	402	West Essex Regional, NJ, United States of America
1.038569654472928	41.833491	-71.3980237	403	Moses Brown, RI, United States of America
1.037720613455674	42.66838615	-72.4851050486311	404	Northfield Mt Hermon, MA, United States of America
1.0368743629576187	40.9598203	-74.0493067	405	Bergen Catholic, NJ, United States of America
1.036030886950963	40.8650992	-73.5951263	406	Friends Academy, NY, United States of America
1.035190169539152	42.420573	-71.1279179	407	Brooks School, MA, United States of America
1.0343521949554835	40.70327395	-73.5064620027541	408	MacArthur, NY, United States of America
1.033516947561728	34.0628767	-84.3815932	409	Roswell, GA, United States of America
1.032684411846774	41.05535205	-74.6239956149296	410	Sparta, NJ, United States of America
1.0318545724252866	39.0491051	-77.5094513630933	411	Stone Bridge, VA, United States of America
1.0310274140363842	41.6001022	-71.2708822	412	Portsmouth Abbey, RI, United States of America
1.0293810799272602	40.88179965	-73.627262143205	414	Glen Cove, NY, United States of America
1.028561874295876	32.9947515	-117.065010408639	415	Rancho Bernardo, CA, United States of America
1.0277452898722221	39.1843661	-76.667445	416	NorthEast AA, MD, United States of America
1.0269313119984314	38.990733	-76.3092282020402	417	Kent Island, MD, United States of America
1.026119926133501	38.7266318	-77.0927207	418	Mount Vernon, VA, United States of America
1.0253111178520864	41.53179895	-72.6203198874681	419	Xavier-Middletown, CT, United States of America
1.0245048728433064	42.5070435	-71.3203159501964	420	Concord Carlisle, MA, United States of America
1.023701176909565	40.00544155	-75.4228891134414	421	Episcopal Academy, PA, United States of America
1.0229000159653892	41.5877778	-73.9174999	422	Wappingers Falls, NY, United States of America
1.0221013760362796	42.9342355	-75.8583355	423	Cazenovia, NY, United States of America
1.0213052432575762	44.3445624	-73.1099672	424	Champlain Valley, VT, United States of America
1.0205116038733384	42.30258735	-71.2792295320111	425	Wellesley HS, MA, United States of America
1.019720444235239	41.7508392	-99.297326	426	Kent School, CT, United States of America
1.0189317508014728	39.44309765	-77.04142025	427	South Carroll, MD, United States of America
1.0181455101356771	36.9705061	-122.0324629	428	Santa Cruz, CA, United States of America
1.0173617089058677	42.3845334	-72.5108354524231	429	Amherst-Pelham, MA, United States of America
1.0165803338833859	43.1163889	-75.2927777	430	Whitesboro, NY, United States of America
1.0158013719418602	40.7995447	-74.2059787	431	Glen Ridge, NJ, United States of America
1.0150248100561798	39.6103807	-76.8610887	432	North Carroll, MD, United States of America
1.0127093959808329	40.68851595	-73.9024133515835	435	Holy Trinity, NY, United States of America
1.011942306057446	39.8559543	-74.7761224	436	Shawnee, NJ, United States of America
1.011177552548233	42.7268624	-78.8298435	437	Hamburg, NY, United States of America
1.0104151230147982	38.95183545	-77.0832629296404	438	Georgetown Day, DC, United States of America
1.008897186592866	40.3225097	-74.6006179	440	West Windsor-PB So, NJ, United States of America
1.0073883991562793	38.81851229999999	-77.1687535	442	Thos Jefferson, VA, United States of America
1.0066374061982868	28.6823458	-81.4226193225388	443	Lake Brantley, FL, United States of America
1.005888664536419	40.7317463	-74.4007444	444	Chatham, NJ, United States of America
1.005142162374099	39.3905794	-76.6002762716028	445	Towson, MD, United States of America
1.0043978880028939	39.5869266	-105.003629706601	446	Heritage, CO, United States of America
1.0029159762356983	40.30530905	-75.1377394613682	448	Central Bucks West, PA, United States of America
1.0021783158559212	43.6460715	-70.2696659	449	Waynflete, ME, United States of America
1.001442837298028	40.2454028	-75.6340730637132	450	Hill School, PA, United States of America
1.000709529281689	37.8404819	-122.1460765	451	Miramonte, CA, United States of America
0.9992493801673938	39.2524068	-84.320758	453	Cincinnati Indian Hill, OH, United States of America
0.9985225169214405	39.7177037	-75.6887331	454	St Marks, DE, United States of America
0.9977977799194829	42.3667625	-71.3031131	455	Weston, MA, United States of America
0.9970751582891633	38.3559376	-76.4391318888112	456	Patuxent, MD, United States of America
0.9963546412374054	42.2251225	-70.8776890401925	457	Hingham, MA, United States of America
0.9956362180496631	40.6753793	-73.5429044	458	Mepham, NY, United States of America
0.9949198780891814	40.3382193	-74.6846029	459	Hun School, NJ, United States of America
0.9942056107962616	40.05619799999999	-75.408226	460	Woodlynde, PA, United States of America
0.9934934056875384	39.5913883	-104.747298695684	461	Grandview, CO, United States of America
0.9927832523552621	26.103632	-80.403101881737	462	Weston FL, FL, United States of America
0.992075140466594	42.0297007	-71.2036696483533	463	Mansfield, MA, United States of America
0.9913690597629033	42.0952646	-71.4114805	464	Franklin, MA, United States of America
0.9906650000590785	40.7928793	-80.0758425	465	Seneca Valley, PA, United States of America
0.9899629512428412	41.8912631	-72.7959463000224	466	Westminster School, CT, United States of America
0.9892629032740735	38.8022995	-77.2718110517746	467	Lake Braddock, VA, United States of America
0.9885648461841463	39.8834425	-75.7196607	468	Unionville, PA, United States of America
0.9878687700752614	42.62164145	-71.3738803797843	469	Chelmsford, MA, United States of America
0.9871746651197977	30.19432435	-95.5045786608027	470	The Woodlands, TX, United States of America
0.9864825215596655	39.5848235	-76.9938703	471	PH-St Johns, MD, United States of America
0.9857923297056684	39.1342269	-77.0263598	472	Sandy Springs, MD, United States of America
0.9851040799368712	30.45588885	-97.7977960547478	473	Westwood, TX, United States of America
0.9844177626999772	44.406732	-70.7917359	474	Gould Academy, ME, United States of America
0.9830508879432075	39.424135	-76.7935208051165	476	Owings Mills, MD, United States of America
0.9823703116494098	38.9714997	-76.7427464	477	Bowie, MD, United States of America
0.9816916303384714	41.31216985	-72.7119570639331	478	Guilford, CT, United States of America
0.9796668643801756	30.2729495	-97.7669278345007	481	Austin, TX, United States of America
0.9789956713959257	33.96717165	-84.6832395881206	482	Harrison, GA, United States of America
0.9783263279080512	36.155372	-79.9533469	483	NorthWest Guilford, NC, United States of America
0.9776588250068116	40.7987107	-73.5426253	484	Jericho, NY, United States of America
0.9769931538436818	38.814431	-76.9080209	485	Gunston, MD, United States of America
0.9763293056308076	39.1764139	-75.5396650770465	486	Dover, DE, United States of America
0.9756672716404658	38.928224	-77.06041499999999	487	Maret, DC, United States of America
0.9750070432045301	40.1970949	-75.163972524242	488	Hatboro-Horsham, PA, United States of America
0.9743486117139433	40.71418145	-73.6685791139288	489	Carey, NY, United States of America
0.9736919686181942	39.4057672	-76.5621990790781	490	Loch Raven, MD, United States of America
0.9730371054248018	39.6513889	-105.0366666	491	Mullen, CO, United States of America
0.9723840136988042	43.04065655	-76.097194577617	492	Nottingham, NY, United States of America
0.9717326850622522	39.95721475	-75.2844390544217	493	Upper Darby, PA, United States of America
0.9710831111937102	34.1998549	-77.8921411	494	Wilmington Hoggard, NC, United States of America
0.9704352838277611	38.9684958	-104.847213	495	Colorado Academy, CO, United States of America
0.9697891947545167	37.7532062	-122.154881820827	496	Bishop O'Dowd, CA, United States of America
0.9685021989213374	44.490628	-73.1112669	498	Essex Junction, VT, United States of America
0.9678612760149409	39.3094276	-76.6776526754184	499	Walbrook, MD, United States of America
0.9672220591073839	27.62859005	-80.4035754155209	500	Vero Beach, FL, United States of America
0.9665845402592659	42.937945	-70.8380649	501	Winnacunnet, NH, United States of America
0.9646820934653281	38.8961	-77.2792099	504	Madison, VA, United States of America
0.9634221426949965	39.4328802	-77.2474825	506	Linganore, MD, United States of America
0.9627946483958305	37.5796741	-77.586755	507	Collegiate School, VA, United States of America
0.9621687980308335	40.9034322	-74.4037636	508	Boonton, NJ, United States of America
0.9615445840697654	42.63267155	-70.8739748345129	509	Pingree, MA, United States of America
0.9609219990315869	39.21605815	-76.9267008656082	510	River Hill, MD, United States of America
0.960301035484042	35.7457025	-78.8382514629026	511	Apex, NC, United States of America
0.959681686043245	34.4047169	-119.4798433	512	Cate School, CA, United States of America
0.959063943373272	42.47982085	-71.4583269841174	513	Acton Boxborough, MA, United States of America
0.9584478001857569	41.2560052	-81.4139387452058	514	Hudson, OH, United States of America
0.9578332492394905	43.7978568	-70.2569943	515	Greely, ME, United States of America
0.9572202833400261	40.8684557	-73.3586549	516	Harborfields, NY, United States of America
0.9566088953392851	38.7628566	-77.4484807	517	Osbourn Park, VA, United States of America
0.9559990781351718	40.8384331	-73.6312389	518	North Shore, NY, United States of America
0.9553908246711877	39.6295559	-104.8009153	519	Smoky Hill, CO, United States of America
0.9547841279360529	39.5758968	-77.758482	520	St James, MD, United States of America
0.9541789809633284	26.876959	-80.106357	521	W.T. Dwyer, FL, United States of America
0.9535753768310452	38.3651178	-75.5796462	522	Wicomico, MD, United States of America
0.9529733086613364	41.5630556	-73.5969443	523	Trinity-Pawling, NY, United States of America
0.9523727696200704	40.57369705	-111.888123053518	524	Jordan, UT, United States of America
0.9517737529164919	40.741389	-73.6577776	525	Mineola, NY, United States of America
0.9511762518028638	41.55623195	-71.4485952335191	526	North Kingstown, RI, United States of America
0.9505802595741141	43.6798181	-70.277631	527	Cheverus, ME, United States of America
0.9499857695674843	39.9501097	-82.93343569999999	528	Columbus St Charles, OH, United States of America
0.949392775162185	42.11058775	-72.4445531639882	529	Minnechaug, MA, United States of America
0.9482112468802026	40.04226555	-75.3165399284129	531	Harriton, PA, United States of America
0.9476226999687093	33.98980905	-84.4400399453192	532	Walton, GA, United States of America
0.9470356225882564	39.1896909	-76.8812352685969	533	Atholton, MD, United States of America
0.9464500083228158	41.6984319	-71.9709074	534	Canterbury, CT, United States of America
0.94586585079632	40.1717754	-75.2273981	535	Wissahickon, PA, United States of America
0.9452831436723389	39.2992019	-76.8396083059577	536	Mt. Hebron, MD, United States of America
0.9447018806537596	39.2196122	-84.3592785378475	537	Archbishop Moeller, OH, United States of America
0.9441220554824695	40.9731712	-73.6865301	538	Rye HS, NY, United States of America
0.9435436619390449	40.2401673	-77.0615260049836	539	Cumberland Valley, PA, United States of America
0.9423911450496704	39.6042071	-105.075487596242	541	Columbine, CO, United States of America
0.9418170094555296	40.1120981	-75.131461	542	Abington, PA, United States of America
0.9412442809922672	39.130639	-77.1188168	543	Magruder, MD, United States of America
0.9406729536292994	40.208798	-74.9322679	544	George School, PA, United States of America
0.9401030213729132	42.6324478	-71.913257	545	Cushing Academy, MA, United States of America
0.9395344782659737	39.5389726	-76.3331499	546	John Carroll, MD, United States of America
0.9389673183876327	38.6434621	-75.4427296	547	Sussex Tech, DE, United States of America
0.9384015358530432	40.8006567	-73.7284647	548	Great Neck So, NY, United States of America
0.9378371248130754	39.94757525	-75.3481673121681	549	Cardinal O'Hara, PA, United States of America
0.9372740794540346	39.8991973	-75.06049	550	Paul VI, VA, United States of America
0.9367123939973829	42.613531	-70.6751419	551	Gloucester, MA, United States of America
0.9361520626994636	40.8043899	-74.4480122	552	Morristown Beard, NJ, United States of America
0.9355930798512274	38.7572962	-75.1494885	553	Cape Henlopen, DE, United States of America
0.9350354397779618	40.33355715	-80.0418396636526	554	Bethel Park, PA, United States of America
0.934479136839023	33.34623175	-111.766494829613	555	Gilbert, AZ, United States of America
0.9339241654275707	42.9127778	-76.8688888	556	Waterloo, NY, United States of America
0.9333705199703054	40.82316305	-74.2131656036377	557	Montclair, NJ, United States of America
0.9328181949272074	42.192683	-75.8548479	558	Chenango Forks, NY, United States of America
0.9322671847912789	42.2192249	-71.3231061	559	Dover-Sherborn, MA, United States of America
0.9317174840882891	42.56106895	-71.2739867812867	560	Billerica, MA, United States of America
0.93116908737652	37.8438451	-121.9817492	561	Monte Vista/Danville, CA, United States of America
0.9306219892465174	25.6254603	-80.3430227	562	Miami Palmetto, FL, United States of America
0.9300761843208409	38.5952295	-90.6375145525004	563	Lafayette, MO, United States of America
0.9295316672538194	40.9814819	-73.7374425336433	564	Harrison, NY, United States of America
0.9289884327313066	38.96819065	-104.84612191246	565	Air Academy, CO, United States of America
0.92844647547044	39.1751066	-77.2644277	566	Seneca Valley, MD, United States of America
0.9273663717571812	35.1716427	-80.8332355	568	Charlotte Myers Park, NC, United States of America
0.9268282148933428	42.4355935	-71.1930303	569	Lexington Christian, MA, United States of America
0.9262913144677901	42.2081552	-71.0058807	570	Thayer Academy, MA, United States of America
0.9257556653505385	42.304404	-71.815298	571	Bancroft, MA, United States of America
0.9252212624414854	42.750749	-70.8999696179104	572	Governor Dummer, MA, United States of America
0.9246881006701855	28.6733304	-81.2183982	573	Oviedo, FL, United States of America
0.9241561749956257	40.7263338	-73.3246519782362	574	North Babylon, NY, United States of America
0.9236254804060043	39.7023341	-75.6954872	575	Choate, CT, United States of America
0.9230960119185112	42.3999954	-73.2322638	576	Berkshire, MA, United States of America
0.9225677645791095	27.4972695	-82.6016133	577	Episcopal Jacksonvle, FL, United States of America
0.9220407334623206	47.6262626	-122.5204512	578	Bainbridge Island, WA, United States of America
0.9215149136710099	39.39169255	-76.4655725464706	579	Perry Hall, MD, United States of America
0.9209903003361761	40.4295134	-79.9189396	580	Taylor Alderdice, PA, United States of America
0.9204668886167399	38.8093982	-77.0812583	581	Bishop Ireton, VA, United States of America
0.9199446736993373	32.7990229	-117.052100345347	582	Patrick Henry, CA, United States of America
0.9194236507981127	38.2014433	-90.3928988	583	St Pius X, GA, United States of America
0.9189038151545166	34.836476	-87.6780838	584	Buckingham, MA, United States of America
0.9183851620371011	39.14233995	-77.4176930480543	585	Poolesville, MD, United States of America
0.9178676867413208	39.761971	-75.547721	586	Salesianum, DE, United States of America
0.9173513845893344	39.0263572	-76.1319953	587	Queen Annes Cnty, MD, United States of America
0.9163222811377173	40.6228095	-74.3140212	589	AL Johnson/Clark, NJ, United States of America
0.9158094706141602	39.4222105	-76.2861595	590	Edgewood, MD, United States of America
0.9152978147861597	39.0721718	-76.6830553	591	Arundel, MD, United States of America
0.9147873091064767	37.9993671	-122.5519221	592	Terra Linda, CA, United States of America
0.9142779490534222	39.1388814	-76.44739679999999	593	Chesapeake-AA, MD, United States of America
0.9137697301306701	33.957879	-84.3629818	594	North Springs, GA, United States of America
0.9132626478670727	39.6590058	-77.5747101	595	Smithsburg, MD, United States of America
0.9127566978164775	28.70418265	-81.2654721962129	596	Winter Springs, FL, United States of America
0.9122518755575468	43.1447939	-72.5096977793302	597	Vermont Academy, VT, United States of America
0.9117481766935772	40.52487065	-111.960689300668	598	Riverton, UT, United States of America
0.9112455968523202	38.3418227	-75.1906972	599	Stephen Decatur, MD, United States of America
0.9107441316858086	44.6386721	-70.130894	600	Mt. Blue, ME, United States of America
0.9097445281054967	40.7351019	-73.6879081	602	New Hyde Park, NY, United States of America
0.9092463811155909	39.9837231	-75.3010194	603	Haverford HS, PA, United States of America
0.9082533754731869	41.3172398	-72.9738311644653	605	Hopkins School, CT, United States of America
0.9077585083856112	41.8436493	-72.6557921107456	606	Windsor, CT, United States of America
0.9072647262023227	38.981785	-77.1275023330957	607	Whitman, MD, United States of America
0.906772024763417	38.7556716	-76.0654963	608	Easton, MD, United States of America
0.9062803999317486	39.8267587	-77.8986091	609	Mercersburg Academy, PA, United States of America
0.9057898475927693	35.0882733	-80.849798	610	Charlotte Catholic, NC, United States of America
0.9053003636543675	40.201824	-77.1893887	611	Carlisle, PA, United States of America
0.9048119440467098	42.0975869	-76.0482546597201	612	Union-Endicott, NY, United States of America
0.904324584722084	32.6382191	-82.7676383	613	Lovett, GA, United States of America
0.9038382816547417	34.0070442	-84.290479	614	Centennial, GA, United States of America
0.9033530308407447	40.0570949	-75.567083	615	Great Valley, PA, United States of America
0.9028688282978112	36.0834689	-79.8150319	616	Greensboro Grimsley, NC, United States of America
0.9023856700651639	41.3359272	-73.8740251	617	Putnam Valley, NY, United States of America
0.9019035522033791	38.8598759	-77.2862969757435	618	Fairfax, VA, United States of America
0.9014224707942374	40.350265	-76.760026	619	Lancaster CD, PA, United States of America
0.9004634017661378	42.5884618	-76.1742807	621	Cortland, NY, United States of America
0.8999854064154346	40.580602	-74.6178548	622	Immaculata, NJ, United States of America
0.8995084320535938	42.58331775	-70.9318685193334	623	Danvers, MA, United States of America
0.8990324748662195	38.8220478	-77.2075747	624	Annandale, VA, United States of America
0.89855753105925	41.4420644	-73.6034463154583	625	Brewster, NY, United States of America
0.8980835968588161	39.140745	-77.7005860443286	626	Loudoun Valley, VA, United States of America
0.8971387422822138	42.0940787	-88.0656048553471	628	Fremd/Palatine, IL, United States of America
0.8966678144580242	33.63697335	-117.687751613223	629	El Toro, CA, United States of America
0.8961978813440569	32.83405585	-117.272892092514	630	La Jolla, CA, United States of America
0.8952609845662753	39.98391	-75.261518	632	Friends Central, PA, United States of America
0.8947940136105066	39.83026075	-75.5254993297501	633	Concord, DE, United States of America
0.8943280227807867	41.70066025	-72.7448484028985	634	Newington, CT, United States of America
0.8938630084788474	35.1668118	-80.7514584	635	Woodberry Forest, VA, United States of America
0.8933989671252707	42.2813889	-83.70264300000001	636	AA Huron, MI, United States of America
0.8924737890390141	43.70149835	-116.401015562782	638	Eagle, ID, United States of America
0.8920126452405993	41.0701861	-73.84337230000001	639	Hackley, NY, United States of America
0.8915524602588264	40.3874658	-75.2747359	640	Pennridge, PA, United States of America
0.8910932306066252	38.6816306	-77.3020768	641	Woodbridge, VA, United States of America
0.8906349528150217	42.0984089	-75.9193626	642	Binghamton, NY, United States of America
0.8901776234330172	40.4468606	-79.9458211	643	Central Catholic, PA, United States of America
0.889721239027467	38.0895905	-122.571736	644	Novato, CA, United States of America
0.8892657961829593	42.7964724	-76.1140658	645	Tully, NY, United States of America
0.8888112915016981	42.9674117	-78.7313244	646	Williamsville Ea, NY, United States of America
0.8883577216033833	43.618883	-72.9538771159524	647	Rutland, VT, United States of America
0.8879050831250963	38.04730895	-78.7052442724124	648	Western Albemarle, VA, United States of America
0.8870025870631313	43.1670236	-71.828412	650	Proctor, NH, United States of America
0.8865527228394748	37.66803425	-121.875377099148	651	Amador Valley, CA, United States of America
0.8861037767556614	38.98734195	-77.3742492762203	652	Herndon, VA, United States of America
0.8856557455339505	35.288348	-119.1080604	653	Branson, CA, United States of America
0.8847624146492515	40.3556641	-79.9778633453109	655	Baldwin, PA, United States of America
0.8838727042954282	37.90488835	-122.097365786881	657	Acalanes, CA, United States of America
0.8834291987986977	41.76768755	-88.1551959187277	658	Naperville Central, IL, United States of America
0.8829865888444476	39.02506835	-77.1301048813096	659	Walter Johnson, MD, United States of America
0.8825448712695343	39.216984	-76.8727114957514	660	Wilde Lake, MD, United States of America
0.882104042926758	42.1169295	-76.2728687	661	Owego Free Acad, NY, United States of America
0.8816641006847588	28.52816935	-81.146428740795	662	Timber Creek, FL, United States of America
0.8812250414279105	43.1529456	-70.7970103	663	Marshwood, ME, United States of America
0.8807868620562217	40.7742653	-72.9223274	664	Bellport, NY, United States of America
0.880349559485231	39.1560025	-122.1571966	665	Williams, CT, United States of America
0.8799131306459077	34.8622058	-85.8347410061685	666	Stevenson, IL, United States of America
0.8790428819626894	40.374194	-74.5634606	668	South Brunswick, NJ, United States of America
0.8786090560569849	40.7816605	-73.4587311	669	Plainview JFK, NY, United States of America
0.8781760917591322	42.9482232	-85.6129143967942	670	East Grand Rapids, MI, United States of America
0.8777439860757636	43.0445708	-75.872947	671	Chittenango, NY, United States of America
0.8773127360283514	41.7344469	-70.4597584352984	672	Sandwich, MA, United States of America
0.8768823386531134	39.25959465	-76.7292521365685	673	Catonsville, MD, United States of America
0.8764527910009178	37.5457699	-122.3166361	674	Serra, CA, United States of America
0.876024090137189	36.10052285	-80.2653965724362	675	R.J. Reynolds, NC, United States of America
0.875596233141814	42.1933581	-87.8014551	676	Highland Park, IL, United States of America
0.8751692171090508	37.8260853	-122.006033	677	San Ramon, CA, United States of America
0.8747430391474358	40.7777808	-74.5912517090318	678	Mendham, NJ, United States of America
0.874317696379693	39.1453143	-84.364127405997	679	Mariemont, OH, United States of America
0.8738931859426433	38.9063681	-77.2125131648206	680	Marshall, VA, United States of America
0.8734695049871152	43.1514749	-70.84089	681	St Thomas Aquinas, NH, United States of America
0.8730466506778559	39.192098	-76.6375082395843	682	North County, MD, United States of America
0.8726246201934424	36.7954163	-79.4941945	683	Flint Hill, VA, United States of America
0.8722034107261951	27.1702922	-80.2482741403478	684	Martin County, FL, United States of America
0.8717830194820887	43.2659168	-70.8645038	685	Berwick, ME, United States of America
0.8713634436806686	40.8638204	-72.9242514481796	686	Longwood, NY, United States of America
0.8701095813297267	42.3806752	-83.1098895	689	De La Salle, MI, United States of America
0.8696932397629105	43.6021105	-116.2695638	690	Bishop Kelly, ID, United States of America
0.8692776999370759	30.2765551	-97.8144540122411	691	Westlake, TX, United States of America
0.8688629591514105	40.1071378	-83.1311268	692	Dublin Coffman, OH, United States of America
0.8684490147180868	39.8926823	-75.3060413010849	693	Interboro, PA, United States of America
0.8680358639621799	39.68774945	-79.9283352140817	694	University, WV, United States of America
0.8676235042215878	42.1112449	-87.8321866	695	Glenbrook North, IL, United States of America
0.8672119328469513	40.3439248	-87.8247509	696	Covenant, VA, United States of America
0.8668011472015751	44.6051884	-75.168457	697	Canton Central, NY, United States of America
0.8663911446613489	40.15311415	-75.1997546310871	698	Upper Dublin, PA, United States of America
0.8659819226146698	40.01169005	-75.7178930752684	699	Downingtown, PA, United States of America
0.8655734784623643	36.1494683	-79.8369836	700	Greensboro Day, NC, United States of America
0.8647589135058683	40.97115555	-72.2002149483579	702	East Hampton, NY, United States of America
0.8643527875647912	39.80218175	-75.4541827133886	703	Archmere Academy, DE, United States of America
0.8639474292441639	40.800125	-73.73995339999999	704	Great Neck No, NY, United States of America
0.8635428360058209	40.54900865	-111.860916705025	705	Alta, UT, United States of America
0.863139005323574	43.6507561	-116.336902104469	706	Centennial, ID, United States of America
0.8627359346831398	42.6861973	-72.0439685	707	Winchendon, MA, United States of America
0.8619320635296577	37.9989843	-78.489271	709	Monticello, VA, United States of America
0.8615312580469097	40.88166555	-73.2438755673074	710	Kings Park, NY, United States of America
0.8611312026664316	39.0439925	-77.172990652889	711	Churchill, MD, United States of America
0.8607318949323782	46.4354623	-115.8876391	712	Timberline, ID, United States of America
0.8603333324003796	42.6283244	-70.8482769	713	Hamilton-Wenham, MA, United States of America
0.8599355126374718	40.8464571	-74.5667697159893	714	Randolph, NJ, United States of America
0.8595384332220267	43.3964738	-70.548664	715	Kennebunk, ME, United States of America
0.8591420917436846	38.5916682	-90.4234016191751	716	Kirkwood, MO, United States of America
0.8587464858032856	42.0739637	-72.6450505172579	717	Agawam, MA, United States of America
0.8583516130128012	39.339125	-82.1008619	718	Troy Athens, MI, United States of America
0.8579574709952694	25.874262	-80.183936	719	Miami Country Day, FL, United States of America
0.8575640573847257	39.23904165	-76.4410946526604	720	Sparrows Point, MD, United States of America
0.8571713698261384	40.7527937	-74.184769	721	Newark Academy, NJ, United States of America
0.8567794059753429	41.5906968	-70.6088633914101	722	Falmouth HS, MA, United States of America
0.856388163498976	43.03686545	-78.9333868519581	723	Grand Island, NY, United States of America
0.855997640074412	40.1647934	-80.249227	724	Trinity, PA, United States of America
0.8556078333896981	40.2845058	-76.8001033	725	Central Dauphin East, PA, United States of America
0.8552187411434908	37.2777997	-79.9384281	726	St Andrews, DE, United States of America
0.8548303610449928	39.282394	-76.66292899999999	727	SouthWestern, MD, United States of America
0.8544426908138895	39.4745548	-77.3610315	728	Walkersville, MD, United States of America
0.8540557281802884	40.519195	-79.86958369999999	729	Fox Chapel, PA, United States of America
0.8536694708846556	41.2486155	-81.4337259388139	730	Western Reserve Acad, OH, United States of America
0.8532839166777548	40.1155415	-83.0558302	731	Worthington Kilbourne, OH, United States of America
0.8528990633205872	38.78238	-77.1338499	732	Edison, VA, United States of America
0.8525149085843297	36.0629149	-80.3875541	733	Forsyth Cou Day, NC, United States of America
0.8521314502502759	32.6486656	-117.0066923	734	Bonita Vista, CA, United States of America
0.8517486861097763	42.9400809	-72.3134192	735	Keene, NH, United States of America
0.8513666139641782	38.5447053	-76.08964430000002	736	Cambridge SD, MD, United States of America
0.8509852316247682	40.9411788	-73.7435731	737	Mamaroneck, NY, United States of America
0.8506045369127133	42.3938659	-71.2296977001954	738	Waltham, MA, United States of America
0.8502245276590025	40.8098887	-74.7285183	739	West Morris Central, NJ, United States of America
0.8494665568993389	37.46227555	-122.174647701133	741	Menlo-Atherton, CA, United States of America
0.8490885911039614	43.2818508	-76.1498637	742	Central Square, NY, United States of America
0.8487113021879664	41.3652189	-73.7569963204998	743	Mahopac, NY, United States of America
0.8483346880306012	42.7387379	-71.4739405136301	744	Bishop Guertin, NH, United States of America
0.8479587465205967	34.02508015	-118.826061191584	745	Malibu, CA, United States of America
0.8475834755561126	40.75501425	-111.86007872533	746	Judge Memorial, UT, United States of America
0.8472088730446821	43.6053958	-71.6780146	747	New Hampton, NH, United States of America
0.8468349369031583	40.2640217	-75.6206345	748	Pottsgrove, PA, United States of America
0.8464616650576597	35.8875868	-84.1604158932979	749	Farragut, TN, United States of America
0.846089055443517	40.9378396	-73.8305366	750	Bronxville, NY, United States of America
0.8457171060052204	39.3262047	-77.3407907	751	Urbana, MD, United States of America
0.8453458146963657	38.6647734	-90.5044529	752	Parkway Central, MO, United States of America
0.8449751794796029	39.9725895	-105.246221204107	753	Fairview, CO, United States of America
0.8446051983265834	40.7633333	-73.3341666	754	Deer Park, NY, United States of America
0.8442358692179095	42.90692405	-78.6783280705612	755	St Mary's, NY, United States of America
0.8438671901430821	40.903155	-73.8112445	756	Pelham Memorial, NY, United States of America
0.8434991591004499	41.8012113	-71.4533915	757	Rocky Hill, RI, United States of America
0.8431317740971592	39.4464902	-77.5341542	758	Middletown, MD, United States of America
0.8427650331491037	41.36890625	-72.2127679540828	759	East Lyme, CT, United States of America
0.8423989342808741	42.3131531	-71.1861651	760	Newton South, MA, United States of America
0.8420334755257091	38.5772523	-90.5120413	761	Parkway South, MO, United States of America
0.8416686549254461	42.86101715	-71.4983801433623	762	Merrimack, NH, United States of America
0.8413044705304723	40.51527035	-79.9744164496882	763	Shaler Area, PA, United States of America
0.8409409203996766	43.05792515	-77.6063444861447	764	Rush Henrietta, NY, United States of America
0.8405780026004008	40.99684405	-74.3765669112669	765	Kinnelon, NJ, United States of America
0.8402157152083923	39.5615926	-76.3301611	766	CM Wright, MD, United States of America
0.839854056307756	42.5699445	-70.8470722	767	Waring, MA, United States of America
0.8394930239909086	44.3144676	-69.7491169107492	768	Cony, ME, United States of America
0.8391326163585301	38.7863077	-77.2402379	769	West Springfield, VA, United States of America
0.838772831519518	28.55252425	-81.3019177898824	770	Colonial, FL, United States of America
0.8384136675909412	32.942326	-96.84404800000002	771	Greenhill, TX, United States of America
0.8380551226979946	35.7089573	-86.3944369	772	Christiana, DE, United States of America
0.8376971949739526	40.7648233	-73.6626294	773	Herricks, NY, United States of America
0.837339882560124	41.6430575	-70.3905719	774	Cape Cod Academy, MA, United States of America
0.8369831836058086	34.2373861	-77.9322968	775	Wilmington New Han'r, NC, United States of America
0.8366270962682503	39.9266484	-75.338894214589	776	Springfield-Twp, PA, United States of America
0.8362716187125945	44.0935722	-70.2025508	777	Lewiston, ME, United States of America
0.8359167491118428	38.3662114	-75.600888	778	Salisbury, MD, United States of America
0.835562485646811	42.3282822	-71.6074425509687	779	Algonquin, MA, United States of America
0.8352088265060847	42.49801205	-71.1981901820925	780	Burlington, MA, United States of America
0.8348557698859757	42.1621643	-76.8240741	781	Horseheads, NY, United States of America
0.8345033139904796	33.58863425	-111.8109526	782	Desert Mountain, AZ, United States of America
0.8341514570312343	35.88433595	-78.630475269275	783	Ravenscroft School, NC, United States of America
0.8338001972274766	38.7651873	-77.5088776454261	784	Stonewall Jackson, VA, United States of America
0.833449532806	38.4669229	-77.4561887	785	North Stafford, VA, United States of America
0.8330994620011146	40.901651	-111.882727918612	786	Viewmont, UT, United States of America
0.8327499830546038	40.21924075	-75.4565339561885	787	Perkiomen Valley, PA, United States of America
0.8324010942156849	42.9879381	-77.4141449	788	Victor, NY, United States of America
0.8320527937409677	41.2636925	-75.8976968	789	Wyoming Seminary, PA, United States of America
0.8317050798944129	42.4647833	-78.9480905	790	Gowanda, NY, United States of America
0.8313579509472938	47.2456966	-68.5287742271536	791	Kent Hill, ME, United States of America
0.831011405178155	38.99463295	-76.8695390779589	792	Eleanor Roosevelt, MD, United States of America
0.8306654408727723	42.2132092	-71.5267901996232	793	Hopkinton, MA, United States of America
0.8303200563241148	39.7640549	-105.1036126	794	Wheatridge, CO, United States of America
0.8299752498323043	33.36234335	-111.867818301082	795	Dobson, AZ, United States of America
0.8296310197045775	36.88681355	-76.0537303437544	796	Cox, VA, United States of America
0.8292873642552459	41.0384302	-74.1434769	797	Northern Highlands, NJ, United States of America
0.8289442818056586	41.35794595	-73.0053446589273	798	Amity-Woodbridge, CT, United States of America
0.8286017706841641	39.7421068	-75.0766802	799	Washington Twp, NJ, United States of America
0.8282598292260716	43.7405766	-70.2728682	800	Falmouth, ME, United States of America
0.8279184557736137	40.9320429	-74.1251427	801	Fair Lawn, NJ, United States of America
0.8275776486759097	40.3653838	-74.9587786	802	New Hope/Solebury, PA, United States of America
0.8272374062889276	38.7344473	-77.80186	803	Highland School, VA, United States of America
0.8268977269754475	40.8270431	-73.4259544	804	Walt Whitman, NY, United States of America
0.8262200510539538	40.0970507	-75.4696357	806	Valley Forge, PA, United States of America
0.8258820512052322	44.8176792	-93.3312902	807	Bloom Jefferson, MN, United States of America
0.825544607948524	40.99453015	-73.7932680034856	808	Scarsdale, NY, United States of America
0.8252077196801245	30.0792562	-81.4479872685438	809	Nease, FL, United States of America
0.824871384802925	42.9439181	-85.5244686	810	Forest Hills, MI, United States of America
0.8245356017263774	42.1278526	-76.022423	811	Maine-Endwell, NY, United States of America
0.8242003688664586	37.612607	-122.4279914	812	Peninsula, CA, United States of America
0.8238656846456365	40.1759388	-75.3976812	813	Methacton, PA, United States of America
0.8235315474928354	42.442884	-71.2332039805502	814	Lexington HS, MA, United States of America
0.8231979558434012	33.29576255	-112.01671306988	815	Desert Vista, AZ, United States of America
0.8228649081390677	40.7236634	-111.843479421493	816	Highland, UT, United States of America
0.8225324028279225	40.176766	-75.6563054	817	Owen J Roberts, PA, United States of America
0.8222004383643741	33.2512215	-111.843452696251	818	Hamilton, AZ, United States of America
0.8218690132091165	39.9519199	-105.141794978828	819	Monarch, CO, United States of America
0.8215381258290989	42.8669444	-76.9874999	820	Geneva, NY, United States of America
0.8212077746974903	42.8331151	-78.6050257	821	Iroquois, NY, United States of America
0.8208779582936475	42.8692408	-71.3793387200395	822	Londonderry, NH, United States of America
0.8202199236174318	40.8937113	-74.3596403005618	824	Montville, NJ, United States of America
0.8198917023344201	41.1915033	-81.4970808294655	825	Walsh Jesuit, OH, United States of America
0.8195640097578326	43.1239669	-77.5908975989522	826	McQuaid Jesuit, NY, United States of America
0.8192368443974812	43.21148875	-75.4167069968766	827	Rome Free Acad, NY, United States of America
0.8189102047691735	40.2980916	-75.3560416	828	Souderton, PA, United States of America
0.8179334255238655	40.8633977	-79.9181111	831	Butler Area, PA, United States of America
0.8176088741006273	41.7386585	-70.59267419999999	832	Bourne, MA, United States of America
0.8172848410773146	48.2038374	-106.613128337988	833	Glasgow, DE, United States of America
0.8169613250050571	44.0592138	-103.223733881506	834	St.Thomas More, CT, United States of America
0.8166383244407662	35.97263600000001	-79.697805	835	SouthEast Guilford, NC, United States of America
0.8163158379471024	43.1414449	-78.9233736	836	Niagara Wheatfield, NY, United States of America
0.8159938640924472	42.12179065	-72.641446243102	837	West Springfield, MA, United States of America
0.8156724014508737	33.008321	-117.2440957	838	San Dieguito, CA, United States of America
0.815351448602117	43.6531914	-72.2498886	839	Lebanon, NH, United States of America
0.8147110666301254	39.9488471	-76.6932607	841	York Suburban, PA, United States of America
0.8143916346944071	42.9103667	-71.9438602299582	842	Con-Val, NH, United States of America
0.8140727069264809	41.1318755	-73.9558166381885	843	Clarkstown South, NY, United States of America
0.8137542819339558	40.3788886	-80.102497	844	Chartiers Valley, PA, United States of America
0.8134363583299309	38.2701269	-76.6113486	845	Leonardtown, MD, United States of America
0.8131189347329659	39.1245335	-76.64682719999999	846	Archbishop Spalding, MD, United States of America
0.8128020097670541	42.6999184	-71.1163794	847	Andover HS, MA, United States of America
0.8124855820615942	40.0484447	-75.0232263	848	Father Judge, PA, United States of America
0.8121696502513629	43.2745239	-71.5922961	849	Merrimack Valley, NH, United States of America
0.8115392688824198	41.4770068	-78.3686258	851	Truman, PA, United States of America
0.8112248166199058	41.5131082	-81.5003991	852	Hawken School, OH, United States of America
0.8109108548449615	40.7149336	-73.5817628272131	853	Kellenberg, NY, United States of America
0.8105973822188467	41.70641645	-88.1994376638285	854	Neuqua Valley, IL, United States of America
0.810284397408036	41.2731229	-83.3253014289054	855	Lakota, OH, United States of America
0.8099718990841944	41.9848186	-72.6506461	856	Suffield Academy, CT, United States of America
0.8096598859241503	40.0249231	-75.31523539999999	857	Shipley, PA, United States of America
0.8093483566098691	42.9922222	-76.3433332	858	Marcellus, NY, United States of America
0.8090373098284281	42.9217329	-76.7980105	859	Mynderse Acad, NY, United States of America
0.80872674427199	37.21719955	-121.844189545241	860	Leland, CA, United States of America
0.8084166586377779	39.7052005	-104.913697625	861	George Washington, CO, United States of America
0.8081070516280496	42.43709245	-82.8892243741671	862	Grosse Pointe North, MI, United States of America
0.8077979219500725	35.1744299	-89.75420729999999	863	Cordova, TN, United States of America
0.8074892683160976	42.8113889	-77.6663888	864	Livonia, NY, United States of America
0.8071810894433363	40.03750465	-83.1679043786193	865	Hilliard Darby, OH, United States of America
0.8068733840539343	39.5926005	-77.133038	866	Francis Scott Key, MD, United States of America
0.8065661508749463	35.077439	-80.7746835868932	867	Charlotte Latin, NC, United States of America
0.8062593886383139	39.4164352	-77.4262906	868	Frederick, MD, United States of America
0.8056472719441595	39.1837177	-77.2149823	870	Watkins Mill, MD, United States of America
0.805341914974728	38.5901432	-90.348357934136	871	Webster Groves, MO, United States of America
0.8047325975473345	42.49203215	-70.8687295336433	873	Marblehead, MA, United States of America
0.8044286346061256	42.75259725	-71.5127662824502	874	Nashua, NH, United States of America
0.8041251338656229	39.387761	-76.5381125839706	875	Parkville, MD, United States of America
0.8038220940959863	41.6798041	-83.5272714201053	876	Woodward, GA, United States of America
0.8035195140720469	41.03094825	-74.6676976012418	877	Pope John XXIII, NJ, United States of America
0.8032173925732853	41.0716191	-74.1362282	878	Don Bosco Prep, NJ, United States of America
0.8029157283838063	38.6119121	-77.3642193	879	Forest Park, VA, United States of America
0.8026145202923188	40.36307499999999	-74.687815	880	Princeton Day, NJ, United States of America
0.8023137670921112	39.5617737	-76.3302368	881	Milton, MA, United States of America
0.8020134675810294	41.9817438	-87.7080247	882	Northside Prep, IL, United States of America
0.8017136205614551	39.2260365	-76.812067243631	883	Howard, MD, United States of America
0.8014142248402831	38.94083985	-77.0067535359545	884	Archbishop Carroll, DC, United States of America
0.8011152792288987	42.09961699999999	-72.584054	885	Cathedral Spgf'ld, MA, United States of America
0.8008167825431568	39.4143512	-76.35151479999999	886	Joppatowne, MD, United States of America
0.8005187336033593	42.0521954	-80.1875065	887	Erie Area, PA, United States of America
0.8002211312342338	41.4394118	-71.8852467	888	Wheeler, MA, United States of America
0.7999239742649114	45.4278551	-75.6958018	889	Cornwall Ontario, CN, United States of America
0.7996272615289064	42.0728919	-71.3323046456334	890	King Phillip, MA, United States of America
0.7993309918640937	42.4647039	-83.3602957357717	891	Farmington, MI, United States of America
0.7990351641126888	42.2607756	-71.4453561187979	892	Ashland, MA, United States of America
0.798739777121226	33.70578875	-117.960559232452	893	Fountain Valley, CO, United States of America
0.7984448297405375	42.6982304	-73.9654422842923	894	Guilderland, NY, United States of America
0.7981503208257331	40.00194605	-76.3514715545761	895	Penn Manor, PA, United States of America
0.7978562492361789	44.0145017	-76.0199266	896	General Brown, NY, United States of America
0.7975626138354773	39.209257	-76.8412956018329	897	Oakland Mills, MD, United States of America
0.7972694134914459	41.0842631	-73.8570793	898	Sleepy Hollow, NY, United States of America
0.7969766470760982	30.0368167	-82.8214646	899	Palm Beach LC, FL, United States of America
0.7966843134656224	39.7706491	-76.7344250311156	900	Susquehannock, PA, United States of America
0.7963924115403617	40.252299	-75.4501049	901	Perkiomen School, PA, United States of America
0.7961009401847947	39.5349	-105.0113299	902	ThunderRidge, CO, United States of America
0.7958098982875149	28.6377762	-81.2733999	903	Lake Howell, FL, United States of America
0.7955192847412114	43.3219444	-76.411111	904	Fulton, NY, United States of America
0.7952290984426493	32.75495145	-117.037278347861	905	Helix, CA, United States of America
0.7949393382926506	45.6203734	-122.534001544589	906	Eastside, WA, United States of America
0.7946500031960734	42.1473471	-72.7537507	907	Westfield, MA, United States of America
0.7943610920617941	33.970744	-84.216646	908	Wesleyan, GA, United States of America
0.794072603802688	40.43257195	-74.3985653684705	909	East Brunswick, NJ, United States of America
0.7937845373356097	39.3934504	-76.6747359074678	910	Park School, MD, United States of America
0.7934968915813746	39.7419532	-75.5547268	911	Wilmington Friends, DE, United States of America
0.79320966546474	43.6217006	-116.203137418841	912	Boise, ID, United States of America
0.7929228579143865	41.3034296	-73.6901418433608	913	Kennedy Catholic, NY, United States of America
0.7926364678628988	44.556739	-69.7168963731145	914	Messalonskee, ME, United States of America
0.7923504942467486	37.8018525	-79.42277680000001	915	Rockbridge County, VA, United States of America
0.7920649360062745	28.3818096	-81.3795723741235	916	Cypress Creek, FL, United States of America
0.791779792085665	35.7974777	-95.2754973	917	Rivers, MA, United States of America
0.7914950614329398	36.0929095	-79.0962782	918	Hillsborough Orange, NC, United States of America
0.7912107429999318	40.2555149	-74.7434722	919	Notre Dame, NJ, United States of America
0.7909268357422692	44.9621426	-74.5188632	920	Salmon River, NY, United States of America
0.7906433386193579	40.7062124	-73.5815163	921	Uniondale, NY, United States of America
0.7903602505943632	39.0577192	-77.0064633	922	Springbrook, MD, United States of America
0.7900775706341925	42.00924	-77.2652559	923	Nichols, NY, United States of America
0.7897952977094773	41.1371829	-73.324846	924	Greens Farms Academy, CT, United States of America
0.7895134307945575	39.6798689	-75.7390383231414	925	Newark, DE, United States of America
0.7892319688674613	42.5931184	-71.5865252434644	926	Groton School, MA, United States of America
0.7886702559072001	38.8745572	-76.7608023	928	Queen Anne School, MD, United States of America
0.7883900028483865	33.51514085	-111.99827748769	929	Phoenix Country Day, AZ, United States of America
0.7881101507260655	39.3896693	-104.856866	930	Douglas County, CO, United States of America
0.7878306985364579	43.2677093	-70.8636777	931	Noble, ME, United States of America
0.7875516452793718	38.5175824	-90.4931696	932	Rockwood Summit, MO, United States of America
0.7869947315798386	39.8670558	-75.5032557	934	Garnet Valley, PA, United States of America
0.7867168691547971	40.0848	-74.9868999	935	Archbishop Ryan, PA, United States of America
0.7864394016970577	40.7621137	-73.6161658	936	Wheatley, NY, United States of America
0.786162328224119	33.7459396	-84.3535365	937	Lane Tech, IL, United States of America
0.7858856477569696	40.65247245	-74.4752436654308	938	Watchung Hills, NJ, United States of America
0.7853334619413432	40.6890717	-73.4007089	940	Copaigue, NY, United States of America
0.7850579546521452	37.2954121	-80.0792075	941	Salem, VA, United States of America
0.7847828364872622	40.67	-73.6608332	942	Malverne, NY, United States of America
0.7842337636866168	41.47356475	-81.5698558703001	944	Shaker Heights, OH, United States of America
0.783959807137411	36.87300235	-76.0286501440349	945	First Colonial, VA, United States of America
0.7836862358856027	40.5643433	-111.945799675422	946	Bingham, UT, United States of America
0.78341304898287	40.6936985	-74.5471314	947	Ridge, NJ, United States of America
0.7828678244479911	42.6259385	-73.6913855456407	949	Columbia, NY, United States of America
0.7825957849358015	38.8802258	-77.4064865	950	Chantilly, VA, United States of America
0.7823241260125717	29.852567	-95.3238879	951	Kinkaid, TX, United States of America
0.7820528467464899	39.0227062	-77.4906800773258	952	Broad Run, VA, United States of America
0.7817819462090019	41.0250849	-76.8421853	953	North Hills, PA, United States of America
0.781511423474795	35.7460138	-78.6038574117148	954	SouthEast Raleigh, NC, United States of America
0.7812412776217853	38.80294435	-104.857174793489	955	Cheyenne Mountain, CO, United States of America
0.7809715077311009	36.0823583	-79.908091	956	Western  Guilford, NC, United States of America
0.7807021128870689	38.9864508	-77.089104	957	Bethesda/Chevy Chase, MD, United States of America
0.7804330921772001	39.9483	-75.53830599999999	958	Westtown, PA, United States of America
0.7801644446921753	33.50419249999999	-117.6507716	959	St. Margaret, CA, United States of America
0.7798961695258297	33.30888235	-111.843761622495	960	Chandler, AZ, United States of America
0.7796282657751405	44.1892542	-72.4937688	961	Spaulding, VT, United States of America
0.7793607325402118	39.26674145	-76.5159004753028	962	Dundalk, MD, United States of America
0.7790935689242597	42.41865575	-71.161906560951	963	Arlington, MA, United States of America
0.7788267740336002	41.79	-73.9358332	964	Roosevelt Hyde Park, NY, United States of America
0.7785603469776341	41.4787051	-73.3893213484487	965	Brookfield, CT, United States of America
0.7782942868688327	41.28772765	-72.8004366413514	966	Branford, CT, United States of America
0.778028592822725	43.5971106	-116.2595634	967	Borah, ID, United States of America
0.7777632639578843	32.4803266	-93.7454534	968	Byrd, LA, United States of America
0.7774982993959129	36.2789884	-115.318649642441	969	Centennial, NV, United States of America
0.7772336982614307	32.798165	-116.914648005576	970	Granite Hills, CA, United States of America
0.7769694596820604	42.1162398	-75.963642	971	Johnson City, NY, United States of America
0.7767055827884138	39.122609	-76.6282995	972	Old Mill, MD, United States of America
0.7764420667140801	42.59970250000001	-82.88097379999999	973	OL St Mary's, MI, United States of America
0.7761789105956112	38.7746612	-77.0733941349212	974	West Potomac, VA, United States of America
0.7759161135725088	39.62472305	-79.9573685735105	975	Morgantown, WV, United States of America
0.7756536747872119	47.57189185	-122.219308569378	976	Mercer Island, WA, United States of America
0.7753915933850833	43.1236224	-77.5663994	977	Brighton, NY, United States of America
0.775129868514397	40.331132	-75.6299489	978	Boyertown, PA, United States of America
0.7746074849749227	42.31885485	-71.403216109992	980	Framingham, MA, United States of America
0.7743468246171218	42.3457322	-71.2085588532235	981	Newton North, MA, United States of America
0.7740865174127111	43.4536931	-70.7842249	982	Sanford, DE, United States of America
0.7738265625243269	44.8546856	-93.4707859	983	Eden Prairie, MN, United States of America
0.7733077063603477	40.8196831	-72.6494083076982	985	Westhampton Beach, NY, United States of America
0.7730488034241499	39.3165375	-77.6082939531787	986	Brunswick, MD, United States of America
0.7727902494827488	37.8663111	-122.127081874152	987	Campolindo, CA, United States of America
0.7725320437128309	40.7733333	-73.2549999	988	Brentwood, NY, United States of America
0.7722741852938557	37.31610005	-76.7638981592742	989	Lafayette, VA, United States of America
0.7720166734080435	43.0100575	-78.797256	990	Sweet Home, NY, United States of America
0.7717595072403636	38.92345715	-77.1847740245733	991	McLean, VA, United States of America
0.7712462088129505	40.9714188	-73.717788	993	Webster Thomas, NY, United States of America
0.7709900749367922	43.65898225	-70.2588437354691	994	Portland, ME, United States of America
0.770734283545893	39.9575461	-75.1586194	995	Roman Catholic, PA, United States of America
0.7702237250166886	32.967446	-117.1204329	997	Mt Carmel, CA, United States of America
0.7699689562834748	38.0522017	-78.476847	998	Charlottesville, VA, United States of America
0.76971452684568	38.4345106	-77.4511691	999	Colonial Forge, VA, United States of America
0.7694604359124804	40.534497	-75.3989016159337	1000	Southern Lehigh, PA, United States of America
0.7692066826956846	41.24575245	-74.4892742947106	1001	Vernon, NJ, United States of America
0.7689532664097211	34.4658141	-119.181409740631	1002	Thacher School, CA, United States of America
0.7687001862716272	40.80123595	-74.4861350017255	1003	Morristown, NJ, United States of America
0.768447441501039	39.3250339	-76.4621232698719	1004	Kenwood, MD, United States of America
0.7681950313201779	37.9760345	-122.5352543	1005	Marin Academy, CA, United States of America
0.767942954953841	34.0175	-118.4263888	1006	Windward School, CA, United States of America
0.7676912116293905	39.9906619	-75.7963349	1007	Coatesville, PA, United States of America
0.767439800576741	40.6541589	-111.890331277904	1008	Murray, UT, United States of America
0.7671887210283498	41.6555757	-70.3206757785336	1009	Barnstable, MA, United States of America
0.7669379722192059	41.2733531	-70.0985073	1010	Nantucket HS, MA, United States of America
0.7666875533868184	42.32390075	-72.6523225634159	1011	Northampton, MA, United States of America
0.7664374637712069	38.2476254	-76.4877313	1012	Great Mills, MD, United States of America
0.7661877026148892	40.6849378	-111.822897438099	1013	Olympus, UT, United States of America
0.7659382691628724	40.71673885	-73.6903223163026	1014	Sewanhaka, NY, United States of America
0.7656891626626405	40.20386035	-83.0202232516368	1015	Olentangy, OH, United States of America
0.7654403823641458	42.6259545	-83.51553439999999	1016	Huron Valley, MI, United States of America
0.7649437973844471	43.6716363	-70.2958929	1018	Deering, ME, United States of America
0.7646959912153881	38.205692	-77.65693399999999	1019	Robt. E Lee, VA, United States of America
0.764448508272336	33.0396128	-96.6455886	1020	Plano East, TX, United States of America
0.7642013478174219	40.0237189	-75.5177022	1021	Phelps, PA, United States of America
0.7639545091151823	43.8897803	-92.8364760807336	1022	Hayfield, VA, United States of America
0.7634617940388351	40.68263	-75.252749	1024	Easton, PA, United States of America
0.7632159162057338	39.52953035	-76.3468870410099	1025	Bel Air, MD, United States of America
0.7629703572072993	29.9423267	-95.6527252569066	1026	Cy-Fair, TX, United States of America
0.7627251163199412	40.01367005	-105.275173512558	1027	Boulder, CO, United States of America
0.7624801928224139	38.4945184	-77.9874354	1028	Culpeper County, VA, United States of America
0.7622355859958064	42.6268105	-70.9756707	1029	Masconomet, MA, United States of America
0.761991295123533	41.6761997	-73.4797535	1030	South Kent, CT, United States of America
0.761747319491323	39.1669079	-76.8604564350845	1031	Hammond, MD, United States of America
0.7615036583872112	34.1391776	-118.4135136	1032	Harvard-Westlake, CA, United States of America
0.7610172769268918	39.8467243	-75.7115931	1034	Kennett Square, PA, United States of America
0.7607745551581948	39.29098495	-76.6877099067436	1035	Edmondson, MD, United States of America
0.7605321450925983	42.15464885	-70.8401319665693	1036	Norwell, MA, United States of America
0.7602900460295205	40.2313336	-74.9448065	1037	Council Rock, PA, United States of America
0.7600482572706287	41.4225938	-73.954583	1038	Haldane, NY, United States of America
0.759806778119828	43.7891632	-75.4917439	1039	Lowville, NY, United States of America
0.7595656078832538	29.7071721	-95.5402493520622	1040	Strake Jesuit, TX, United States of America
0.7593247458692617	39.8690124	-75.5141175	1041	Glen Mills, PA, United States of America
0.7590841913884175	30.1634011	-81.5840192932918	1042	Mandarin, FL, United States of America
0.7586040022794412	29.6694565	-82.3410792	1044	Oak Hall-Gainesville, FL, United States of America
0.7583643662834149	42.3378831	-71.1011237	1045	Roxbury Latin, MA, United States of America
0.7578860080048729	41.0878289	-74.0013349	1047	Nanuet, NY, United States of America
0.7576472843674841	42.91634465	-78.8699349368709	1048	Canisius, NY, United States of America
0.7574088634983532	40.7146758	-111.3007339	1049	Oakley, UT, United States of America
0.7571707447254087	37.3867637	-122.0247508	1050	Bishop's, CA, United States of America
0.7569329273787089	40.7902778	-73.9713888	1051	Trinity School, NY, United States of America
0.7566954107904333	38.90695845	-94.6606873139815	1052	Blue Valley North, KS, United States of America
0.7564581942948747	43.3141667	-73.6505555	1053	Glens Falls, NY, United States of America
0.7562212772284287	40.1281743	-74.0490478	1054	Manasquan, NJ, United States of America
0.7559846589295867	40.0303415	-83.0637968	1055	Wellington School, OH, United States of America
0.755748338738927	40.986957	-74.9664125203994	1056	Blair Academy, NJ, United States of America
0.7555123159991057	40.2766445	-76.6411504076183	1057	Hershey, PA, United States of America
0.7552765900548488	42.0582992	-72.5240620818223	1058	East Longmeadow, MA, United States of America
0.7550411602529429	40.8043715	-74.3750623147417	1059	Hanover Park, NJ, United States of America
0.7548060259422281	41.17476585	-111.975523654347	1060	Bonneville, UT, United States of America
0.7545711864735883	44.9757459	-93.1939289	1061	Blake, MN, United States of America
0.7541023894762413	40.70063935	-74.408811561545	1063	New Providence, NJ, United States of America
0.7538684306594492	38.6499316	-90.3468472163967	1064	Clayton, MO, United States of America
0.7534013891845116	36.8658692	-76.2898561678763	1066	Maury, VA, United States of America
0.7529355116709465	40.6929529	-73.6612067	1068	West Hempstead, NY, United States of America
0.7527030078133204	39.26617475	-76.4879137649509	1069	Patapsco, MD, United States of America
0.752470793046359	38.6652734	-121.2518871	1070	Belle Vista LC, CA, United States of America
0.7522388667409381	40.32278205	-111.691418051559	1071	Timpanogos, UT, United States of America
0.7520072282698882	35.28073905	-120.666554135902	1072	College Prep, CA, United States of America
0.7515448123319507	45.4750373	-122.7571329	1074	Oregon Episcopal, OR, United States of America
0.7513140336204278	39.9610427	-86.2738546677571	1075	Zionsville, IN, United States of America
0.7510835402539902	39.4250375	-76.991008	1076	Century, MD, United States of America
0.7508533316151247	40.71591375	-74.0406138853098	1077	St Peter's Prep, NJ, United States of America
0.7506234070882277	37.7221877	-122.449000526358	1078	Lick-Wilmerding, CA, United States of America
0.7501644079174139	42.2001203	-70.7681266828954	1080	Scituate, MA, United States of America
0.7499353320517607	33.616776	-87.2636119	1081	Chapel Hill CH, MA, United States of America
0.7497065378545863	36.062915	-80.387554	1082	West Forsyth, NC, United States of America
0.7494780247197128	41.0163671	-74.5519242440094	1083	Jefferson Twp, NJ, United States of America
0.7492497920428252	44.80741285	-93.1343200300958	1084	Eagan, MN, United States of America
0.7490218392214631	24.9938852	-80.5368649	1085	Coral Shores, FL, United States of America
0.7487941656550148	46.5864939	-123.1115045	1086	Curtis, WA, United States of America
0.7485667707447088	39.34858345	-76.5117020361712	1087	Overlea, MD, United States of America
0.7483396538936066	42.3427122	-71.3758272580667	1088	Wayland, MA, United States of America
0.7481128145065957	42.5814233	-82.8535291	1089	L'Anse Creuse, MI, United States of America
0.7478862519903828	39.1162188	-77.2538713	1090	Quince Orchard, MD, United States of America
0.7474339552062249	39.9558379	-76.7115367	1092	York Catholic, PA, United States of America
0.7472082197607209	40.2197857	-74.2824682	1093	Freehold Township, NJ, United States of America
0.7469827588308824	40.8904651	-72.3751562	1094	Southampton, NY, United States of America
0.7467575718324013	38.79004485	-104.840974102382	1095	Colorado Springs Sch, CO, United States of America
0.7465326581827452	38.90277075	-77.1407848998753	1096	Yorktown, VA, United States of America
0.7463080173011508	38.63929895	-90.3973897578826	1097	Ladue, MO, United States of America
0.7460836486086168	40.9288105	-72.6756690654701	1098	Riverhead, NY, United States of America
0.7458595515278964	40.4964701	-74.6557896	1099	Hillsborough, NJ, United States of America
0.7456357254834909	39.325046	-76.47285149999999	1100	Eastern Tech, MD, United States of America
0.7454121699016433	40.9075991	-73.9826382	1101	Dwight-Englewood, NJ, United States of America
0.74518888421033	44.45460625	-73.177851500599	1102	South Burlington, VT, United States of America
0.7449658678392559	41.36778095	-72.922737875568	1103	Hamden, CT, United States of America
0.7447431202198456	38.3255091	-122.7093183	1104	Rancho Cotati, CA, United States of America
0.7445206407852382	43.050589	-75.3810799	1105	Clinton, NY, United States of America
0.7442984289702803	40.52815325	-74.1934464787584	1106	Tottenville, NY, United States of America
0.7438548059471937	41.14711945	-81.3478462628022	1108	University School, OH, United States of America
0.7436333936172339	40.0462209	-75.3535211	1109	ArchBishop Carroll, PA, United States of America
0.7434122466632478	40.6967728	-74.8835206652834	1110	Voorhees, NJ, United States of America
0.7431913645285184	38.824317	-77.4105839413102	1111	Centreville, VA, United States of America
0.7429707466579967	39.31429825	-76.6539516356852	1112	Douglass, MD, United States of America
0.7427503924982938	42.4639283	-83.4906800038312	1113	Novi, MI, United States of America
0.7425303014976768	42.7360516	-73.7473709231484	1114	Shaker, NY, United States of America
0.7423104731060604	39.1109809	-77.5796447	1115	Loudoun County, VA, United States of America
0.7420909067750009	41.6970445	-73.8943944	1116	Arlington, NY, United States of America
0.7418716019576906	28.5189072	-81.3660096211856	1117	Boone, FL, United States of America
0.741652558108951	42.88604305	-73.1909009635478	1118	Mt Anthony Union, VT, United States of America
0.7414337746852263	41.1600953	-73.85958	1119	Ossining, NY, United States of America
0.7412152511445768	42.34016940000001	-77.3232889	1120	Bath-Haverling, NY, United States of America
0.740996986946674	38.4064364	-77.3961854	1121	Brooke Point, VA, United States of America
0.7407789815527933	35.819917	-78.7691507	1122	Cary Academy, NC, United States of America
0.7405612344258077	42.963947	-78.73780909999999	1123	Williamsville So, NY, United States of America
0.7403437450301821	30.44883175	-97.7328155841018	1124	McNeil, TX, United States of America
0.7401265128319673	39.67518	-104.7812498	1125	Rangeview, CO, United States of America
0.7399095372987935	35.9626368	-79.9964282	1126	William Penn, DE, United States of America
0.7396928178998642	45.3630189	-122.617653745817	1127	West Linn, OR, United States of America
0.7394763541059508	43.8109342	-74.2137354	1128	Indian River, NY, United States of America
0.7392601453893853	43.5755317	-71.1888196	1129	Kingswood, NH, United States of America
0.7388284910854013	40.69667	-73.7186099	1131	Elmont, NY, United States of America
0.7386130444504012	35.7845807	-78.6036957	1132	Enloe-Raleigh, NC, United States of America
0.7383978507975744	43.0384225	-77.1085815	1133	Newark, NY, United States of America
0.7379682203601697	42.70833985	-73.8092678245316	1135	Colonie, NY, United States of America
0.7377537825402648	26.5999265	-81.8823134	1136	Lee County, FL, United States of America
0.7375395956318677	39.3468784	-76.64410099999999	1137	Poly, MD, United States of America
0.7371119724955781	41.76008015	-72.7362497560195	1139	Kingswood-Oxford, CT, United States of America
0.7368985352444274	37.1065	-76.4804499	1140	Hampton Roads Acad, VA, United States of America
0.7366853468582567	29.511218	-95.7807347	1141	Fort Bend County, TX, United States of America
0.7364724068291626	43.1550882	-70.6294967	1142	York, ME, United States of America
0.7360472698179861	40.8174061	-74.1603536	1144	Nutley, NJ, United States of America
0.7358350718274755	32.6206237	-117.078598106361	1145	Chula Vista, CA, United States of America
0.7356231201771737	38.5542882	-76.5824572	1146	Calvert, MD, United States of America
0.7354114143665221	40.965908	-73.7879579	1147	Iona Prep, NY, United States of America
0.7351999538964152	38.64574775	-77.3039540539575	1148	Gar-field, VA, United States of America
0.7349887382691938	43.9418969	-69.9622229416776	1149	Mt. Ararat, ME, United States of America
0.7347777669886404	41.13619355	-73.6901373968044	1150	Byram Hills, NY, United States of America
0.7345670395599728	41.1509783	-73.9702696	1151	Clarkstown North, NY, United States of America
0.7343565554898408	41.3417113	-72.9139423	1152	Hamden Hall, CT, United States of America
0.7341463142863186	37.82299505	-122.233012819263	1153	Piedmont, CA, United States of America
0.7339363154589003	39.62426	-104.7350299	1154	Eaglecrest, CO, United States of America
0.733726558518495	40.0951105	-75.1487861	1155	Bishop McDevitt, PA, United States of America
0.7335170429774207	38.75307475	-77.4667721502182	1156	Seton School, VA, United States of America
0.7333077683493996	28.681386	-81.3461791	1157	Lyman, FL, United States of America
0.7330987341495528	42.74378805	-84.6270287790457	1158	Lansing Waverly, MI, United States of America
0.7328899398943948	44.6749325	-74.9809037	1159	Potsdam, NY, United States of America
0.732473069291139	40.62819115	-74.8835248925097	1161	North Hunterdon, NJ, United States of America
0.7322649919829916	42.08611800000001	-73.9477062	1162	Saugerties, NY, United States of America
0.7320571526994225	43.16418295	-73.0778494569867	1163	Burr-Burton, VT, United States of America
0.7318495509638366	40.6675087	-111.496909696483	1164	Park City, UT, United States of America
0.7316421863010012	42.505715	-70.910476339482	1165	Salem, MA, United States of America
0.7314350582370408	42.27815895	-71.1655042002054	1166	Catholic Memorial, MA, United States of America
0.7312281662994333	40.8371414	-81.9463039	1167	Wooster, OH, United States of America
0.7310215100170038	40.7926392	-73.6395699524749	1168	Roslyn, NY, United States of America
0.7308150889199198	39.9865936	-74.9434686	1169	Moorestown Friends, NJ, United States of America
0.7306089025396866	39.0770529	-77.1833137	1170	Wootton, MD, United States of America
0.7304029504091419	34.195283	-118.1825727	1171	St Francis, GA, United States of America
0.7301972320624517	36.1092849	-79.7864417	1172	Greensboro Page, NC, United States of America
0.7299917470351038	45.39734995	-122.692798822972	1173	Lakeridge, OR, United States of America
0.7297864948639052	38.901335	-92.33665479999999	1174	Columbia RockBridge, MO, United States of America
0.7295814750869752	38.8964794	-77.1913123	1175	George Mason, VA, United States of America
0.7293766872437414	27.8486606	-82.8188156176486	1176	Seminole, FL, United States of America
0.7291721308749349	41.6436759	-70.9462401567267	1177	New Bedford, MA, United States of America
0.7289678055225858	38.6230905	-90.5342016	1178	Parkway West, MO, United States of America
0.7287637107300173	36.7621116	-100.4904954	1179	Beaver, MA, United States of America
0.7285598460418425	42.9906	-73.8559999	1180	Ballston Spa, NY, United States of America
0.7283562110039585	39.11336105	-77.0176391342249	1181	Blake, MD, United States of America
0.7281528051635422	34.2283849	-77.895715	1182	Wilmington Ashley, NC, United States of America
0.7279496280690455	44.2276433	-69.7889964	1183	Gardiner, ME, United States of America
0.7277466792701903	41.74752635	-71.3206242536853	1184	Barrington, RI, United States of America
0.7275439583179649	33.3407841	-111.827573281583	1185	Mesquite, AZ, United States of America
0.7273414647646183	29.482028	-98.68206359999999	1186	West Side, TX, United States of America
0.7271391981636555	40.1337269	-74.768781	1187	Pennsbury, PA, United States of America
0.726735344039159	42.83943505	-78.7465028066232	1189	West Seneca West, NY, United States of America
0.7265337556288775	39.32559315	-76.5970459971881	1190	City, MD, United States of America
0.7263323923974749	44.1353246	-70.0564964	1191	Oak Hill, ME, United States of America
0.7261312539046713	39.938818	-75.0522364	1192	Camden Catholic, NJ, United States of America
0.7259303397114153	42.81455905	-73.9101338542002	1193	Schenectady, NY, United States of America
0.7257296493798806	42.33332825	-71.1291792846815	1194	Brookline, MA, United States of America
0.725529182473461	41.5578911	-70.6253182	1195	Falmouth Academy, MA, United States of America
0.7253289385567666	42.833984	-78.728937	1196	West Seneca East, NY, United States of America
0.7251289171956191	32.97557605	-96.9997632733938	1197	Coppell, TX, United States of America
0.7249291179570471	32.90851455	-117.112518961207	1198	Scripps Ranch, CA, United States of America
0.7247295404092822	42.5878816	-83.1799472965292	1199	Troy, MI, United States of America
