weight	latitude	longitude	rank	hs_name
7.51945378026559	39.39829565	-76.7724035842073	1	McDonogh School, MD, United States of America
5.9819998201101185	42.7323134	-73.8208427	2	Christian Brothers, NY, United States of America
5.232825833326387	40.7330556	-73.6530555	3	Garden City, NY, United States of America
4.75889910271296	38.8178183	-77.1011477	4	Sts. Stephen's & Agnes, VA, United States of America
4.421057799529659	39.14155015	-77.0457855235145	5	Good Counsel, MD, United States of America
4.162903863546375	40.74194	-73.0547199	6	Bayport-Blue Point, NY, United States of America
3.9564341424901213	39.6544107	-76.8779862605637	7	Manchester Valley, MD, United States of America
3.785877858716706	40.7208073	-74.370989196874	8	Summit, NJ, United States of America
3.6415499053657103	40.6894488	-73.5132704684335	9	Wantagh, NY, United States of America
3.5171127763150825	39.35754439999999	-76.6338468	10	Roland Park Country, MD, United States of America
3.4082128387342285	40.9401412	-73.0271798	11	Mt. Sinai, NY, United States of America
3.3117419018154495	40.97768845	-74.10647155	12	Ridgewood, NJ, United States of America
3.225410444488128	40.04778665	-75.4537537294326	13	Conestoga, PA, United States of America
3.147487705924498	39.3229746	-76.9345443568182	14	Marriotts Ridge, MD, United States of America
3.0766364339818812	38.0895905	-122.571736	15	Novato, CA, United States of America
3.0118039596490895	43.0397885	-76.2657614	16	West Genesee, NY, United States of America
2.9521481629564637	39.1462195	-76.6852462	17	Severn School, MD, United States of America
2.8969858071326935	40.79288105	-73.7045040358531	18	Manhasset, NY, United States of America
2.845755644188063	38.8093982	-77.0812583	19	Bishop Ireton, VA, United States of America
2.7979915310392007	40.9213438	-72.7248928	20	Middle Country, NY, United States of America
2.7533024862805373	41.0850166	-73.4906280751206	21	Darien, CT, United States of America
2.711357657614997	39.2750246	-77.0033637273565	22	Glenelg HS, MD, United States of America
2.6718748271859836	39.4148265	-76.5786483	23	Notre Dame Prep, MD, United States of America
2.6346115076740895	42.21701835	-71.2161230047884	24	Westwood, MA, United States of America
2.5993579637498168	40.5925865	-74.6343546	25	Bridgewater-Raritan, NJ, United States of America
2.5659316836744748	30.63259635	-87.0453117621274	26	Milton, GA, United States of America
2.534172956572371	39.5389726	-76.3331499	27	John Carroll, MD, United States of America
2.5039413022330104	39.07779085	-76.5605181555464	28	Severna Park, MD, United States of America
2.4751125650758006	40.028738	-75.350141	29	Agnes Irwin, PA, United States of America
2.447576530482218	38.9751788	-76.4886206155201	30	St. Mary's, MD, United States of America
2.4212349556135164	40.8443902	-72.7493995	31	Eastport-South Manor, NY, United States of America
2.395999931818377	40.94151859999999	-72.8672934	32	Shoreham-Wading River, NY, United States of America
2.3717925143457963	40.8633333	-73.2430555	33	Smithtown West, NY, United States of America
2.348541569081928	40.00544155	-75.4228891134414	34	Episcopal Academy, PA, United States of America
2.3261827966663255	38.8720282	-76.8957652	35	St. Paul's SG, MD, United States of America
2.3046579024942484	40.7306507	-73.220733	36	West Islip, NY, United States of America
2.2839138874102334	39.4250375	-76.991008	37	Century, MD, United States of America
2.263902438803085	40.8782306	-73.3421004166701	38	Northport, NY, United States of America
2.244579405660245	41.3126651	-73.7140545837215	39	Somers, NY, United States of America
2.225904344178967	40.0462209	-75.3535211	40	Archbishop Carroll, PA, United States of America
2.1903525786492937	40.9378396	-73.8305366	42	Bronxville, NY, United States of America
2.1734102147762004	40.86669015	-73.4567175492754	43	Cold Spring Harbor, NY, United States of America
2.156983937141008	40.81222	-73.3894399	44	St. Anthony's, NY, United States of America
2.141046820946736	37.74769505	-121.945578573361	45	California HS, CA, United States of America
2.1255739050528186	39.46068935	-76.612585140643	46	Dulaney, MD, United States of America
2.1105420097431895	41.292594	-73.8029119	47	Yorktown, NY, United States of America
2.09592957487529	38.8168084	-77.3047724155691	48	Robinson Secondary, VA, United States of America
2.081716515758496	42.8192309	-73.8897254296259	49	Niskayuna, NY, United States of America
2.0678840945018746	39.8670558	-75.5032557	50	Garnet Valley, PA, United States of America
2.054414804898234	40.83005379999999	-73.6795819	51	Port Washington, NY, United States of America
2.04129226918573	39.2260365	-76.812067243631	52	Howard, MD, United States of America
2.028501145259191	39.6103807	-76.8610887	53	North Carroll, MD, United States of America
2.01602704309839	39.2992019	-76.8396083059577	54	Mt. Hebron, MD, United States of America
2.003856449345829	37.5154927	-122.2863568	55	Notre Dame, MA, United States of America
1.9803757141673255	38.9684958	-104.847213	57	Colorado Academy, CO, United States of America
1.9690423469180196	39.9306677	-75.32018780000001	58	Springfield (DelCo), PA, United States of America
1.957965929380183	40.0399648	-75.360608025	59	Radnor, PA, United States of America
1.947136426780887	39.59912935	-76.6596023713956	60	Hereford, MD, United States of America
1.9365443552093458	40.89520265	-74.4273233602014	61	Mountain Lakes, NJ, United States of America
1.9261807429332733	39.36443	-76.62987	62	Bryn Mawr SG, MD, United States of America
1.9160370950058134	38.3418227	-75.1906972	63	Stephen Decatur, MD, United States of America
1.9061053608358167	43.95810705	-75.9113279893039	64	Watertown, NY, United States of America
1.8963779044313773	43.0604242	-77.5189882	65	Pittsford, NY, United States of America
1.8868474770588919	33.72525555	-117.883790932001	66	Mater Dei, CA, United States of America
1.8775071920882587	41.8395666	-72.6401410835967	67	Loomis Chaffee School, CT, United States of America
1.8683505018196964	40.04226555	-75.3165399284129	68	Harriton, PA, United States of America
1.8593711761094778	32.9573985	-117.224896678294	69	Torrey Pines, CA, United States of America
1.8505632826311114	38.7572962	-75.1494885	70	Cape Henlopen, DE, United States of America
1.8419211686254582	41.13353025	-74.1100881791337	71	Suffern, NY, United States of America
1.8334394440082604	39.03994495	-76.4534831848471	72	Broadneck, MD, United States of America
1.8251129657168235	41.833491	-71.3980237	73	Moses Brown School, RI, United States of America
1.816936823189364	42.08292405	-87.7600667611925	74	Loyola Academy, IL, United States of America
1.808906324880992	33.98980905	-84.4400399453192	75	Walton, GA, United States of America
1.8010169857295912	39.4189054	-76.7753229756711	76	Garrison Forest, MD, United States of America
1.793264515493172	40.9525987	-72.9253804	77	Rocky Point, NY, United States of America
1.7856448078876563	41.2144444	-74.016111	78	North Rockland, NY, United States of America
1.7781539304606802	39.1245335	-76.64682719999999	79	Archbishop Spalding, MD, United States of America
1.7707881151429337	38.2701269	-76.6113486	80	Leonardtown, MD, United States of America
1.7635437494238613	40.0570949	-75.567083	81	Great Valley, PA, United States of America
1.7564173681033282	27.62859005	-80.4035754155209	82	Vero Beach, FL, United States of America
1.749405645575139	40.6855452	-73.4937671507594	83	Seaford, NY, United States of America
1.7425053886021782	40.8559314	-73.2006686	84	Smithtown East, NY, United States of America
1.7357135295464026	43.1745123	-76.1038116	85	Cicero-North Syracuse, NY, United States of America
1.729027120020081	41.12858455	-73.489421231771	86	New Canaan, CT, United States of America
1.722443324927508	40.916255	-73.0744567809568	87	Ward Melville, NY, United States of America
1.7159594168689976	40.176766	-75.6563054	88	Owen J. Roberts, PA, United States of America
1.7095727708812882	30.11235675	-81.3947506148237	89	Ponte Vedra, FL, United States of America
1.7032808594906133	42.28696755	-71.2316980574263	90	Needham, MA, United States of America
1.6970812480566027	39.7351651	-76.4650036	91	Kennard-Dale, PA, United States of America
1.690971590386931	39.98793695	-74.9438015956539	92	Moorestown, NJ, United States of America
1.6849496246042182	40.0416337	-75.660066940317	93	Downingtown East, PA, United States of America
1.679013169248136	39.39468125	-77.3109763790769	94	Oakdale, MD, United States of America
1.6731601195969859	39.6303721	-104.879335	95	Cherry Creek, CO, United States of America
1.6616961815665559	38.90944	-77.0694399	97	Georgetown Visitation, DC, United States of America
1.6560814371210548	30.0443416	-81.6087654788025	98	Bartram Trail, FL, United States of America
1.650542380210023	40.2621002	-75.1630703100395	99	Central Bucks South, PA, United States of America
1.645077241352745	40.1120981	-75.131461	100	Abington HS, PA, United States of America
1.6396843096043783	41.4339992	-81.7915139	101	Blessed Trinity, GA, United States of America
1.6343619300627878	40.8196831	-72.6494083076982	102	Westhampton Beach, NY, United States of America
1.6291085015048208	41.4460251	-71.4948106784042	103	South Kingstown, RI, United States of America
1.6188023475030962	40.3692196	-74.0015620226967	105	Rumson-Fair Haven, NJ, United States of America
1.6087540289907953	42.978817	-70.94957	107	Phillips Exeter Acad, NH, United States of America
1.6038230650213192	28.4977722	-81.5061208	108	Olympia, FL, United States of America
1.5989524540153517	39.4133502	-76.9531704	109	Liberty, MD, United States of America
1.5941409136621967	40.7317463	-74.4007444	110	Chatham, NJ, United States of America
1.5893872002377059	42.2649238	-72.6742172426393	111	Williston Northampton, MA, United States of America
1.5846901071079813	42.9514554	-76.420768	112	Skaneateles, NY, United States of America
1.5800484633038712	43.01362385	-75.9619659916267	113	Fayetteville-Manlius, NY, United States of America
1.5754611321623102	39.8834425	-75.7196607	114	Unionville, PA, United States of America
1.5709270100308177	40.09965205	-75.2701401888487	115	Plymouth-Whitemarsh, PA, United States of America
1.566445025031694	26.1078646	-80.1797686	116	St. Thomas Aquinas, FL, United States of America
1.562014135882681	39.01490625	-77.0351496865924	117	Holy Cross, MD, United States of America
1.5576333307710422	39.0376119	-76.053277	118	Queen Anne's County, MD, United States of America
1.5533016262782189	39.8559543	-74.7761224	119	Shawnee, NJ, United States of America
1.5490180663523836	38.990733	-76.3092282020402	120	Kent Island, MD, United States of America
1.5447817213263788	41.74667215	-71.4110809788522	121	Pilgrim, RI, United States of America
1.5405916869786789	39.5414903	-76.9924814	122	Westminster, MD, United States of America
1.5364470836351585	39.4281283	-76.6875369031863	123	Maryvale Prep, MD, United States of America
1.5323470553095735	42.0554269	-72.5607093	124	Longmeadow, MA, United States of America
1.5282907688807894	34.0788283	-83.8791807	125	Mill Creek, GA, United States of America
1.5242774133049135	39.52953035	-76.3468870410099	126	Bel Air, MD, United States of America
1.520306198860577	39.57143665	-76.9768013304972	127	Winters Mill, MD, United States of America
1.516376356425726	42.23256415	-70.8092798421583	128	Cohasset, MA, United States of America
1.5124871367843755	39.1896909	-76.8812352685969	129	Atholton, MD, United States of America
1.5086378099618594	42.15464885	-70.8401319665693	130	Norwell, MA, United States of America
1.5048276645871967	40.7025073	-73.3447958	131	West Babylon, NY, United States of America
1.5010560072812704	40.30530905	-75.1377394613682	132	Central Bucks West, PA, United States of America
1.4973221620695891	40.6991667	-73.3252777	133	Babylon, NY, United States of America
1.493625469818464	42.9922222	-76.3433332	134	Marcellus, NY, United States of America
1.4899652876935023	39.3905794	-76.6002762716028	135	Towson HS, MD, United States of America
1.4863409886393792	40.6673246	-73.6209621	136	South Side, NY, United States of America
1.4827519608798925	40.8684557	-73.3586549	137	Harborfields, NY, United States of America
1.4791976074373816	40.9343048	-72.9901065	138	Miller Place, NY, United States of America
1.4756773456706151	40.6678787	-73.4531796	139	Massapequa, NY, United States of America
1.472190606830314	40.6998227	-73.4748467	140	Plainedge, NY, United States of America
1.4687368356315196	40.2939665	-74.7290554	141	Lawrenceville School, NJ, United States of America
1.4653154898420475	39.6513889	-105.0366666	142	Mullen, CO, United States of America
1.4619260398863223	35.146534	-80.8034041	143	Charlotte CDS, NC, United States of America
1.4585679684639046	42.4509118	-74.5776495	144	South Jefferson, NY, United States of America
1.4552407701820766	40.8701885	-73.5256300517347	145	Oyster Bay, NY, United States of America
1.4486770288969713	39.5615926	-76.3301611	147	C. M. Wright, MD, United States of America
1.4454395315248993	40.7107507	-74.3672938	148	Oak Knoll School, NJ, United States of America
1.4390509771378568	40.1900811	-75.52644	150	Spring-Ford, PA, United States of America
1.43589902826011	38.9491885	-77.1665079	151	Langley, VA, United States of America
1.429677630528631	39.14681235	-77.0187069262227	153	Sherwood, MD, United States of America
1.4266073470979062	42.3990754	-71.4001700040642	154	Lincoln-Sudbury, MA, United States of America
1.4235634658866005	40.7058199	-73.8647893	155	Sacred Heart Acad, NY, United States of America
1.4205455917021734	40.5170362	-74.8518362	156	Hunterdon Central, NJ, United States of America
1.4175533377522007	39.5220529	-76.4131134	157	Fallston, MD, United States of America
1.4145863254136777	39.2787182	-76.6108001	158	Southern, MD, United States of America
1.41164418401007	41.3278708	-73.5303072630782	159	Ridgefield, CT, United States of America
1.4087265505958095	43.0300663	-76.2021481	160	Westhill, NY, United States of America
1.4029633933646244	43.3305685	-73.6924559057056	162	Queensbury, NY, United States of America
1.400117180470272	40.0094271	-75.2488642	163	Merion Mercy Academy, PA, United States of America
1.3944938157521563	43.0828198	-77.415935872457	165	Fairport, NY, United States of America
1.3917160159418493	43.1959141	-71.5747948	166	St. Paul's School, NH, United States of America
1.3889603832999342	39.9837231	-75.3010194	167	Haverford, PA, United States of America
1.3862266097725748	39.0721718	-76.6830553	168	Arundel, MD, United States of America
1.3835143933879803	42.6999184	-71.1163794	169	North Andover, MA, United States of America
1.3808234381011841	44.8546856	-93.4707859	170	Eden Prairie, MN, United States of America
1.37815345364367	43.1857998	-77.7821076	171	Spencerport, NY, United States of America
1.375504155377669	40.99453015	-73.7932680034856	172	Scarsdale, NY, United States of America
1.3728752641549526	42.9879381	-77.4141449	173	Victor, NY, United States of America
1.3702665061799608	38.9217797	-76.5599615	174	South River, MD, United States of America
1.3676776128771055	38.5542882	-76.5824572	175	Calvert, MD, United States of America
1.3625583713171845	34.06421515	-84.5131368565291	177	Kell, GA, United States of America
1.3600275108700532	42.0952646	-71.4114805	178	Franklin, MA, United States of America
1.3575154904764533	33.65422815	-117.8901391	179	Monte Vista, CA, United States of America
1.3550220658062184	28.5416151	-81.5669931081997	180	West Orange, FL, United States of America
1.3525469970326869	42.13498935	-71.2484151099013	181	Walpole, MA, United States of America
1.3500900487253586	40.1024408	-76.2998167483992	182	Manheim Township, PA, United States of America
1.3476509897456845	40.8384331	-73.6312389	183	North Shore, NY, United States of America
1.3452295931458815	40.5885116	-73.6578609	184	Long Beach, NY, United States of America
1.3428256360706659	40.905315	-73.0124669	185	Comsewogue, NY, United States of America
1.3404388996618097	39.4464902	-77.5341542	186	Middletown, MD, United States of America
1.3380691689654227	39.6493139	-105.0561646	187	Kent Denver, CO, United States of America
1.3357162328418646	39.5349	-105.0113299	188	ThunderRidge, CO, United States of America
1.3333798838782052	26.2166392	-81.76126959999999	189	Barron G. Collier, FL, United States of America
1.331059918303145	40.8366091	-73.1014158157605	190	Sachem North, NY, United States of America
1.328756135904313	41.7362325	-72.7509292757843	191	Conard, CT, United States of America
1.326468339947862	40.1759388	-75.3976812	192	Methacton, PA, United States of America
1.3241963371002945	38.619346	-76.6088590312023	193	Huntingtown, MD, United States of America
1.3219399373524328	40.027319	-75.565855	194	Villa Maria Acad, PA, United States of America
1.319698953945478	34.0484502	-84.2085954	195	Chattahoochee, GA, United States of America
1.3174732032990761	42.08600405	-76.0457894938925	196	Vestal, NY, United States of America
1.315262504941341	43.3964738	-70.548664	197	Kennebunk, ME, United States of America
1.3130666814407557	43.0580668	-77.2461122	198	Palmyra-Macedon, NY, United States of America
1.3108855583399113	39.8945915	-75.3719465493986	199	Strath Haven, PA, United States of America
1.3087189640910044	43.1236224	-77.5663994	200	Brighton, NY, United States of America
1.3065667299930546	40.6536111	-73.6727777	201	Lynbrook, NY, United States of America
1.3044286901307787	38.7315505	-121.21187472402	202	Granite Bay HS, CA, United States of America
1.3023046813150727	41.038436	-73.626072	203	Greenwich Academy, CT, United States of America
1.3001945430250526	39.741585	-104.9559827	204	Denver East, CO, United States of America
1.298098117351603	40.3288746	-74.8019628981452	205	Hopewell Valley, NJ, United States of America
1.2960152489423897	40.21924075	-75.4565339561885	206	Perkiomen Valley, PA, United States of America
1.2939457849482896	39.9678804	-75.5991665	207	West Chester Henderson, PA, United States of America
1.2918895749711967	41.29351425	-72.619382907253	208	Daniel Hand, CT, United States of America
1.287816327426821	34.1805605	-118.7631463	210	Oak Park, CA, United States of America
1.2857990008670863	42.30258735	-71.2792295320111	211	Wellesley HS, MA, United States of America
1.2818022366770354	40.9411788	-73.7435731	213	Mamaroneck, NY, United States of America
1.2798225234498959	42.6982304	-73.9654422842923	214	Guilderland, NY, United States of America
1.2778550759672818	33.50419249999999	-117.6507716	215	St. Margaret's, CA, United States of America
1.273956450203956	40.8603759	-73.2890049	217	Commack, NY, United States of America
1.2720250129586712	40.82248745	-73.2023491812515	218	Hauppauge, NY, United States of America
1.27010532344872	41.1917153	-73.6777247905449	219	Fox Lane, NY, United States of America
1.2681972570646776	40.6369444	-73.6299999	220	Oceanside, NY, United States of America
1.2663006910775774	37.36882005	-121.838274997207	221	Foothill, CA, United States of America
1.2644155046021794	38.9364776	-77.1554318515203	222	Potomac School, VA, United States of America
1.2606787956498888	40.7206583	-74.5654945832302	224	Bernards, NJ, United States of America
1.2588270403027086	41.3652189	-73.7569963204998	225	Mahopac, NY, United States of America
1.2569861986591244	42.5070435	-71.3203159501964	226	Concord-Carlisle, MA, United States of America
1.2551561585314495	42.9513738	-77.5866728	227	Honeoye Falls-Lima, NY, United States of America
1.2533368093729476	40.2313336	-74.9448065	228	Council Rock North, PA, United States of America
1.2515280422467578	33.8426044	-84.431873	229	Westminster School, GA, United States of America
1.2497297497955444	40.7853765	-73.3717866	230	Half Hollow Hills, NY, United States of America
1.2479418262118442	40.7149336	-73.5817628272131	231	Kellenberg, NY, United States of America
1.2461641672090995	40.331132	-75.6299489	232	Boyertown Area, PA, United States of America
1.2443966699933522	34.0852058	-84.0706396	233	North Gwinnett, GA, United States of America
1.2426392332355858	41.2961798	-73.3369952714363	234	Joel Barlow, CT, United States of America
1.2408917570446931	30.3328019	-97.7009416	235	St. John's, TX, United States of America
1.239154142941057	40.844657	-73.0110356	236	Sachem East, NY, United States of America
1.2374262938307268	41.74752635	-71.3206242536853	237	Barrington, RI, United States of America
1.2357081139801709	35.0928686	-89.8553645	238	Hutchison School, TN, United States of America
1.2357081139801709	47.60729665	-122.02735935	238	Eastside Catholic, WA, United States of America
1.2323003857788186	41.0703745	-73.8426344	240	Hackley School, NY, United States of America
1.2306106525436555	39.5126661	-76.9021081	241	Gerstell Academy, MD, United States of America
1.228930218752858	42.26265965	-71.6162400235663	242	Westborough, MA, United States of America
1.227258995115535	33.6343649	-117.878423971776	243	Corona Del Mar, CA, United States of America
1.2255968935610764	41.04018275	-73.6133129328867	244	Greenwich HS, CT, United States of America
1.2239438272175585	43.218001	-77.5983669	245	Irondequoit, NY, United States of America
1.2222997103906137	40.9714188	-73.717788	246	Webster Thomas, NY, United States of America
1.2206644585427615	28.58795735	-81.3906581888158	247	Bishop Moore, FL, United States of America
1.2190379882731817	38.6808178	-121.0715589	248	Oak Ridge, CA, United States of America
1.2174202172979212	43.3219444	-76.411111	249	Fulton, NY, United States of America
1.2158110644305242	38.9917767	-77.1480345	250	Holton-Arms School, MD, United States of America
1.2142104495630732	32.95819065	-117.188980703657	251	Canyon Crest Academy, CA, United States of America
1.212618293647634	42.260537	-71.1847489	252	Noble & Greenough, MA, United States of America
1.2110345186780878	28.6733304	-81.2183982	253	Oviedo, FL, United States of America
1.2094590476723497	40.208505	-75.096709653418	254	Archbishop Wood, PA, United States of America
1.2063327146400171	41.0384302	-74.1434769	256	Northern Highlands, NJ, United States of America
1.2047817036145214	43.05792515	-77.6063444861447	257	Rush-Henrietta, NY, United States of America
1.2032386985219867	40.05299215	-81.5839957278163	258	Cambridge, GA, United States of America
1.2017036272464494	40.38081865	-75.4901555582069	259	Upper Perkiomen, PA, United States of America
1.200176418596779	39.8894	-75.3336999	260	Ridley, PA, United States of America
1.1986570022913163	39.05239845	-77.3911530529428	261	Potomac Falls, VA, United States of America
1.1971453089428243	39.25959465	-76.7292521365685	262	Catonsville, MD, United States of America
1.1956412700437424	30.07917105	-81.5620338977917	263	Creekside, FL, United States of America
1.1926558858755603	42.4998317	-71.3684304807641	265	Middlesex School, MA, United States of America
1.1911744078611533	42.1850346	-71.297188	266	Medfield, MA, United States of America
1.1897003187780752	40.9731712	-73.6865301	267	Rye HS, NY, United States of America
1.188233554306169	41.9453707	-73.4390102	268	Hotchkiss School, CT, United States of America
1.186774050922504	39.1564004	-77.7267317	269	Woodgrove, VA, United States of America
1.1853217458885745	39.25355915	-76.8702477135574	270	Centennial, MD, United States of America
1.183876577237752	40.1717754	-75.2273981	271	Wissahickon, PA, United States of America
1.182438483762981	27.9236498	-82.5028791	272	H.B. Plant, FL, United States of America
1.181007405004717	34.04375225	-84.4739029975894	273	Lassiter, GA, United States of America
1.1795832812391003	33.6542672	-117.6505386	274	Trabuco Hills, CA, United States of America
1.178166053466356	38.981785	-77.1275023330957	275	Whitman, MD, United States of America
1.1767556633994232	41.0906081	-74.1589766828131	276	Mahwah, NJ, United States of America
1.1753520534527975	39.2827324	-77.2094462410655	277	Damascus, MD, United States of America
1.1739551667315928	39.8467243	-75.7115931	278	Kennett Square, PA, United States of America
1.17256494702081	42.5457596	-72.6060204	279	Deerfield Academy, MA, United States of America
1.171181338774808	41.7009328	-72.5934232	280	Glastonbury, CT, United States of America
1.1698042871069814	41.1859581	-73.2353385112984	281	Fairfield Warde, CT, United States of America
1.168433737779625	42.11058775	-72.4445531639882	282	Minnechaug, MA, United States of America
1.1657119323805587	31.2673967	-85.3810444	284	Northview, GA, United States of America
1.164360570989417	41.4495445	-71.6958988	285	Chariho Regional, RI, United States of America
1.163015501280918	39.9373953	-75.5533057	286	West Chester Rustin, PA, United States of America
1.1616766721164367	42.09447385	-87.7198764776642	287	New Trier, IL, United States of America
1.1603440329493298	41.9637745	-71.2948028584608	288	Bishop Feehan, MA, United States of America
1.159017533816053	42.2574341	-89.049966	289	Rockford, MI, United States of America
1.159017533816053	39.25445545	-76.9586040620501	289	Glenelg Country School, MD, United States of America
1.156382758660186	42.8256495	-71.5801458	291	Souhegan, NH, United States of America
1.1537719582752521	40.01684785	-83.0546924783809	293	Upper Arlington, OH, United States of America
1.1524754296652193	33.07225645	-117.230366116231	294	La Costa Canyon, CA, United States of America
1.1511847530757549	45.4275204	-122.7024808	295	Lake Oswego, OR, United States of America
1.1498998823896753	39.9214361	-74.8554318	296	Lenape, NJ, United States of America
1.1486207720074542	43.02066805	-76.0460217822718	297	Jamesville-DeWitt, NY, United States of America
1.1473473768396913	39.8569672	-74.717725	298	Seneca, NJ, United States of America
1.1460796522997176	42.7360516	-73.7473709231484	299	Shaker, NY, United States of America
1.1448175542963306	41.2045404	-73.4328986	300	Wilton, CT, United States of America
1.1435610392266586	40.2955189	-75.353050273046	301	Souderton Area, PA, United States of America
1.1423100639691526	26.3978023	-80.14478609999999	302	Spanish River, FL, United States of America
1.1410645858766986	40.6743513	-73.5643147	303	Calhoun, NY, United States of America
1.1398245627698538	39.6754963	-76.4010768878517	304	North Harford, MD, United States of America
1.1385899529301995	42.7481398	-70.8980369	305	Governor's Academy, MA, United States of America
1.1373607150938105	45.3630189	-122.617653745817	306	West Linn, OR, United States of America
1.1361368084448376	39.9558379	-76.7115367	307	York Catholic, PA, United States of America
1.134918192609201	38.824317	-77.4105839413102	308	Centreville, VA, United States of America
1.1337048276483936	40.2555149	-74.7434722	309	Notre Dame, NJ, United States of America
1.1324966740533913	39.1528837	-76.9123196327725	310	Reservoir, MD, United States of America
1.1312936927386648	38.8255028	-77.0943289	311	Episcopal, VA, United States of America
1.1300958450362972	40.3874658	-75.2747359	312	Pennridge, PA, United States of America
1.1289030926902017	40.6675087	-111.496909696483	313	Park City, UT, United States of America
1.1277153978504344	28.70418265	-81.2654721962129	314	Winter Springs, FL, United States of America
1.126532723067606	40.7306507	-73.220733	315	Islip, NY, United States of America
1.1253550312873881	43.1369037	-77.4701760374478	316	Penfield, NY, United States of America
1.124182285845111	40.7263338	-73.3246519782362	317	North Babylon, NY, United States of America
1.1230144504604522	40.7526008	-73.6104057	318	Carle Place, NY, United States of America
1.1218514892322136	41.6970445	-73.8943944	319	Arlington, NY, United States of America
1.1206933666331858	45.02993305	-92.8477238163187	320	Stillwater Area, MN, United States of America
1.1195400475050998	39.2918276	-76.4195268843231	321	Chesapeake, MD, United States of America
1.1183914970536586	40.7995447	-74.2059787	322	Glen Ridge, NJ, United States of America
1.117247680843654	41.1204767	-73.9913528	323	Albertus Magnus, NY, United States of America
1.116108564794162	41.461004	-73.5077322	324	New Fairfield, CT, United States of America
1.1149741151738184	39.4745548	-77.3610315	325	Walkersville, MD, United States of America
1.113844298596171	40.7350984	-73.0940003	326	Sayville, NY, United States of America
1.1127190820151067	42.3427122	-71.3758272580667	327	Wayland, MA, United States of America
1.111598432720356	42.47982085	-71.4583269841174	328	Acton-Boxborough, MA, United States of America
1.110482318333066	37.9511624	-122.5365928	329	Marin Catholic, CA, United States of America
1.1093707068014498	41.6881574	-71.2697709	330	Mt. Hope, RI, United States of America
1.1082635663965015	41.28772765	-72.8004366413514	331	Branford, CT, United States of America
1.1071608657077832	39.81577685	-75.8151762647722	332	Avon Grove, PA, United States of America
1.106062573639279	40.75271605	-73.1837394883089	333	East Islip, NY, United States of America
1.1049686594053139	42.895364	-71.317286	334	Pinkerton Academy, NH, United States of America
1.1038790925265376	40.72919415	-74.1636541953012	335	Immaculate Heart, NJ, United States of America
1.1027938428259758	29.2666253	-82.1144588	336	Pine Crest, FL, United States of America
1.1017128804251386	42.9342355	-75.8583355	337	Cazenovia, NY, United States of America
1.1006361757401932	42.6268105	-70.9756707	338	Masconomet, MA, United States of America
1.0995636994781983	39.9796447	-75.5653868	339	West Chester East, PA, United States of America
1.0984954226333936	42.49203215	-70.8687295336433	340	Marblehead, MA, United States of America
1.0974313164835516	44.729396	-93.3784834112301	341	Prior Lake, MN, United States of America
1.0963713525863825	40.4964701	-74.6557896	342	Hillsborough, NJ, United States of America
1.0953155027759987	39.0439925	-77.172990652889	343	Winston Churchill, MD, United States of America
1.09426373915943	39.98391	-75.261518	344	Friends' Central, PA, United States of America
1.0932160341131978	33.57609025	-111.932588487677	345	Chaparral, AZ, United States of America
1.0921723602799362	39.9232086	-75.4314683	346	Penncrest, PA, United States of America
1.0911326905650707	33.96717165	-84.6832395881206	347	Harrison, GA, United States of America
1.089065256406592	42.4983635	-71.585210192312	349	Bromfield School, MA, United States of America
1.0880374390585736	39.1127457	-104.8628772	350	Palmer Ridge, CO, United States of America
1.0870135200138413	42.3235156	-71.3257946	351	Rivers School, MA, United States of America
1.0859934734436651	38.8402362	-77.275978	352	W.T. Woodson, VA, United States of America
1.0849772737632004	40.70327395	-73.5064620027541	353	MacArthur, NY, United States of America
1.0839648956285017	40.88166555	-73.2438755673074	354	Kings Park, NY, United States of America
1.0829563139335823	40.8289878	-73.4834562	355	Syosset, NY, United States of America
1.0819515038075167	33.5810597	-117.612627259073	356	Tesoro, CA, United States of America
1.0809504406115868	41.030314	-74.086102	357	Saddle River Day School, NJ, United States of America
1.0799530999364713	37.8260372	-122.005794	358	San Ramon Valley, CA, United States of America
1.0789594575994759	40.7076001	-73.4440122	359	Farmingdale, NY, United States of America
1.0779694896418048	42.7387379	-71.4739405136301	360	Bishop Guertin, NH, United States of America
1.0769831723258734	41.3348169	-73.5712373	361	North Salem, NY, United States of America
1.076000482132658	39.44309765	-77.04142025	362	South Carroll, MD, United States of America
1.0750213957590895	44.9218659	-93.3891775	363	Blake School, MN, United States of America
1.0740458901154786	40.9487097	-73.7970772	364	Ursuline School, NY, United States of America
1.0730739423229845	42.1718935	-71.0673706073117	365	Tower Hill School, DE, United States of America
1.072105529711118	41.4900972	-72.9064913	366	Cheshire HS, CT, United States of America
1.0711406298152788	40.7316667	-73.2544443	367	Bay Shore, NY, United States of America
1.0701792203743343	38.7556716	-76.0654963	368	Easton, MD, United States of America
1.069221279328227	42.0739637	-72.6450505172579	369	Agawam, MA, United States of America
1.0682667848156195	37.9331187	-122.033466625006	370	Carondelet, CA, United States of America
1.0673157151715753	40.0972222	-75.3761952	371	Upper Merion Area, PA, United States of America
1.0663680489252685	41.4420644	-73.6034463154583	372	Brewster, NY, United States of America
1.0654237647977285	34.836476	-87.6780838	373	Buckingham, MA, United States of America
1.0644828416996184	42.05519195	-71.2507257418385	374	Foxborough, MA, United States of America
1.063545258729042	26.27069925	-81.7073106198873	375	Gulf Coast, FL, United States of America
1.062610995169383	40.15311415	-75.1997546310871	376	Upper Dublin, PA, United States of America
1.0616800304871767	40.8564874	-73.4242871	377	Huntington, NY, United States of America
1.060752344330009	40.01169005	-75.7178930752684	378	Downingtown West, PA, United States of America
1.0598279165244462	40.8092798	-72.9874046182782	379	Patchogue-Medford, NY, United States of America
1.0589067270739936	39.6042071	-105.075487596242	380	Columbine, CO, United States of America
1.0579887561570833	40.80123595	-74.4861350017255	381	Morristown, NJ, United States of America
1.05707398412509	40.9288105	-72.6756690654701	382	Riverhead, NY, United States of America
1.0561623915003728	42.9096911	-73.8951486	383	Burnt Hills-Ballston Lk, NY, United States of America
1.0552539589743462	40.19846225	-75.5090491660351	384	Pope John Paul II, PA, United States of America
1.0543486674055782	40.88895955	-73.5918714747227	385	Locust Valley, NY, United States of America
1.0534464978179112	38.8453267	-77.6301131	386	Battlefield, VA, United States of America
1.0525474313986132	43.7405766	-70.2728682	387	Falmouth, ME, United States of America
1.051651449496552	36.7407825	-119.7826442	388	Cathedral Catholic, CA, United States of America
1.0507585336203942	43.0453937	-76.4728887089275	389	Jordan-Elbridge, NY, United States of America
1.04986866543683	39.0262265	-77.3737009739503	390	Dominion, VA, United States of America
1.0489818267688218	42.2192249	-71.3231061	391	Dover-Sherborn, MA, United States of America
1.0480979995938764	40.6317576	-74.1512122	392	Lake Shore, NY, United States of America
1.0472171660423406	40.0247924	-75.3151201	393	Shipley School, PA, United States of America
1.0463393083957206	43.158679	-76.3327099	394	Baldwinsville, NY, United States of America
1.045464409085023	40.82316305	-74.2131656036377	395	Montclair HS, NJ, United States of America
1.0445924506891189	41.2789753	-73.8584444	396	Lakeland-Panas, NY, United States of America
1.0437234159331301	38.89596485	-77.2790801769934	397	James Madison, VA, United States of America
1.0428572876868365	33.99974805	-84.6217313952747	398	Kennesaw Mountain, GA, United States of America
1.0419940489631043	40.6936985	-74.5471314	399	Ridge, NJ, United States of America
1.0411336829163373	40.1281743	-74.0490478	400	Manasquan, NJ, United States of America
1.0402761728409455	40.5689277	-90.0342832	401	Canton, CT, United States of America
1.0394215021698368	41.84104335	-71.4470948823164	402	La Salle Academy, RI, United States of America
1.038569654472928	39.0740038	-75.5467345950757	403	Polytech, DE, United States of America
1.037720613455674	42.31885485	-71.403216109992	404	Framingham, MA, United States of America
1.0368743629576187	42.9084609	-77.27235259999999	405	Canandaigua Academy, NY, United States of America
1.036030886950963	40.6386744	-75.5491527302499	406	Parkland, PA, United States of America
1.035190169539152	32.8413139	-117.278217989881	407	Bishop's School, CA, United States of America
1.0343521949554835	39.9792137	-75.3852785	408	Marple Newtown, PA, United States of America
1.033516947561728	43.6059077	-71.6520216	409	New Hampton School, NH, United States of America
1.032684411846774	26.83867685	-80.0629051589044	410	Benjamin School, FL, United States of America
1.0318545724252866	33.5020485	-117.6237879	411	San Juan Hills, CA, United States of America
1.0310274140363842	42.65144585	-71.540995750282	412	Groton-Dunstable, MA, United States of America
1.0302029215423338	41.3034296	-73.6901418433608	413	Kennedy Catholic, NY, United States of America
1.0293810799272602	41.3189871	-72.3273047	414	Old Lyme, CT, United States of America
1.028561874295876	40.6790333	-75.3141021	415	Moravian Academy, PA, United States of America
1.0277452898722221	33.62418925	-117.911108535691	416	Newport Harbor, CA, United States of America
1.0269313119984314	43.534799	-71.4620174	417	Laconia, NH, United States of America
1.026119926133501	39.04038565	-82.6431277260064	418	Jackson, OH, United States of America
1.0253111178520864	40.8670432	-73.527346	419	St. Dominic's, NY, United States of America
1.0245048728433064	42.81248695	-70.8866003968382	420	Newburyport, MA, United States of America
1.023701176909565	33.8475975	-118.3836327	421	Redondo Union, CA, United States of America
1.0229000159653892	33.71732895	-117.781596283608	422	Beckman, CA, United States of America
1.0221013760362796	40.4525163	-74.4766712	423	North Brunswick, NJ, United States of America
1.0213052432575762	40.1372446	-75.21528769999999	424	Germantown Academy, PA, United States of America
1.0205116038733384	41.37598185	-71.8190168848064	425	Westerly, RI, United States of America
1.019720444235239	40.52815325	-74.1934464787584	426	Tottenville, NY, United States of America
1.0189317508014728	41.7876875	-87.9338967063461	427	Hinsdale Central, IL, United States of America
1.0181455101356771	40.782876	-73.1384456	428	Connetquot, NY, United States of America
1.0173617089058677	39.5829291	-104.962775007037	429	Arapahoe, CO, United States of America
1.0165803338833859	42.9482232	-85.6129143967942	430	East Grand Rapids, MI, United States of America
1.0158013719418602	42.7964724	-76.1140658	431	Tully, NY, United States of America
1.0150248100561798	36.062915	-80.387554	432	West Forsyth, GA, United States of America
1.0142506353014829	40.00314475	-74.7824482001629	433	Rancocas Valley, NJ, United States of America
1.0134788348521533	28.6823458	-81.4226193225388	434	Lake Brantley, FL, United States of America
1.0127093959808329	39.2853875	-76.0921701	435	Kent County, MD, United States of America
1.011942306057446	40.3626029	-74.6898825	436	Princeton Day School, NJ, United States of America
1.0104151230147982	35.5976512	-80.9019132	438	Lake Norman, NC, United States of America
1.0096550051131694	37.9837505	-117.023278447941	439	Ralston Valley, CO, United States of America
1.008897186592866	40.6114905	-111.827044233995	440	Brighton, UT, United States of America
1.0081416552959825	39.3256668	-76.5967642	441	City College, MD, United States of America
1.0073883991562793	43.2035647	-77.4681161	442	Webster Schroeder, NY, United States of America
1.0066374061982868	39.54113985	-104.807585295479	443	Chaparral, CO, United States of America
1.005888664536419	33.12963015	-117.205893886696	444	San Marcos, CA, United States of America
1.005142162374099	39.44732665	-76.8180679854226	445	Franklin, MD, United States of America
1.0043978880028939	38.96248	-77.0550499	446	St. John's College, DC, United States of America
1.0029159762356983	38.305889	-85.5822108083886	448	Kentucky Country Day, KY, United States of America
1.0021783158559212	32.97557605	-96.9997632733938	449	Coppell, TX, United States of America
1.001442837298028	40.3871313	-111.779879704663	450	American Fork, UT, United States of America
1.000709529281689	41.2743037	-73.6095203	451	John Jay-Cross River, NY, United States of America
0.9999783806097414	41.8192606	-71.3535453024357	452	East Providence, RI, United States of America
0.9992493801673938	43.05923205	-70.7652538490579	453	Portsmouth, NH, United States of America
0.9977977799194829	47.6262626	-122.5204512	455	Bainbridge Island, WA, United States of America
0.9970751582891633	33.97187035	-84.2172107404142	456	Wesleyan School, GA, United States of America
0.9963546412374054	40.85865445	-74.7141422729439	457	Mt. Olive, NJ, United States of America
0.9956362180496631	42.5775266	-71.46351589999999	458	Westford Academy, MA, United States of America
0.9949198780891814	39.7506493	-75.2074	459	Clearview Regional, NJ, United States of America
0.9942056107962616	42.3703745	-71.1786653	460	Watertown, MA, United States of America
0.9934934056875384	28.46982865	-81.4771177276121	461	Dr. Phillips, FL, United States of America
0.992075140466594	29.7155077	-95.458552	463	Episcopal, TX, United States of America
0.9913690597629033	28.73563115	-81.3366099738316	464	Lake Mary HS, FL, United States of America
0.9906650000590785	38.87004485	-77.3197705621424	465	Flint Hill School, VA, United States of America
0.9899629512428412	39.85490755	-75.1618107078676	466	West Deptford, NJ, United States of America
0.9892629032740735	43.5823751	-71.2074454	467	Brewster Academy, NH, United States of America
0.9885648461841463	34.10645645	-84.1385882441725	468	Lambert, GA, United States of America
0.9878687700752614	40.6456522	-74.3501630118898	469	Westfield, NJ, United States of America
0.9871746651197977	37.5796741	-77.586755	470	Collegiate School, VA, United States of America
0.9864825215596655	41.15466715	-73.3276954327841	471	Staples, CT, United States of America
0.9857923297056684	42.3457322	-71.2085588532235	472	Newton North, MA, United States of America
0.9851040799368712	32.83405585	-117.272892092514	473	La Jolla HS, CA, United States of America
0.9844177626999772	41.9834324	-71.3328327	474	North Attleborough, MA, United States of America
0.9837333685087108	40.9967714	-74.1920109743855	475	Ramapo, NJ, United States of America
0.9830508879432075	38.8964794	-77.1913123	476	George Mason, VA, United States of America
0.9823703116494098	39.5087851	-76.3237152	477	Patterson Mill, MD, United States of America
0.9816916303384714	42.2251225	-70.8776890401925	478	Hingham, MA, United States of America
0.9810148347861675	39.5826125	-76.0630046	479	Perryville, MD, United States of America
0.9803399158323111	33.0036749	-96.9122336288582	480	Creekview, GA, United States of America
0.9796668643801756	40.7356104	-73.9861587614155	481	St. John the Baptist, NY, United States of America
0.9789956713959257	41.2545384	-73.9345831	482	Hendrick Hudson, NY, United States of America
0.9783263279080512	44.7422383	-93.2299596996104	483	Apple Valley, MN, United States of America
0.9776588250068116	41.05535205	-74.6239956149296	484	Sparta, NJ, United States of America
0.9769931538436818	42.14661575	-77.0479470054486	485	Corning, NY, United States of America
0.9763293056308076	39.6044443	-105.149490952787	486	Dakota Ridge, CO, United States of America
0.9756672716404658	32.90851455	-117.112518961207	487	Scripps Ranch, CA, United States of America
0.9750070432045301	39.26689425	-84.3520989953498	488	Sycamore, OH, United States of America
0.9743486117139433	41.0612032	-74.0091422261254	489	Pearl River, NY, United States of America
0.9736919686181942	36.873678	-76.19358799999999	490	Norfolk Academy, VA, United States of America
0.9730371054248018	38.5564132	-121.7505312	491	Davis, CA, United States of America
0.9723840136988042	28.58374845	-81.3201033014906	492	Winter Park, FL, United States of America
0.9717326850622522	42.9369906	-71.5197142621467	493	Bedford, NH, United States of America
0.9710831111937102	40.2454028	-75.6340730637132	494	Hill School, PA, United States of America
0.9704352838277611	39.23904165	-76.4410946526604	495	Sparrows Point, MD, United States of America
0.9697891947545167	42.56106895	-71.2739867812867	496	Billerica Memorial, MA, United States of America
0.9691448358191346	37.7694191	-121.903712313442	497	Dougherty Valley, CA, United States of America
0.9685021989213374	34.0224378	-84.1929192568569	498	John's Creek, GA, United States of America
0.9678612760149409	41.70903195	-70.7679425178418	499	Tabor Academy, MA, United States of America
0.9659487115838863	41.36890625	-72.2127679540828	502	East Lyme, CT, United States of America
0.9646820934653281	41.1371829	-73.324846	504	Greens Farms Academy, CT, United States of America
0.9640512885081922	40.1337269	-74.768781	505	Pennsbury East, PA, United States of America
0.9634221426949965	34.1159315	-84.564932	506	Etowah, GA, United States of America
0.9627946483958305	40.02106335	-74.9533997445549	507	Holy Cross, NJ, United States of America
0.9615445840697654	41.14856015	-73.2637279923243	509	Fairfield Ludlowe, CT, United States of America
0.960301035484042	42.2568317	-71.0693283	511	Milton Academy, MA, United States of America
0.959681686043245	41.5875946	-73.4142877	512	Canterbury School, CT, United States of America
0.959063943373272	41.0490834	-73.9540163	513	Tappan Zee, NY, United States of America
0.9584478001857569	33.899195	-117.285732896942	514	McLane, CA, United States of America
0.9578332492394905	42.6999184	-71.1163794	515	Andover, MA, United States of America
0.9572202833400261	39.5162106	-77.6516573	516	Boonsboro, MD, United States of America
0.9566088953392851	43.5367477	-70.7236685	517	Massabesic, ME, United States of America
0.9559990781351718	42.192683	-75.8548479	518	Chenango Forks, NY, United States of America
0.9553908246711877	26.1731534	-81.7950085623428	519	Naples, FL, United States of America
0.9547841279360529	34.0070442	-84.290479	520	Centennial, GA, United States of America
0.9541789809633284	27.85866475	-82.2078766258268	521	Newsome, FL, United States of America
0.9535753768310452	30.19432435	-95.5045786608027	522	Woodlands, TX, United States of America
0.9529733086613364	42.0475245	-70.6793292488759	523	Duxbury, MA, United States of America
0.9523727696200704	33.8131392	-118.068997010321	524	Los Alamitos, CA, United States of America
0.9517737529164919	27.1702922	-80.2482741403478	525	Martin County, FL, United States of America
0.9511762518028638	38.98659845	-104.76336228353	526	Pine Creek, CO, United States of America
0.9505802595741141	30.0498008	-89.9654201	527	Cranbrook Kingswood, MI, United States of America
0.9499857695674843	40.1724799	-74.5891851	528	Allentown, NJ, United States of America
0.949392775162185	43.9864256	-75.6459341	529	Carthage, NY, United States of America
0.9488012697790509	40.6454823	-74.0823464312789	530	Curtis, NY, United States of America
0.9476226999687093	27.98011845	-82.506755127675	532	George Steinbrenner, FL, United States of America
0.9470356225882564	42.58186135	-70.765760044743	533	Manchester-Essex, MA, United States of America
0.9464500083228158	34.0117433	-84.4981724835743	534	Sprayberry, GA, United States of America
0.94586585079632	39.7421068	-75.0766802	535	Washington Township, NJ, United States of America
0.9452831436723389	38.7344473	-77.80186	536	Highland School, VA, United States of America
0.9447018806537596	34.1508386	-118.7487007	537	Agoura, CA, United States of America
0.9441220554824695	40.15536415	-75.1087911849992	538	Upper Moreland, PA, United States of America
0.9435436619390449	34.0178086	-84.0225745	539	Collins Hill, GA, United States of America
0.942966693842438	42.64004545	-70.8823535437509	540	Pingree School, MA, United States of America
0.9423911450496704	27.2425075	-80.2672565464231	541	Jensen Beach, FL, United States of America
0.9418170094555296	41.8912631	-72.7959463000224	542	Westminster School, CT, United States of America
0.9412442809922672	43.7594256	-71.6744516	543	Holderness School, NH, United States of America
0.9406729536292994	41.500441	-73.1611704843752	544	Pomperaug, CT, United States of America
0.9401030213729132	26.3835793	-80.1455623	545	St. Andrew's, FL, United States of America
0.9395344782659737	40.7633333	-73.3341666	546	Deer Park, NY, United States of America
0.9389673183876327	40.3343756	-75.9818001	547	Grafton Memorial, MA, United States of America
0.9384015358530432	39.9023046	-75.0267771353652	548	Haddonfield, NJ, United States of America
0.9378371248130754	39.3672791	-76.5895879	549	Mercy, MD, United States of America
0.9372740794540346	43.1529456	-70.7970103	550	Marshwood, ME, United States of America
0.9367123939973829	39.279871	-74.5676966469687	551	Ocean City, NJ, United States of America
0.9361520626994636	42.6647282	-77.0613847	552	Penn Yan Academy, NY, United States of America
0.9355930798512274	42.6305334	-76.1893646468257	553	Homer, NY, United States of America
0.9350354397779618	39.0293096	-77.1979298634907	554	Bullis School, MD, United States of America
0.934479136839023	42.8619583	-73.8000404	555	Shenendehowa, NY, United States of America
0.9339241654275707	40.0841673	-82.8148762461311	556	New Albany, OH, United States of America
0.9333705199703054	42.53901515	-70.9153564128205	557	Bishop Fenwick, MA, United States of America
0.9328181949272074	41.8420428	-72.5548099	558	South Windsor, CT, United States of America
0.9322671847912789	40.41783495	-111.775858817013	559	Lone Peak, UT, United States of America
0.9317174840882891	40.534497	-75.3989016159337	560	Southern Lehigh, PA, United States of America
0.93116908737652	45.4750373	-122.7571329	561	Oregon Episcopal, OR, United States of America
0.9306219892465174	38.6856736	-76.6521845	562	Northern, MD, United States of America
0.9300761843208409	40.7548218	-73.4829018	563	Bethpage, NY, United States of America
0.9295316672538194	40.1198	-75.5215999	564	Phoenixville, PA, United States of America
0.9289884327313066	28.3397288	-80.7233872	565	Rockledge, FL, United States of America
0.9279057902194013	35.94729485	-78.571879367892	567	Wakefield, NC, United States of America
0.9273663717571812	42.9127778	-76.8688888	568	Waterloo, NY, United States of America
0.9268282148933428	43.288116	-77.7933419	569	Hilton, NY, United States of America
0.9262913144677901	40.032911	-75.1725330255426	570	Germantown Friends, PA, United States of America
0.9257556653505385	42.4835553	-71.1442989996007	571	Woburn Memorial, MA, United States of America
0.9252212624414854	37.4531768	-122.191665178136	572	Menlo School, CA, United States of America
0.9246881006701855	34.4047169	-119.4798433	573	Cate School, CA, United States of America
0.9241561749956257	43.1183946	-77.8344528	574	Churchville-Chili, NY, United States of America
0.9236254804060043	38.621192	-77.2882641999121	575	Freedom, VA, United States of America
0.9230960119185112	32.99885645	-117.025898955243	576	Poway, CA, United States of America
0.9225677645791095	39.60000985	-104.797958599554	577	Regis Jesuit, CO, United States of America
0.9220407334623206	45.1501121	-93.3553595	578	Champlin Park, MN, United States of America
0.9215149136710099	43.69874465	-72.2832153186343	579	Hanover, NH, United States of America
0.9209903003361761	41.83224155	-71.5008624274182	580	Johnston, RI, United States of America
0.9204668886167399	39.21605815	-76.9267008656082	581	River Hill, MD, United States of America
0.9199446736993373	47.52245525	-122.028659288438	582	Issaquah, WA, United States of America
0.9194236507981127	29.93199045	-90.0782046431306	583	Trinity Episcopal, VA, United States of America
0.9189038151545166	40.7806544	-72.8495473	584	William Floyd, NY, United States of America
0.9183851620371011	38.905904	-77.2123123	585	George Marshall, VA, United States of America
0.9178676867413208	32.939342	-97.2324682664989	586	Keller, TX, United States of America
0.9173513845893344	42.7181633	-87.7865300658802	587	St. Catherine's, VA, United States of America
0.9168362509298076	42.2046584	-71.0181333503979	588	Braintree, MA, United States of America
0.9163222811377173	29.6012195	-81.2340317	589	Matanzas, FL, United States of America
0.9158094706141602	40.8638204	-72.9242514481796	590	Longwood, NY, United States of America
0.9152978147861597	40.74722	-73.5644399	591	Clarke, NY, United States of America
0.9147873091064767	43.1481445	-76.2158114319789	592	Liverpool, NY, United States of America
0.9142779490534222	42.1621643	-76.8240741	593	Horseheads, NY, United States of America
0.9137697301306701	40.53498585	-112.030757775012	594	Herriman, UT, United States of America
0.9132626478670727	40.7777808	-74.5912517090318	595	Mendham, NJ, United States of America
0.9127566978164775	43.7939687	-70.1947715	596	Yarmouth, ME, United States of America
0.9122518755575468	42.27650535	-71.3609922356681	597	Natick, MA, United States of America
0.9117481766935772	36.8171709	-119.8098693	598	Bullard, CA, United States of America
0.9112455968523202	29.92410015	-81.341923113302	599	St. Augustine, FL, United States of America
0.9107441316858086	42.0728919	-71.3323046456334	600	King Philip, MA, United States of America
0.910243776870178	39.7706491	-76.7344250311156	601	Susquehannock, PA, United States of America
0.9097445281054967	43.4372976	-71.8239692	602	Proctor Academy, NH, United States of America
0.9092463811155909	39.14233995	-77.4176930480543	603	Poolesville, MD, United States of America
0.9087493316478759	42.7960149	-71.323235305154	604	Windham, NH, United States of America
0.9082533754731869	40.2953597	-74.0226274	605	Shore Regional, NJ, United States of America
0.9077585083856112	42.2132092	-71.5267901996232	606	Hopkinton, MA, United States of America
0.9072647262023227	38.8802258	-77.4064865	607	Chantilly, VA, United States of America
0.906772024763417	37.66803425	-121.875377099148	608	Amador Valley, CA, United States of America
0.9062803999317486	33.640855	-117.603104	609	Santa Margarita CS, CA, United States of America
0.9057898475927693	38.885289	-77.4645284	610	Westfield, VA, United States of America
0.9053003636543675	43.2036938	-77.954331	611	Brockport, NY, United States of America
0.9048119440467098	41.5578911	-70.6253182	612	Falmouth Academy, MA, United States of America
0.904324584722084	43.187562	-77.6397246	613	Aquinas Institute, NY, United States of America
0.9038382816547417	40.0078006	-75.2792733854084	614	Lower Merion, PA, United States of America
0.9033530308407447	42.6887514	-70.8518328	615	Ipswich, MA, United States of America
0.9028688282978112	33.5936347	-117.7031075	616	Laguna Hills, CA, United States of America
0.9023856700651639	40.7287118	-73.5559599	617	East Meadow, NY, United States of America
0.9019035522033791	42.5453697	-83.2332713	618	Birmingham United, MI, United States of America
0.9014224707942374	40.3481711	-74.0656232	619	Red Bank Catholic, NJ, United States of America
0.9009424219405751	39.122609	-76.6282995	620	Old Mill, MD, United States of America
0.9004634017661378	40.3578709	-74.6554332	621	Princeton HS, NJ, United States of America
0.8999854064154346	40.7260317	-73.534962913278	622	Levittown Division, NY, United States of America
0.8995084320535938	38.92345715	-77.1847740245733	623	McLean, VA, United States of America
0.8990324748662195	38.90277075	-77.1407848998753	624	Yorktown, VA, United States of America
0.89855753105925	40.97115555	-72.2002149483579	625	East Hampton, NY, United States of America
0.8980835968588161	42.62164145	-71.3738803797843	626	Chelmsford, MA, United States of America
0.897610668511104	40.3653838	-74.9587786	627	New Hope-Solebury, PA, United States of America
0.8971387422822138	30.0460134	-95.1936560712822	628	Kingwood, TX, United States of America
0.8966678144580242	37.8404819	-122.1460765	629	Miramonte, CA, United States of America
0.8961978813440569	33.3422525	-84.5176227	630	Starr's Mill, GA, United States of America
0.8957289392653398	42.937945	-70.8380649	631	Winnacunnet, NH, United States of America
0.8952609845662753	39.0770529	-77.1833137	632	Wootton, MD, United States of America
0.8947940136105066	39.4164352	-77.4262906	633	Frederick, MD, United States of America
0.8943280227807867	40.71472	-73.7066699	634	Floral Park Memorial, NY, United States of America
0.8938630084788474	40.682383	-75.2526267	635	Easton Area, PA, United States of America
0.8933989671252707	40.3746091	-80.051505429267	636	Mt. Lebanon, PA, United States of America
0.89293589515936	42.5931184	-71.5865252434644	637	Groton School, MA, United States of America
0.8924737890390141	38.25061775	-85.6741703882352	638	Sacred Heart Acad, KY, United States of America
0.8920126452405993	40.52544395	-74.1767843489661	639	St. Joseph By-The-Sea, NY, United States of America
0.8915524602588264	27.4972695	-82.6016133	640	St. Stephen's ES, FL, United States of America
0.8910932306066252	42.6103375	-73.8566187238381	641	Bethlehem, NY, United States of America
0.8906349528150217	44.556739	-69.7168963731145	642	Messalonskee, ME, United States of America
0.8901776234330172	39.37786295	-77.4478304048451	643	Tuscarora, MD, United States of America
0.889721239027467	38.9995542	-77.1874797	644	Holy Child, MD, United States of America
0.8892657961829593	44.6433782	-93.2708228618764	645	Lakeville South, MN, United States of America
0.8883577216033833	41.5931836	-70.9775741819829	647	Dartmouth, MA, United States of America
0.8879050831250963	42.8692408	-71.3793387200395	648	Londonderry, NH, United States of America
0.8874533727211813	42.9301763	-78.6705741506962	649	Lancaster, NY, United States of America
0.8870025870631313	42.08901895	-87.8536262033248	650	Glenbrook South, IL, United States of America
0.8865527228394748	39.057609	-76.9358079	651	Calverton School, MD, United States of America
0.8861037767556614	38.04730895	-78.7052442724124	652	Western Albemarle, VA, United States of America
0.8856557455339505	41.1217847	-73.3896352521464	653	Norwalk, CT, United States of America
0.8852086259132991	42.1169295	-76.2728687	654	Owego Free Academy, NY, United States of America
0.8847624146492515	39.9190019	-75.1746228	655	Baldwin School, PA, United States of America
0.8838727042954282	28.6142655	-81.2726685	657	Trinity Prep, FL, United States of America
0.8834291987986977	40.1970949	-75.163972524242	658	Hatboro-Horsham, PA, United States of America
0.8829865888444476	40.7987107	-73.5426253	659	Jericho, NY, United States of America
0.8825448712695343	43.1550882	-70.6294967	660	York, IL, United States of America
0.8816641006847588	40.3329584	-76.0012834601072	662	Wilson, PA, United States of America
0.8812250414279105	43.0361672	-71.4602374398112	663	Derryfield School, NH, United States of America
0.8807868620562217	39.4057672	-76.5621990790781	664	Loch Raven, MD, United States of America
0.880349559485231	43.2302373	-70.8034011	665	Berwick Academy, ME, United States of America
0.879477572484551	43.2818508	-76.1498637	667	Central Square, NY, United States of America
0.8790428819626894	41.5178802	-71.2867163	668	Middletown, RI, United States of America
0.8786090560569849	42.32390075	-72.6523225634159	669	Northampton, MA, United States of America
0.8781760917591322	39.938818	-75.0522364	670	Camden Catholic, NJ, United States of America
0.8777439860757636	33.5422403	-117.669711871491	671	Capistrano Valley, CA, United States of America
0.8773127360283514	41.22317135	-73.0642826854589	672	Lauralton Hall, CT, United States of America
0.8768823386531134	40.6676022	-73.6051284	673	Baldwin, NY, United States of America
0.8764527910009178	27.888596	-82.17255899999999	674	Durant, FL, United States of America
0.876024090137189	42.8669444	-76.9874999	675	Geneva, NY, United States of America
0.875596233141814	36.1245025	-86.8399999	676	Ensworth, TN, United States of America
0.8751692171090508	38.0755077	-78.5005554	677	Albemarle, VA, United States of America
0.8747430391474358	40.6889363	-73.9764433885907	678	Brooklyn Technical, NY, United States of America
0.874317696379693	34.0628767	-84.3815932	679	Roswell, GA, United States of America
0.8738931859426433	39.80218175	-75.4541827133886	680	Archmere Academy, DE, United States of America
0.8734695049871152	41.03094825	-74.6676976012418	681	Pope John XXIII, NJ, United States of America
0.8730466506778559	40.7902778	-73.9713888	682	Trinity School, NY, United States of America
0.8726246201934424	38.24218315	-85.5255781332409	683	Eastern, KY, United States of America
0.8722034107261951	34.02384975	-84.4522261531746	684	Pope, GA, United States of America
0.8717830194820887	41.0620413	-73.5320672	685	Stamford, CT, United States of America
0.8713634436806686	28.6251837	-81.1780967	686	Hagerty, FL, United States of America
0.8709446805549641	38.96819065	-104.84612191246	687	Air Academy, CO, United States of America
0.8705267273514024	33.6527261	-117.823602836746	688	University HS, CA, United States of America
0.8701095813297267	42.9573719	-85.6669342	689	Catholic Central, MI, United States of America
0.8696932397629105	40.7926392	-73.6395699524749	690	Roslyn, NY, United States of America
0.8692776999370759	38.9306667	-77.0705331	691	National Cathedral, DC, United States of America
0.8688629591514105	35.79066515	-78.6526140005746	692	Broughton, NC, United States of America
0.8684490147180868	40.09067845	-83.0291908390627	693	Thomas Worthington, OH, United States of America
0.8680358639621799	47.613601	-122.0317461	694	Lake Sammamish, WA, United States of America
0.8676235042215878	38.9386375	-77.0751267	695	Sidwell Friends, DC, United States of America
0.8672119328469513	41.1073506	-73.9312991	696	Nyack, NY, United States of America
0.8668011472015751	38.7174282	-77.2385395	697	South County, VA, United States of America
0.8663911446613489	40.8650992	-73.5951263	698	Friends Academy, NY, United States of America
0.8659819226146698	33.8048277	-84.4615964	699	Archer, GA, United States of America
0.8655734784623643	32.62045	-116.990644198645	700	Otay Ranch, CA, United States of America
0.8651658096176115	40.8551528	-73.3359557	701	Elwood-John Glenn, NY, United States of America
0.8647589135058683	38.726086	-77.5800291	702	Patriot, VA, United States of America
0.8643527875647912	39.0491051	-77.5094513630933	703	Stone Bridge, VA, United States of America
0.8639474292441639	37.1235672	-76.4332147	704	Tabb Club, VA, United States of America
0.8635428360058209	41.46851615	-71.32144115625	705	Rogers, RI, United States of America
0.863139005323574	37.6757669	-77.599427701338	706	Deep Run, VA, United States of America
0.8627359346831398	33.6527261	-117.823602836746	707	University HS, CA, United States of America
0.8623336215820657	35.17046485	-80.8338539523201	708	Myers Park, NC, United States of America
0.8619320635296577	39.5913883	-104.747298695684	709	Grandview, CO, United States of America
0.8615312580469097	38.7746612	-77.0733941349212	710	West Potomac, VA, United States of America
0.8611312026664316	39.20833915	-76.7932399046355	711	FCA, MD, United States of America
0.8607318949323782	40.8098887	-74.7285183	712	West Morris Central, NJ, United States of America
0.8603333324003796	38.7337864	-120.812561368256	713	El Dorado, CA, United States of America
0.8599355126374718	33.45221265	-117.091650437317	714	Great Oak, CA, United States of America
0.8595384332220267	39.0759047	-74.8193324	715	Middle Township, NJ, United States of America
0.8591420917436846	33.1083676	-96.530298	716	McKinney Club, TX, United States of America
0.8587464858032856	44.9811139	-93.3427352353314	717	Breck School, MN, United States of America
0.8583516130128012	42.1166823	-73.4146878	718	Berkshire School, MA, United States of America
0.8579574709952694	42.454775	-76.4970466746796	719	Ithaca, NY, United States of America
0.8575640573847257	40.9058094	-74.4901858	720	Morris Catholic, NJ, United States of America
0.8571713698261384	40.3202045	-75.8691436	721	Exeter Township, PA, United States of America
0.8567794059753429	40.5348199	-75.5051837	722	Emmaus, PA, United States of America
0.856388163498976	33.43977215	-117.617113337868	723	San Clemente, CA, United States of America
0.855997640074412	38.80294435	-104.857174793489	724	Cheyenne Mountain, CO, United States of America
0.8556078333896981	41.9767633	-72.4606399	725	Somers, CT, United States of America
0.8552187411434908	40.3272222	-74.7938888	726	Pennington School, NJ, United States of America
0.8548303610449928	37.82299505	-122.233012819263	727	Piedmont, CA, United States of America
0.8544426908138895	30.08739035	-81.7120193667606	728	Fleming Island, FL, United States of America
0.8540557281802884	41.26265445	-73.1628616128312	729	St. Joseph, CT, United States of America
0.8536694708846556	33.9404936	-118.126206509993	730	Downey, CA, United States of America
0.8532839166777548	42.45600145	-71.1341662183926	731	Winchester, MA, United States of America
0.8528990633205872	40.9744503	-73.6807819	732	Rye CDS, NY, United States of America
0.8525149085843297	43.34845565	-71.9043769497198	733	Kearsarge Regional, NH, United States of America
0.8521314502502759	42.420573	-71.1279179	734	Brooks School, MA, United States of America
0.8517486861097763	40.6787674	-73.8373387137491	735	John Adams, NY, United States of America
0.8513666139641782	45.1325686	-93.4595724	736	Maple Grove, MN, United States of America
0.8506045369127133	41.0205668	-73.7354869324799	738	White Plains, NY, United States of America
0.8502245276590025	43.5461828	-72.2581459	739	Kimball Union Academy, NH, United States of America
0.8498452017043904	42.68439675	-84.456141	740	Okemos, MI, United States of America
0.8494665568993389	34.2111341	-118.870508202492	741	Thousand Oaks, CA, United States of America
0.8490885911039614	33.6788923	-117.806863871358	742	Woodbridge, CA, United States of America
0.8487113021879664	43.1514749	-70.84089	743	St. Thomas Aquinas, NH, United States of America
0.8483346880306012	45.48545855	-122.76875843892	744	Jesuit, OR, United States of America
0.8479587465205967	42.001346	-87.8530167626385	745	Maine South, IL, United States of America
0.8475834755561126	40.2417733	-75.2687859	746	Lansdale Catholic, PA, United States of America
0.8472088730446821	40.697377	-73.3650873	747	Lindenhurst, NY, United States of America
0.8468349369031583	42.3402554	-71.1068437461818	748	Winsor School, MA, United States of America
0.8464616650576597	39.3262047	-77.3407907	749	Urbana, MD, United States of America
0.846089055443517	39.18430775	-84.3471879582988	750	Indian Hill, OH, United States of America
0.8457171060052204	42.5467012	-83.21131919999999	751	Birmingham Chtr, CA, United States of America
0.8453458146963657	39.66221925	-77.7150684041645	752	North Hagerstown, MD, United States of America
0.8449751794796029	41.0595462	-74.282460100723	753	Lakeland Regional, NJ, United States of America
0.8446051983265834	40.99684405	-74.3765669112669	754	Kinnelon, NJ, United States of America
0.8442358692179095	47.9188526	-122.100645089847	755	Snohomish, WA, United States of America
0.8431317740971592	28.844411	-82.50662	758	St. John Paul II, FL, United States of America
0.8427650331491037	33.1003966	-96.6586052	759	Allen, TX, United States of America
0.8423989342808741	40.5934382	-73.9862499	760	LaFayette, NY, United States of America
0.8420334755257091	27.82542685	-82.62114035	761	Canterbury School, FL, United States of America
0.8416686549254461	41.2102192	-73.3782612998835	762	Weston, CT, United States of America
0.8413044705304723	32.6917186	-117.1817001	763	Coronado, CA, United States of America
0.8409409203996766	40.3788886	-80.102497	764	Chartiers Valley, PA, United States of America
0.8405780026004008	37.2777997	-79.9384281	765	St. Andrew's, DE, United States of America
0.8402157152083923	43.1542731	-71.5477547	766	Bow, NH, United States of America
0.839854056307756	41.4098714	-73.2715494078504	767	Newtown, CT, United States of America
0.8394930239909086	40.6593503	-80.0170742539153	768	Pine-Richland, PA, United States of America
0.8391326163585301	41.7508392	-99.297326	769	Kent School, CT, United States of America
0.838772831519518	37.46227555	-122.174647701133	770	Menlo-Atherton, CA, United States of America
0.8384136675909412	39.8520207	-86.0808139369425	771	Cathedral, IN, United States of America
0.8380551226979946	33.6803727	-117.7934588	772	Eastlake, CA, United States of America
0.8376971949739526	41.92600185	-73.9969744875625	773	Kingston, NY, United States of America
0.837339882560124	38.8787187	-77.2820454957048	774	Oakton, VA, United States of America
0.8369831836058086	41.8862089	-71.9647958	775	Pomfret School, CT, United States of America
0.8366270962682503	37.6016154	-77.5585207	776	Douglas Freeman, VA, United States of America
0.8362716187125945	42.96228	-78.7903109	777	Amherst, NY, United States of America
0.8359167491118428	42.88604305	-73.1909009635478	778	Mt. Anthony Union, VT, United States of America
0.8352088265060847	32.9947515	-117.065010408639	780	Rancho Bernardo, CA, United States of America
0.8348557698859757	33.77951045	-118.419564342899	781	Palos Verdes, CA, United States of America
0.8345033139904796	42.9104522	-76.5507374	782	Auburn, NY, United States of America
0.8341514570312343	38.9459444	-76.9138626	783	Elizabeth Seton, MD, United States of America
0.8338001972274766	35.7457025	-78.8382514629026	784	Apex, NC, United States of America
0.833449532806	41.7509327	-72.8676002	785	Farmington, CT, United States of America
0.8330994620011146	39.8926823	-75.3060413010849	786	Interboro, PA, United States of America
0.8327499830546038	39.39169255	-76.4655725464706	787	Perry Hall, MD, United States of America
0.8320527937409677	33.1636224	-117.3281231	789	Carlsbad, CA, United States of America
0.8317050798944129	40.6200347	-74.5677171	790	Pingry School, NJ, United States of America
0.8313579509472938	41.13382635	-73.8127326414474	791	Briarcliff, NY, United States of America
0.8306654408727723	42.7667257	-78.8314216	793	Frontier, NY, United States of America
0.8303200563241148	40.77110715	-74.409128994311	794	Madison, NJ, United States of America
0.8299752498323043	41.5877778	-73.9174999	795	Wappingers, NY, United States of America
0.8296310197045775	35.02765	-80.8337019	796	Ardrey Kell, NC, United States of America
0.8292873642552459	41.87159675	-72.821883157628	797	Simsbury, CT, United States of America
0.8289442818056586	42.66838615	-72.4851050486311	798	Northfield Mt. Hermon, MA, United States of America
0.8286017706841641	40.1004231	-75.2070644	799	Springfield (MontCo), PA, United States of America
0.8282598292260716	41.31216985	-72.7119570639331	800	Guilford, CT, United States of America
0.8279184557736137	42.14526845	-71.4072690747932	801	Medway, MA, United States of America
0.8275776486759097	42.3282822	-71.6074425509687	802	Algonquin, MA, United States of America
0.8272374062889276	42.2001203	-70.7681266828954	803	Scituate, MA, United States of America
0.8268977269754475	41.42655975	-81.3791952538465	804	Chagrin Falls, OH, United States of America
0.8265586091050249	41.7832753	-72.5595135616702	805	East Catholic, CT, United States of America
0.8262200510539538	42.3131531	-71.1861651	806	Newton South, MA, United States of America
0.8258820512052322	33.1433095	-117.14101546847	807	Mission Hills, CA, United States of America
0.825544607948524	27.0575528	-80.2644916	808	South Fork, FL, United States of America
0.8252077196801245	43.0445708	-75.872947	809	Chittenango, NY, United States of America
0.824871384802925	40.7586111	-73.5263888	810	Hicksville, NY, United States of America
0.8242003688664586	40.903155	-73.8112445	812	Pelham Memorial, NY, United States of America
0.8238656846456365	40.805	-72.806111	813	Center Moriches, NY, United States of America
0.8235315474928354	33.92598895	-84.6672378614455	814	Hillgrove, GA, United States of America
0.8231979558434012	40.26378655	-74.5221782963702	815	Peddie School, NJ, United States of America
0.8228649081390677	42.671514	-73.2410259485104	816	Mt. Greylock Regional, MA, United States of America
0.8225324028279225	32.96609835	-117.150068753275	817	Westview, CA, United States of America
0.8222004383643741	37.9379802	-122.5241421	818	Redwood, CA, United States of America
0.8218690132091165	40.7304267	-74.1863283	819	Montgomery, NJ, United States of America
0.8215381258290989	40.781681	-73.603674	820	Holy Child, NY, United States of America
0.8212077746974903	32.6382191	-82.7676383	821	Lovett, GA, United States of America
0.8208779582936475	33.4170959	-84.5627402	822	McIntosh, GA, United States of America
0.8205486751030828	39.1440553	-76.5287636156677	823	Northeast, MD, United States of America
0.8202199236174318	39.4328802	-77.2474825	824	Linganore, MD, United States of America
0.8198917023344201	40.6753793	-73.5429044	825	Mepham, NY, United States of America
0.8195640097578326	40.0547275	-86.0004957093755	826	Noblesville, IN, United States of America
0.8192368443974812	44.3445624	-73.1099672	827	Champlain Valley Union, VT, United States of America
0.8189102047691735	38.5357397	-121.4630097	828	Christian Brothers, CA, United States of America
0.8185840893946815	43.0730556	-73.7994443	829	Saratoga Springs, NY, United States of America
0.8182584968017096	40.7733333	-73.2549999	830	Brentwood, NY, United States of America
0.8179334255238655	41.3359272	-73.8740251	831	Putnam Valley, NY, United States of America
0.8176088741006273	38.5462317	-76.9502505	832	La Plata, MD, United States of America
0.8172848410773146	33.874266	-118.389538927327	833	Mira Costa, CA, United States of America
0.8169613250050571	44.88253175	-93.3766693407895	834	Edina, MN, United States of America
0.8166383244407662	41.6039856	-73.1239992	835	Taft School, CT, United States of America
0.8163158379471024	42.5600339	-83.2932663	836	Bloomfield Hills, MI, United States of America
0.8159938640924472	39.8745176	-74.8974412277105	837	Cherokee, NJ, United States of America
0.8156724014508737	39.9705991	-85.91720839999999	838	Fishers-HSE, IN, United States of America
0.815351448602117	34.0729952	-84.80696979999999	839	North Paulding, GA, United States of America
0.815031004131544	29.783063	-95.8333502978432	840	Katy, TX, United States of America
0.8147110666301254	40.741389	-73.6577776	841	Mineola, NY, United States of America
0.8143916346944071	26.7099895	-80.0913388	842	Cardinal Newman, FL, United States of America
0.8140727069264809	44.90942995	-93.5112004871135	843	Minnetonka, MN, United States of America
0.8137542819339558	38.2014433	-90.3928988	844	St. Pius X, GA, United States of America
0.8134363583299309	40.5609008	-80.2031147	845	Quaker Valley, PA, United States of America
0.8131189347329659	34.2635996	-118.7718272	846	Royal, CA, United States of America
0.8128020097670541	39.9906619	-75.7963349	847	Coatesville Area, PA, United States of America
0.8124855820615942	29.9423267	-95.6527252569066	848	Cy-Fair, TX, United States of America
0.8121696502513629	42.86101715	-71.4983801433623	849	Merrimack, NH, United States of America
0.811854212976488	41.0402978	-73.8604483	850	Irvington, NY, United States of America
0.8115392688824198	43.1478404	-77.537776	851	Our Lady of Mercy, NY, United States of America
0.8112248166199058	34.40342415	-118.596073369506	852	West Ranch, CA, United States of America
0.8109108548449615	40.8270431	-73.4259544	853	Walt Whitman, NY, United States of America
0.8105973822188467	42.3667625	-71.3031131	854	Weston, MA, United States of America
0.810284397408036	42.3938659	-71.2296977001954	855	Waltham, MA, United States of America
0.8099718990841944	30.3578335	-87.1677143744595	856	Gulf Breeze, FL, United States of America
0.8093483566098691	38.9731554	-76.5674712347829	858	Annapolis, MD, United States of America
0.8090373098284281	45.30680125	-122.746661320245	859	Wilsonville, OR, United States of America
0.8084166586377779	41.3222999	-74.1343146687086	861	Monroe-Woodbury, NY, United States of America
0.8081070516280496	41.9542653	-71.5453401	862	Smithfield, RI, United States of America
0.8077979219500725	42.35158615	-71.8744573491523	863	Wachusett, MA, United States of America
0.8074892683160976	43.5056398	-70.4406063	864	Thornton Academy, ME, United States of America
0.8071810894433363	40.71418145	-73.6685791139288	865	Carey, NY, United States of America
0.8068733840539343	42.58331775	-70.9318685193334	866	Danvers, MA, United States of America
0.8065661508749463	40.9562092	-74.1212537	867	Glen Rock, NJ, United States of America
0.8062593886383139	38.4345106	-77.4511691	868	Colonial Forge, VA, United States of America
0.8059530960808386	42.5344789	-83.2629869	869	Marian, MI, United States of America
0.8050370239237843	42.4723072	-73.1384354	872	Wahconah Regional, MA, United States of America
0.8047325975473345	29.9411193	-90.113531	873	Ursuline Academy, OH, United States of America
0.8044286346061256	40.6397222	-73.6972221	874	Hewlett, NY, United States of America
0.8041251338656229	40.6906581	-74.1062534	875	Marist, GA, United States of America
0.8038220940959863	41.8573153	-73.619571	876	Millbrook School, NY, United States of America
0.8035195140720469	40.30331	-75.9600469124948	877	Governor Mifflin, PA, United States of America
0.8032173925732853	41.2893432	-72.39548409999999	878	Old Saybrook, CT, United States of America
0.8029157283838063	35.0833538	-89.7870094	879	St. George's, TN, United States of America
0.8026145202923188	39.94757525	-75.3481673121681	880	Cardinal O'Hara, PA, United States of America
0.8023137670921112	26.3643102	-80.1171485	881	Boca Raton Community, FL, United States of America
0.8020134675810294	40.54900865	-111.860916705025	882	Alta, UT, United States of America
0.8017136205614551	42.9723104	-70.9564454	883	Exeter Area HS, NH, United States of America
0.8014142248402831	37.4358242	-122.155244766475	884	Palo Alto, CA, United States of America
0.8011152792288987	37.36882005	-121.838274997207	885	Foothill, CA, United States of America
0.8008167825431568	34.2768272	-118.685113855861	886	Simi Valley, CA, United States of America
0.8005187336033593	39.3165375	-77.6082939531787	887	Brunswick, MD, United States of America
0.8002211312342338	28.2983112	-81.5691619	888	Celebration, FL, United States of America
0.7999239742649114	40.1685781	-74.06110989999999	889	Wall Township, NJ, United States of America
0.7996272615289064	39.3562213	-76.6272672680563	890	Friends' School, MD, United States of America
0.7993309918640937	40.2131617	-74.9760675	891	Council Rock South, PA, United States of America
0.7990351641126888	41.2560052	-81.4139387452058	892	Hudson, OH, United States of America
0.798739777121226	39.98592975	-105.111568528849	893	Centaurus, CO, United States of America
0.7984448297405375	30.47113305	-97.8427596462632	894	Cedar Park, TX, United States of America
0.7981503208257331	40.5643433	-111.945799675422	895	Bingham, UT, United States of America
0.7978562492361789	40.86177815	-74.640792943145	896	Roxbury, NJ, United States of America
0.7975626138354773	39.9620087	-82.9482362	897	Columbus Academy, OH, United States of America
0.7972694134914459	42.1067937	-70.73867489739	898	Marshfield, MA, United States of America
0.7969766470760982	38.8220478	-77.2075747	899	Annandale, VA, United States of America
0.7966843134656224	33.6626794	-84.4422323	900	Woodward Academy, GA, United States of America
0.7963924115403617	41.4178706	-70.595999	901	Martha's Vineyard, MA, United States of America
0.7961009401847947	39.562486	-106.415307	902	Battle Mountain, CO, United States of America
0.7958098982875149	41.7317701	-70.820037	903	Old Rochester, MA, United States of America
0.7955192847412114	41.7344469	-70.4597584352984	904	Sandwich, MA, United States of America
0.7952290984426493	38.2071787	-81.5125362	905	Riverside, VA, United States of America
0.7949393382926506	42.4643312	-71.0666953882685	906	Melrose, MA, United States of America
0.7946500031960734	41.4267729	-73.6749887869334	907	Carmel, NY, United States of America
0.7943610920617941	34.1484162	-84.1710764	908	South Forsyth, GA, United States of America
0.794072603802688	39.3472014	-74.5772906499882	909	Mainland Regional, NJ, United States of America
0.7937845373356097	42.4727715	-71.5065239203092	910	Sheehan, CT, United States of America
0.79320966546474	40.8745436	-74.2690363	912	West Essex, NJ, United States of America
0.7929228579143865	41.7822222	-73.6866666	913	Millbrook HS, NY, United States of America
0.7926364678628988	34.2218384	-118.2429251	914	Crescenta Valley, CA, United States of America
0.7923504942467486	44.6051884	-75.168457	915	Canton, NY, United States of America
0.7920649360062745	27.839398	-82.76071069999999	916	Park Vista, FL, United States of America
0.791779792085665	39.838579	-75.4397670784495	917	Chichester, PA, United States of America
0.7912107429999318	42.29073305	-71.2885931740557	919	Dana Hall School, MA, United States of America
0.7909268357422692	42.2607756	-71.4453561187979	920	Ashland, MA, United States of America
0.7906433386193579	42.12954225	-70.8713456313137	921	Hanover, MA, United States of America
0.7903602505943632	42.5884618	-76.1742807	922	Cortland, NY, United States of America
0.7900775706341925	40.2536054	-75.6394776	923	Pottstown, PA, United States of America
0.7897952977094773	40.7742653	-72.9223274	924	Bellport, NY, United States of America
0.7895134307945575	43.0783895	-76.0598211	925	Bishop Ludden-Grimes, NY, United States of America
0.7892319688674613	44.6506379	-93.2048131	926	Farmington, MN, United States of America
0.78895091090989	33.5010072	-117.116343774146	927	Temecula Valley, CA, United States of America
0.7883900028483865	40.390172	-111.838705703038	929	Lehi, UT, United States of America
0.7878306985364579	44.4861515	-72.9619426	931	Mt. Mansfield Union, VT, United States of America
0.7875516452793718	40.8412107	-74.2473689	932	Verona, NJ, United States of America
0.7872729899581875	40.7816605	-73.4587311	933	Plainview J.F.K., NY, United States of America
0.7869947315798386	44.92515635	-93.1581473250044	934	Cretin-Derham Hall, MN, United States of America
0.7867168691547971	40.8833714	-73.840713	935	Cardinal Spellman, NY, United States of America
0.7864394016970577	43.1163889	-75.2927777	936	Whitesboro, NY, United States of America
0.786162328224119	41.13250295	-73.7854452746053	937	Pleasantville, NY, United States of America
0.7858856477569696	29.9411193	-90.113531	938	Ursuline Academy, DE, United States of America
0.7856093593200716	37.66462325	-77.4103611113285	939	Atlee, VA, United States of America
0.7853334619413432	42.496422	-71.0513563	940	Wakefield Memorial, MA, United States of America
0.7850579546521452	34.1369224	-84.1704825	941	Pinecrest Academy, GA, United States of America
0.7847828364872622	27.7581049	-80.5154661762105	942	Sebastian River, FL, United States of America
0.7845081064848898	40.52487065	-111.960689300668	943	Riverton, UT, United States of America
0.7842337636866168	38.04445945	-84.5135419175313	944	Collegiate, KY, United States of America
0.783959807137411	42.0582992	-72.5240620818223	945	East Longmeadow, MA, United States of America
0.7836862358856027	42.9217329	-76.7980105	946	Mynderse Academy, NY, United States of America
0.78341304898287	33.7708615	-84.2969272	947	Decatur, GA, United States of America
0.7831402454842238	37.9989843	-78.489271	948	Monticello, VA, United States of America
0.7828678244479911	28.1588667	-82.3542912	949	Wharton, FL, United States of America
0.7825957849358015	39.0102877	-77.7539619	950	Foxcroft School, VA, United States of America
0.7820528467464899	41.4509	-71.4690999	952	Prout School, RI, United States of America
0.7817819462090019	40.51887905	-79.869531965929	953	Fox Chapel Area, PA, United States of America
0.781511423474795	34.04719825	-118.531581872966	954	Palisades Charter, CA, United States of America
0.7812412776217853	37.8663111	-122.127081874152	955	Campolindo, CA, United States of America
0.7809715077311009	39.8765774	-82.7552766	956	Pickerington Central, OH, United States of America
0.7807021128870689	37.612607	-122.4279914	957	Peninsula, CA, United States of America
0.7804330921772001	40.3351571	-80.0706422	958	Upper St. Clair, PA, United States of America
0.7801644446921753	36.0236781	-84.2020273	959	Oak Mountain Blue, AL, United States of America
0.7798961695258297	27.8486606	-82.8188156176486	960	Seminole, FL, United States of America
0.7796282657751405	39.216984	-76.8727114957514	961	Wilde Lake, MD, United States of America
0.7793607325402118	35.9444845	-79.078599237112	962	Chapel Hill, NC, United States of America
0.7785603469776341	25.7231565	-80.2447719	965	Ransom Everglades, FL, United States of America
0.7782942868688327	42.921417	-85.6222497	966	Grand Rapids Christian, MI, United States of America
0.778028592822725	43.1272974	-71.7584938713766	967	John Stark Regional, NH, United States of America
0.7777632639578843	39.5405933	-104.945245730539	968	Valor Christian, CO, United States of America
0.7774982993959129	39.3023292	-76.6013556	969	St. James School, MD, United States of America
0.7772336982614307	42.1613143	-72.1318127132379	970	Tantasqua, MA, United States of America
0.7769694596820604	40.3382193	-74.6846029	971	Hun School, NJ, United States of America
0.7767055827884138	44.92023825	-74.9028695974428	972	Massena, NY, United States of America
0.7764420667140801	35.0882733	-80.849798	973	Charlotte Catholic, NC, United States of America
0.7761789105956112	42.3457124	-71.1918607638292	974	Newton CDS, MA, United States of America
0.7756536747872119	27.8744684	-82.5156511	976	Robinson, FL, United States of America
0.7753915933850833	41.2068538	-73.8817902343944	977	Croton-Harmon, NY, United States of America
0.775129868514397	47.57189185	-122.219308569378	978	Mercer Island, WA, United States of America
0.7748684993263245	26.4220825	-81.7966124	979	Estero, FL, United States of America
0.7746074849749227	44.80741285	-93.1343200300958	980	Eagan, MN, United States of America
0.7743468246171218	33.8769592	-117.8670029	981	Valencia-Placentia, CA, United States of America
0.7740865174127111	41.6430893	-87.7169938	982	Aspen, CO, United States of America
0.7738265625243269	40.65247245	-74.4752436654308	983	Watchung Hills, NJ, United States of America
0.7735669591174413	40.0957563	-75.1320941561454	984	Jenkintown, PA, United States of America
0.7733077063603477	33.6806697	-88.328648	985	Caledonia, MI, United States of America
0.7730488034241499	41.9598186	-72.7920404	986	Granby Memorial, CT, United States of America
0.7727902494827488	29.6785953	-82.402258068844	987	Buchholz, FL, United States of America
0.7725320437128309	38.1824121	-77.5113662	988	Massaponax, VA, United States of America
0.7722741852938557	33.6796569	-112.007860010165	989	Pinnacle, AZ, United States of America
0.7720166734080435	41.93722085	-71.4505749393112	990	Lincoln HS, RI, United States of America
0.7717595072403636	38.9322606	-77.3394452245973	991	South Lakes, VA, United States of America
0.7715026859785225	38.8947006	-77.1609431407895	992	Bishop O'Connell, VA, United States of America
0.7712462088129505	41.1450544	-81.8506909	993	Medina, OH, United States of America
0.7709900749367922	39.0801946	-108.5630125963	994	Grand Junction, CO, United States of America
0.770734283545893	41.41706305	-73.4701842617439	995	Danbury, CT, United States of America
0.7704788338387873	41.4787051	-73.3893213484487	996	Brookfield, CT, United States of America
0.7702237250166886	39.3934504	-76.6747359074678	997	Park School, MD, United States of America
0.7699689562834748	33.56352205	-117.198712827898	998	Murrieta Mesa, CA, United States of America
0.76971452684568	40.09126335	-76.4140231496244	999	Hempfield, PA, United States of America
0.7694604359124804	43.6460715	-70.2696659	1000	Waynflete School, ME, United States of America
0.7692066826956846	36.31582455	-86.6697923497109	1001	Pope John Paul II, TN, United States of America
0.7687001862716272	42.41165125	-83.4948431221299	1003	Northville, MI, United States of America
0.768447441501039	42.39280695	-82.9040665061426	1004	Grosse Pointe South, MI, United States of America
0.7681950313201779	40.7650833	-80.4023987	1005	Blackhawk, PA, United States of America
0.767942954953841	44.84609505	-93.5754432952304	1006	Chanhassen, MN, United States of America
0.7676912116293905	37.7532062	-122.154881820827	1007	Bishop O'Dowd, CA, United States of America
0.767439800576741	32.798165	-116.914648005576	1008	Granite Hills, CA, United States of America
0.7671887210283498	34.195283	-118.1825727	1009	St. Francis, CA, United States of America
0.7669379722192059	26.304503	-80.26945700000002	1010	Stoneman Douglas, FL, United States of America
0.7666875533868184	41.6001022	-71.2708822	1011	Portsmouth Abbey, RI, United States of America
0.7664374637712069	34.1616721	-118.815648	1012	Westlake, CA, United States of America
0.7661877026148892	40.7364215	-80.3016846	1013	Brighton, MI, United States of America
0.7659382691628724	41.9091188	-72.4624743003138	1014	Ellington, CT, United States of America
0.7656891626626405	40.0873662	-74.6852532763563	1015	Northern Burlington, NJ, United States of America
0.7654403823641458	42.78523105	-71.1065216729894	1016	Haverhill, MA, United States of America
0.7651919275197965	42.7268624	-78.8298435	1017	Hamburg, NY, United States of America
0.7649437973844471	41.022448	-74.2314433	1018	Indian Hills, NJ, United States of America
0.7646959912153881	40.56279420000001	-75.005436	1019	Delaware Valley, NJ, United States of America
0.764448508272336	41.2642229	-73.19269	1020	Trumbull, CT, United States of America
0.7642013478174219	47.74830545	-121.98180455	1021	Holy Innocents', GA, United States of America
0.7639545091151823	42.34663135	-83.4990074478016	1022	Plymouth, MI, United States of America
0.7637079914325479	33.0140216	-117.122462630676	1023	Del Norte, CA, United States of America
0.7634617940388351	34.1998926	-77.8930413	1024	Hoggard, NC, United States of America
0.7632159162057338	26.0462487	-80.2735121545465	1025	Cooper City, FL, United States of America
0.7629703572072993	33.7766049	-118.3608712	1026	Chadwick School, CA, United States of America
0.7627251163199412	36.8176306	-119.769933700359	1027	Hoover, CA, United States of America
0.7624801928224139	35.1004314	-77.115444	1028	New Bern, NC, United States of America
0.7622355859958064	33.8365245	-117.545669765834	1029	Santiago, CA, United States of America
0.761991295123533	33.5632975	-117.719640959703	1030	Aliso Niguel, CA, United States of America
0.7615036583872112	41.1745396	-73.7576326	1032	Horace Greeley, NY, United States of America
0.7612603111015285	43.1550882	-70.6294967	1033	York, ME, United States of America
0.7610172769268918	37.2954121	-80.0792075	1034	Salem, VA, United States of America
0.7607745551581948	30.0792562	-81.4479872685438	1035	Nease, FL, United States of America
0.7605321450925983	38.28316345	-85.6247002689348	1036	Ballard, KY, United States of America
0.7602900460295205	28.58142005	-81.3915638173261	1037	Edgewater, FL, United States of America
0.7600482572706287	34.0355497	-84.7352029444353	1038	Allatoona, GA, United States of America
0.759806778119828	33.654452	-117.651716780682	1039	Mission Viejo, CA, United States of America
0.7595656078832538	42.5878816	-83.1799472965292	1040	Troy, MI, United States of America
0.7593247458692617	33.4682153	-84.6661807	1041	Northgate, GA, United States of America
0.7590841913884175	41.76008015	-72.7362497560195	1042	Kingswood Oxford, CT, United States of America
0.7588439437534905	38.98734195	-77.3742492762203	1043	Herndon, VA, United States of America
0.7586040022794412	41.85420385	-87.999739915291	1044	Montini Catholic, IL, United States of America
0.7583643662834149	41.6435944	-70.905382	1045	Fairhaven, MA, United States of America
0.7581250350847304	28.3787317	-80.7003318295199	1046	Merritt Island, FL, United States of America
0.7578860080048729	41.5768416	-72.3022522	1047	Bacon Academy, CT, United States of America
0.7576472843674841	42.2081552	-71.0058807	1048	Thayer Academy, MA, United States of America
0.7574088634983532	40.3279957	-74.4355785925809	1049	Monroe Township, NJ, United States of America
0.7571707447254087	40.9814819	-73.7374425336433	1050	Harrison, NY, United States of America
0.7569329273787089	40.9287097	-74.0593072	1051	Paramus HS, NJ, United States of America
0.7564581942948747	44.45249345	-73.2007195331105	1053	Rice Memorial, VT, United States of America
0.7562212772284287	45.0891207	-93.343797	1054	Osseo-Park Center, MN, United States of America
0.7559846589295867	43.1478404	-77.537776	1055	Our Lady of Mercy, NY, United States of America
0.755748338738927	33.03133205	-97.0821847634553	1056	Flower Mound, TX, United States of America
0.7555123159991057	42.5223171	-71.0542193	1057	Montrose School, MA, United States of America
0.7552765900548488	41.492082	-71.2736004116648	1058	St. George's School, RI, United States of America
0.7550411602529429	41.4180556	-74.321111	1059	Goshen, NY, United States of America
0.7548060259422281	42.64954965	-83.7470925379929	1060	Hartland, MI, United States of America
0.7543366411999435	40.57369705	-111.888123053518	1062	Jordan, UT, United States of America
0.7541023894762413	41.964821	-71.447559	1063	Cumberland, RI, United States of America
0.7538684306594492	44.0145017	-76.0199266	1064	General Brown, NY, United States of America
0.7536347641085456	41.3764363	-72.1039277	1065	Williams School, CT, United States of America
0.7534013891845116	39.5478902	-76.0960615	1066	Havre De Grace, MD, United States of America
0.7531683052503242	41.81131265	-87.8802093682677	1067	Lyons Township, IL, United States of America
0.7529355116709465	42.503405	-70.94947499999999	1068	Peabody Veterans Mem., MA, United States of America
0.7527030078133204	40.19777	-83.0987625	1069	Olentangy Liberty, OH, United States of America
0.752470793046359	42.564178	-70.8790279	1070	Beverly, MA, United States of America
0.7522388667409381	40.208798	-74.9322679	1071	George School, PA, United States of America
0.7520072282698882	29.7489974	-95.5104378600697	1072	Kinkaid School, TX, United States of America
0.7515448123319507	39.9077639	-75.2677486	1074	Academy Park, PA, United States of America
0.7513140336204278	38.9864508	-77.089104	1075	Bethesda-Chevy Chase, MD, United States of America
0.7510835402539902	42.0552417	-70.7969092541548	1076	Pembroke, MA, United States of America
0.7508533316151247	41.3732322	-72.8633704	1077	North Haven, CT, United States of America
0.7506234070882277	26.65013385	-80.2660799656345	1078	Wellington, FL, United States of America
0.7503937660595944	26.18392195	-80.1096194077261	1079	Cardinal Gibbons, FL, United States of America
0.7501644079174139	39.58766005	-105.131386772782	1080	Chatfield, CO, United States of America
0.7501644079174139	35.9685936	-78.9446674	1080	Durham Academy, NC, United States of America
0.7494780247197128	43.7978568	-70.2569943	1083	Greely, ME, United States of America
0.7492497920428252	37.5507309	-122.3298833	1084	Alameda Club, CA, United States of America
0.7490218392214631	33.89850095	-117.789789996843	1085	Yorba Linda, CA, United States of America
0.7487941656550148	41.3307535	-74.5393228201632	1086	Minisink Valley, NY, United States of America
0.7485667707447088	44.00693375	-73.1639788874456	1087	Middlebury Union, VT, United States of America
0.7483396538936066	27.285958	-82.56004	1088	Out-of-Door Acad, FL, United States of America
0.7481128145065957	33.8451035	-84.2849229	1089	Lakeside, GA, United States of America
0.7478862519903828	38.3495624	-75.5732569	1090	Parkside, MD, United States of America
0.7476599657534851	44.8279271	-93.27688150000002	1091	Bloomington Kennedy, MN, United States of America
0.7474339552062249	37.496594	-77.6602736846728	1092	Midlothian, VA, United States of America
0.7472082197607209	42.1664578	-71.1483234893135	1093	Canton, MA, United States of America
0.7469827588308824	40.9606477	-74.305666	1094	Pequannock Township, NJ, United States of America
0.7465326581827452	28.52816935	-81.146428740795	1096	Timber Creek, FL, United States of America
0.7463080173011508	34.9943175	-80.8192263	1097	Marvin Ridge, NC, United States of America
0.7460836486086168	45.3194764	-122.563604712602	1098	Oregon City, OR, United States of America
0.7458595515278964	37.90488835	-122.097365786881	1099	Acalanes, CA, United States of America
0.7456357254834909	42.1473471	-72.7537507	1100	Westfield HS, MA, United States of America
0.7454121699016433	29.75642265	-81.3328402462345	1101	Pedro Menendez, FL, United States of America
0.74518888421033	40.1071378	-83.1311268	1102	Dublin Coffman, OH, United States of America
0.7449658678392559	34.4383839	-119.8795203	1103	Dos Pueblos, CA, United States of America
0.7447431202198456	36.3156103	-87.71752	1104	Houston, TN, United States of America
0.7445206407852382	34.44165065	-118.564123660014	1105	Valencia-Santa Clarita, CA, United States of America
0.7440764842115186	35.0466404	-80.91808650000002	1107	Nation Ford, SC, United States of America
0.7438548059471937	42.9422798	-78.8575353	1108	Nichols School, NY, United States of America
0.7434122466632478	40.6617543	-74.312622	1110	Cranford, NJ, United States of America
0.7431913645285184	33.6403254	-117.8097451	1111	Hilltop, CA, United States of America
0.7429707466579967	41.42314475	-74.0125051650747	1112	Storm King School, NY, United States of America
0.7427503924982938	39.1311122	-77.5571144	1113	Tuscarora, VA, United States of America
0.7425303014976768	35.0013626	-80.72542630000001	1114	Weddington, NC, United States of America
0.7420909067750009	34.0098229	-84.1443597	1116	Duluth, GA, United States of America
0.7418716019576906	39.7177037	-75.6887331	1117	St. Mark's, DE, United States of America
0.741652558108951	41.3172398	-72.9738311644653	1118	Hopkins School, CT, United States of America
0.7414337746852263	36.732844	-119.7170466	1119	Sunnyside, CA, United States of America
0.7412152511445768	44.8857294	-92.9333781674034	1120	East Ridge, MN, United States of America
0.740996986946674	42.41865575	-71.161906560951	1121	Arlington HS, MA, United States of America
0.7407789815527933	42.6977761	-71.4084483972303	1122	Tyngsborough, MA, United States of America
0.7405612344258077	40.5473208	-75.4293481	1123	Saucon Valley, PA, United States of America
0.7403437450301821	29.66921375	-82.3412137411611	1124	Gainesville, FL, United States of America
0.7401265128319673	42.1112449	-87.8321866	1125	Glenbrook North, IL, United States of America
0.7399095372987935	44.0798802	-93.219804	1126	Owatonna, MN, United States of America
0.7396928178998642	42.26099845	-83.7536588134033	1127	Ann Arbor Pioneer, MI, United States of America
0.7394763541059508	33.8719	-83.9236999	1128	Grayson, GA, United States of America
0.7392601453893853	39.2812071	-84.2761155105828	1129	Loveland, OH, United States of America
0.7390441912240566	41.3651178	-71.8582280585694	1130	Stonington, CT, United States of America
0.7388284910854013	43.9140347	-69.8199467	1131	Morse, ME, United States of America
0.7383978507975744	44.9621426	-74.5188632	1133	Salmon River, NY, United States of America
0.7381829096069719	43.987282	-72.446617	1134	Chelsea, VT, United States of America
0.7379682203601697	42.46059	-83.6516063	1135	South Lyon United, MI, United States of America
0.7377537825402648	35.95685825	-86.7654797381004	1136	Ravenwood, TN, United States of America
0.7375395956318677	32.752273	-117.1041978	1137	Rosary, CA, United States of America
0.737325659121098	29.6875852	-82.3629636650933	1138	Episcopal School, FL, United States of America
0.7371119724955781	39.12927185	-84.4595157330493	1139	Summit CDS, OH, United States of America
0.7368985352444274	41.7920214	-70.9829723	1140	Apponequet, MA, United States of America
0.7366853468582567	28.513896	-81.425117	1141	First Academy, FL, United States of America
0.7364724068291626	40.60411595	-111.960908031409	1142	West Jordan, UT, United States of America
0.7362597146507219	41.82877585	-71.39734356005	1143	Wheeler School, RI, United States of America
0.7360472698179861	34.0751245	-84.2561252	1144	Alpharetta, GA, United States of America
0.7358350718274755	36.7431264	-76.0625792	1145	Kellam Club, VA, United States of America
0.7356231201771737	41.6292623	-73.310673	1146	Gunnery, CT, United States of America
0.7354114143665221	45.0093859	-93.2526670964266	1147	Thomas Edison, VA, United States of America
0.7351999538964152	40.0096702	-86.0860624418424	1148	Guerin Catholic, IN, United States of America
0.7349887382691938	33.7806741	-84.371215	1149	Grady, GA, United States of America
0.7347777669886404	41.34017875	-72.1297625428851	1150	Waterford, CT, United States of America
0.7343565554898408	42.5386495	-71.0326514459237	1152	Lynnfield, MA, United States of America
0.7341463142863186	40.71384645	-73.7866266290684	1153	Mary Louis Academy, NY, United States of America
0.7339363154589003	34.142498	-118.2485959	1154	Glendale, CA, United States of America
0.733726558518495	39.1109809	-77.5796447	1155	Loudoun County, VA, United States of America
0.7335170429774207	45.1819674	-93.3262077	1156	Coon Rapids, MN, United States of America
0.7333077683493996	40.68678035	-74.3874717167144	1157	Governor Livingston, NJ, United States of America
