weight	latitude	longitude	rank	hs_name
7.51945378026559	40.7076001	-73.4440122	1	Farmingdale, NY, United States of America
5.9819998201101185	39.39829565	-76.7724035842073	2	McDonogh School, MD, United States of America
5.232825833326387	43.0397885	-76.2657614	3	West Genesee, NY, United States of America
4.75889910271296	39.4148265	-76.5786483	4	Notre Dame Prep, MD, United States of America
4.421057799529659	38.8178183	-77.1011477	5	Sts. Stephen's & Agnes, VA, United States of America
4.162903863546375	42.6982304	-73.9654422842923	6	Guilderland, NY, United States of America
3.9564341424901213	43.158679	-76.3327099	7	Baldwinsville, NY, United States of America
3.785877858716706	39.98793695	-74.9438015956539	8	Moorestown, NJ, United States of America
3.6415499053657103	42.9084609	-77.27235259999999	9	Canandaigua Academy, NY, United States of America
3.5171127763150825	40.94151859999999	-72.8672934	10	Shoreham-Wading River, NY, United States of America
3.4082128387342285	40.8782306	-73.3421004166701	11	Northport, NY, United States of America
3.3117419018154495	39.14155015	-77.0457855235145	12	Good Counsel, MD, United States of America
3.225410444488128	43.1236224	-77.5663994	13	Brighton, NY, United States of America
3.147487705924498	40.7330556	-73.6530555	14	Garden City, NY, United States of America
3.0766364339818812	39.4250375	-76.991008	15	Century, MD, United States of America
3.0118039596490895	42.9513738	-77.5866728	16	Honeoye Falls-Lima, NY, United States of America
2.9521481629564637	39.07779085	-76.5605181555464	17	Severna Park, MD, United States of America
2.8969858071326935	39.5414903	-76.9924814	18	Westminster, MD, United States of America
2.845755644188063	43.9864256	-75.6459341	19	Carthage, NY, United States of America
2.7979915310392007	39.5220529	-76.4131134	20	Fallston, MD, United States of America
2.7533024862805373	41.292594	-73.8029119	21	Yorktown, NY, United States of America
2.711357657614997	40.79288105	-73.7045040358531	22	Manhasset, NY, United States of America
2.6718748271859836	40.6678787	-73.4531796	23	Massapequa, NY, United States of America
2.6346115076740895	40.7777808	-74.5912517090318	24	Mendham, NJ, United States of America
2.5993579637498168	39.5391652	-76.3330235	25	John Carroll School, MD, United States of America
2.5659316836744748	38.8093982	-77.0812583	26	Bishop Ireton, VA, United States of America
2.534172956572371	39.03994495	-76.4534831848471	27	Broadneck, MD, United States of America
2.5039413022330104	40.0399648	-75.360608025	28	Radnor, PA, United States of America
2.4751125650758006	39.4133502	-76.9531704	29	Liberty, MD, United States of America
2.447576530482218	41.8395666	-72.6401410835967	30	Loomis Chaffee School, CT, United States of America
2.4212349556135164	39.36443	-76.62987	31	Bryn Mawr SG, MD, United States of America
2.395999931818377	39.0293096	-77.1979298634907	32	Bullis School, MD, United States of America
2.3717925143457963	39.2992019	-76.8396083059577	33	Mt. Hebron, MD, United States of America
2.348541569081928	38.9751788	-76.4886206155201	34	St. Mary's, MD, United States of America
2.3261827966663255	41.0850166	-73.4906280751206	35	Darien, CT, United States of America
2.3046579024942484	38.8720282	-76.8957652	36	St. Paul's SG, MD, United States of America
2.2839138874102334	40.97768845	-74.10647155	37	Ridgewood, NJ, United States of America
2.263902438803085	39.8559543	-74.7761224	38	Shawnee, NJ, United States of America
2.244579405660245	40.8745436	-74.2690363	39	West Essex, NJ, United States of America
2.225904344178967	38.3418227	-75.1906972	40	Stephen Decatur, MD, United States of America
2.207840122948313	40.89520265	-74.4273233602014	41	Mountain Lakes, NJ, United States of America
2.1903525786492937	40.7306507	-73.220733	42	West Islip, NY, United States of America
2.1734102147762004	42.21701835	-71.2161230047884	43	Westwood, MA, United States of America
2.156983937141008	39.9306677	-75.32018780000001	44	Springfield (DelCo), PA, United States of America
2.141046820946736	39.26689425	-84.3520989953498	45	Sycamore, OH, United States of America
2.1255739050528186	27.62859005	-80.4035754155209	46	Vero Beach, FL, United States of America
2.1105420097431895	39.8834425	-75.7196607	47	Unionville, PA, United States of America
2.09592957487529	40.00544155	-75.4228891134414	48	Episcopal Academy, PA, United States of America
2.081716515758496	42.0554269	-72.5607093	49	Longmeadow, MA, United States of America
2.0678840945018746	42.260537	-71.1847489	50	Noble & Greenough, MA, United States of America
2.054414804898234	38.6148411	-76.8869155	51	Thomas Stone, MD, United States of America
2.04129226918573	42.08292405	-87.7600667611925	52	Loyola Academy, IL, United States of America
2.028501145259191	43.1369037	-77.4701760374478	53	Penfield, NY, United States of America
2.01602704309839	38.96819065	-104.84612191246	54	Air Academy, CO, United States of America
2.003856449345829	40.01684785	-83.0546924783809	55	Upper Arlington, OH, United States of America
1.9919766591071613	33.07225645	-117.230366116231	56	La Costa Canyon, CA, United States of America
1.9803757141673255	42.09447385	-87.7198764776642	57	New Trier, IL, United States of America
1.9690423469180196	42.68439675	-84.456141	58	Okemos, MI, United States of America
1.957965929380183	39.4281283	-76.6875369031863	59	Maryvale Prep, MD, United States of America
1.947136426780887	38.9217797	-76.5599615	60	South River, MD, United States of America
1.9365443552093458	40.9525987	-72.9253804	61	Rocky Point, NY, United States of America
1.9261807429332733	40.81222	-73.3894399	62	St. Anthony's, NY, United States of America
1.9160370950058134	40.6673246	-73.6209621	63	South Side, NY, United States of America
1.9061053608358167	40.7350984	-73.0940003	64	Sayville, NY, United States of America
1.8963779044313773	39.57143665	-76.9768013304972	65	Winters Mill, MD, United States of America
1.8868474770588919	38.9364776	-77.1554318515203	66	Potomac School, VA, United States of America
1.8775071920882587	43.0300663	-76.2021481	67	Westhill, NY, United States of America
1.8683505018196964	38.909506	-77.069377	68	Georgetown Visitation, DC, United States of America
1.8593711761094778	39.59912935	-76.6596023713956	69	Hereford, MD, United States of America
1.8505632826311114	39.4189054	-76.7753229756711	70	Garrison Forest, MD, United States of America
1.8419211686254582	40.6936985	-74.5471314	71	Ridge, NJ, United States of America
1.8334394440082604	39.35754439999999	-76.6338468	72	Roland Park Country, MD, United States of America
1.8251129657168235	39.1245335	-76.64682719999999	73	Archbishop Spalding, MD, United States of America
1.816936823189364	40.6894488	-73.5132704684335	74	Wantagh, NY, United States of America
1.808906324880992	39.3229746	-76.9345443568182	75	Marriotts Ridge, MD, United States of America
1.8010169857295912	38.9731554	-76.5674712347829	76	Annapolis, MD, United States of America
1.793264515493172	40.82248745	-73.2023491812515	77	Hauppauge, NY, United States of America
1.7856448078876563	39.1462195	-76.6852462	78	Severn School, MD, United States of America
1.7781539304606802	40.7260317	-73.534962913278	79	Levittown Division, NY, United States of America
1.7707881151429337	39.6103807	-76.8610887	80	North Carroll, MD, United States of America
1.7635437494238613	39.8945915	-75.3719465493986	81	Strath Haven, PA, United States of America
1.7564173681033282	40.7208073	-74.370989196874	82	Summit, NJ, United States of America
1.749405645575139	40.3692196	-74.0015620226967	83	Rumson-Fair Haven, NJ, United States of America
1.7425053886021782	40.7316667	-73.2544443	84	Bay Shore, NY, United States of America
1.729027120020081	42.454775	-76.4970466746796	86	Ithaca, NY, United States of America
1.722443324927508	40.2953597	-74.0226274	87	Shore Regional, NJ, United States of America
1.7159594168689976	40.7025073	-73.3447958	88	West Babylon, NY, United States of America
1.7095727708812882	41.2045404	-73.4328986	89	Wilton, CT, United States of America
1.7032808594906133	40.3288746	-74.8019628981452	90	Hopewell Valley, NJ, United States of America
1.690971590386931	42.08600405	-76.0457894938925	92	Vestal, NY, United States of America
1.6849496246042182	40.26378655	-74.5221782963702	93	Peddie School, NJ, United States of America
1.679013169248136	39.5615926	-76.3301611	94	C. M. Wright, MD, United States of America
1.6731601195969859	40.86669015	-73.4567175492754	95	Cold Spring Harbor, NY, United States of America
1.6616961815665559	39.46068935	-76.612585140643	97	Dulaney, MD, United States of America
1.6560814371210548	40.5925865	-74.6343546	98	Bridgewater-Raritan, NJ, United States of America
1.650542380210023	40.7107507	-74.3672938	99	Oak Knoll School, NJ, United States of America
1.645077241352745	39.8569672	-74.717725	100	Seneca, NJ, United States of America
1.6396843096043783	38.8802258	-77.4064865	101	Chantilly, VA, United States of America
1.6343619300627878	39.2750246	-77.0033637273565	102	Glenelg HS, MD, United States of America
1.6291085015048208	40.741389	-73.6577776	103	Mineola, NY, United States of America
1.6239224741441143	38.990733	-76.3092282020402	104	Kent Island, MD, United States of America
1.6188023475030962	40.99453015	-73.7932680034856	105	Scarsdale, NY, United States of America
1.6137466683923223	40.7317463	-74.4007444	106	Chatham, NJ, United States of America
1.6087540289907953	39.3905794	-76.6002762716028	107	Towson HS, MD, United States of America
1.6038230650213192	40.8384331	-73.6312389	108	North Shore, NY, United States of America
1.5989524540153517	41.038436	-73.626072	109	Greenwich Academy, CT, United States of America
1.5941409136621967	38.2701269	-76.6113486	110	Leonardtown, MD, United States of America
1.5893872002377059	39.01490625	-77.0351496865924	111	Holy Cross, MD, United States of America
1.5846901071079813	41.0878289	-74.0013349	112	Nanuet, NY, United States of America
1.5800484633038712	39.7506493	-75.2074	113	Clearview Regional, NJ, United States of America
1.5754611321623102	41.12858455	-73.489421231771	114	New Canaan, CT, United States of America
1.5709270100308177	39.9373953	-75.5533057	115	West Chester Rustin, PA, United States of America
1.566445025031694	40.331132	-75.6299489	116	Boyertown Area, PA, United States of America
1.562014135882681	43.01362385	-75.9619659916267	117	Fayetteville-Manlius, NY, United States of America
1.5576333307710422	40.1120981	-75.131461	118	Abington HS, PA, United States of America
1.5533016262782189	42.0975869	-76.0482546597201	119	Union-Endicott, NY, United States of America
1.5490180663523836	39.6754963	-76.4010768878517	120	North Harford, MD, United States of America
1.5447817213263788	44.8546856	-93.4707859	121	Eden Prairie, MN, United States of America
1.5405916869786789	43.107274	-77.4932241	122	East Rochester, NY, United States of America
1.5364470836351585	42.9922222	-76.3433332	123	Marcellus, NY, United States of America
1.5323470553095735	39.6303721	-104.879335	124	Cherry Creek, CO, United States of America
1.5282907688807894	47.6262626	-122.5204512	125	Bainbridge Island, WA, United States of America
1.5242774133049135	42.14802660000001	-77.1106719	126	Corning East, NY, United States of America
1.520306198860577	40.72919415	-74.1636541953012	127	Immaculate Heart, NJ, United States of America
1.516376356425726	40.719934	-74.36464699999999	128	Kent Place SG, NJ, United States of America
1.5124871367843755	40.027319	-75.565855	129	Villa Maria Academy, PA, United States of America
1.5086378099618594	40.7058199	-73.8647893	130	Sacred Heart Acad, NY, United States of America
1.5010560072812704	40.02106335	-74.9533997445549	132	Holy Cross, NJ, United States of America
1.4973221620695891	42.9342355	-75.8583355	133	Cazenovia, NY, United States of America
1.493625469818464	42.30258735	-71.2792295320111	134	Wellesley HS, MA, United States of America
1.4899652876935023	41.13353025	-74.1100881791337	135	Suffern, NY, United States of America
1.4863409886393792	39.9190019	-75.1746228	136	Baldwin School, PA, United States of America
1.4827519608798925	40.9401412	-73.0271798	137	Mt. Sinai, NY, United States of America
1.4791976074373816	39.21605815	-76.9267008656082	138	River Hill, MD, United States of America
1.4756773456706151	41.1073506	-73.9312991	139	Nyack, NY, United States of America
1.472190606830314	40.8443902	-72.7493995	140	Eastport-South Manor, NY, United States of America
1.4687368356315196	43.95810705	-75.9113279893039	141	Watertown, NY, United States of America
1.4653154898420475	41.7009328	-72.5934232	142	Glastonbury, CT, United States of America
1.4619260398863223	40.3626029	-74.6898825	143	Princeton Day School, NJ, United States of America
1.4585679684639046	40.0462209	-75.3535211	144	Archbishop Carroll, PA, United States of America
1.4552407701820766	39.5087851	-76.3237152	145	Patterson Mill, MD, United States of America
1.451943951201873	40.0416337	-75.660066940317	146	Downingtown East, PA, United States of America
1.4486770288969713	40.7995447	-74.2059787	147	Glen Ridge, NJ, United States of America
1.4454395315248993	40.15311415	-75.1997546310871	148	Upper Dublin, PA, United States of America
1.442230997910028	40.0841673	-82.8148762461311	149	New Albany, OH, United States of America
1.4390509771378568	41.2789753	-73.8584444	150	Lakeland-Panas, NY, United States of America
1.43589902826011	40.77110715	-74.409128994311	151	Madison, NJ, United States of America
1.4327747200102012	40.01169005	-75.7178930752684	152	Downingtown West, PA, United States of America
1.429677630528631	40.04778665	-75.4537537294326	153	Conestoga, PA, United States of America
1.4266073470979062	40.0094271	-75.2488642	154	Merion Mercy Academy, PA, United States of America
1.4235634658866005	40.208505	-75.096709653418	155	Archbishop Wood, PA, United States of America
1.4205455917021734	41.1917153	-73.6777247905449	156	Fox Lane, NY, United States of America
1.4175533377522007	40.00194605	-76.3514715545761	157	Penn Manor, PA, United States of America
1.4145863254136777	43.0828198	-77.415935872457	158	Fairport, NY, United States of America
1.41164418401007	39.0376119	-76.053277	159	Queen Anne's County, MD, United States of America
1.4087265505958095	39.4057672	-76.5621990790781	160	Loch Raven, MD, United States of America
1.4058330697479389	40.3481711	-74.0656232	161	Red Bank Catholic, NJ, United States of America
1.4029633933646244	39.140745	-77.7005860443286	162	Loudoun Valley, VA, United States of America
1.400117180470272	38.8168084	-77.3047724155691	163	Robinson Secondary, VA, United States of America
1.3972940970269903	42.2649238	-72.6742172426393	164	Williston Northampton, MA, United States of America
1.3944938157521563	39.0721718	-76.6830553	165	Arundel, MD, United States of America
1.3917160159418493	42.31885485	-71.403216109992	166	Framingham, MA, United States of America
1.3889603832999342	40.7586111	-73.5263888	167	Hicksville, NY, United States of America
1.3862266097725748	40.0570949	-75.567083	168	Great Valley, PA, United States of America
1.3835143933879803	43.1745123	-76.1038116	169	Cicero-North Syracuse, NY, United States of America
1.3808234381011841	37.5796741	-77.586755	170	Collegiate School, VA, United States of America
1.37815345364367	42.5070435	-71.3203159501964	171	Concord-Carlisle, MA, United States of America
1.375504155377669	42.6103375	-73.8566187238381	172	Bethlehem, NY, United States of America
1.3728752641549526	40.2955189	-75.353050273046	173	Souderton Area, PA, United States of America
1.3702665061799608	41.04018275	-73.6133129328867	174	Greenwich HS, CT, United States of America
1.3676776128771055	43.6460715	-70.2696659	175	Waynflete, ME, United States of America
1.3651083207621033	39.8745176	-74.8974412277105	176	Cherokee, NJ, United States of America
1.3625583713171845	40.8603759	-73.2890049	177	Commack, NY, United States of America
1.3600275108700532	42.7360516	-73.7473709231484	178	Shaker, NY, United States of America
1.3575154904764533	42.2081552	-71.0058807	179	Thayer Academy, MA, United States of America
1.3550220658062184	39.0439925	-77.172990652889	180	Churchill, MD, United States of America
1.3525469970326869	42.6647282	-77.0613847	181	Penn Yan Academy, NY, United States of America
1.3500900487253586	39.44309765	-77.04142025	182	South Carroll, MD, United States of America
1.3476509897456845	38.7572962	-75.1494885	183	Cape Henlopen, DE, United States of America
1.3452295931458815	38.9306667	-77.0705331	184	National Cathedral, DC, United States of America
1.3428256360706659	40.8559314	-73.2006686	185	Smithtown East, NY, United States of America
1.3404388996618097	40.3874658	-75.2747359	186	Pennridge, PA, United States of America
1.3380691689654227	39.7421068	-75.0766802	187	Washington Township, NJ, United States of America
1.3357162328418646	39.9796447	-75.5653868	188	West Chester East, PA, United States of America
1.3333798838782052	41.13250295	-73.7854452746053	189	Pleasantville, NY, United States of America
1.331059918303145	40.1717754	-75.2273981	190	Wissahickon, PA, United States of America
1.328756135904313	40.9731712	-73.6865301	191	Rye HS, NY, United States of America
1.326468339947862	42.3990754	-71.4001700040642	192	Lincoln-Sudbury, MA, United States of America
1.3241963371002945	38.9917767	-77.1480345	193	Holton-Arms School, MD, United States of America
1.3219399373524328	42.7481398	-70.8980369	194	Governor's Academy, MA, United States of America
1.319698953945478	39.3672791	-76.5895879	195	Mercy, MD, United States of America
1.3174732032990761	41.4098714	-73.2715494078504	196	Newtown, CT, United States of America
1.315262504941341	40.1372446	-75.21528769999999	197	Germantown Academy, PA, United States of America
1.3130666814407557	43.05792515	-77.6063444861447	198	Rush-Henrietta, NY, United States of America
1.3108855583399113	40.4964701	-74.6557896	199	Hillsborough, NJ, United States of America
1.3087189640910044	39.8496978	-74.9670539897655	200	Eastern, NJ, United States of America
1.3065667299930546	33.6796569	-112.007860010165	201	Pinnacle, AZ, United States of America
1.3044286901307787	37.2777997	-79.9384281	202	St. Andrew's, DE, United States of America
1.3023046813150727	40.04226555	-75.3165399284129	203	Harriton, PA, United States of America
1.3001945430250526	40.2313336	-74.9448065	204	Council Rock North, PA, United States of America
1.298098117351603	43.02066805	-76.0460217822718	205	Jamesville-DeWitt, NY, United States of America
1.2939457849482896	40.2621002	-75.1630703100395	207	Central Bucks South, PA, United States of America
1.2918895749711967	39.1528837	-76.9123196327725	208	Reservoir, MD, United States of America
1.2898464710131614	41.9453707	-73.4390102	209	Hotchkiss School, CT, United States of America
1.287816327426821	39.3262047	-77.3407907	210	Urbana, MD, United States of America
1.2857990008670863	40.6998227	-73.4748467	211	Plainedge, NY, United States of America
1.2837943502440428	40.6369444	-73.6299999	212	Oceanside, NY, United States of America
1.2818022366770354	41.2743037	-73.6095203	213	John Jay-Cross River, NY, United States of America
1.2798225234498959	41.0612032	-74.0091422261254	214	Pearl River, NY, United States of America
1.2778550759672818	39.8894	-75.3336999	215	Ridley, PA, United States of America
1.2758997617120966	40.916255	-73.0744567809568	216	Ward Melville, NY, United States of America
1.273956450203956	47.7322685	-122.327603170859	217	Lakeside School, WA, United States of America
1.2720250129586712	41.492082	-71.2736004116648	218	St. George's School, RI, United States of America
1.27010532344872	41.1450544	-81.8506909	219	Medina, OH, United States of America
1.2681972570646776	40.1024408	-76.2998167483992	220	Manheim Township, PA, United States of America
1.2663006910775774	40.6743513	-73.5643147	221	Calhoun, NY, United States of America
1.2644155046021794	42.5457596	-72.6060204	222	Deerfield Academy, MA, United States of America
1.2625415785611152	38.9995542	-77.1874797	223	Holy Child, MD, United States of America
1.2606787956498888	39.9559945	-74.1946860979362	224	Toms River South, NJ, United States of America
1.2588270403027086	39.6493139	-105.0561646	225	Kent Denver, CO, United States of America
1.2569861986591244	40.0873662	-74.6852532763563	226	Northern Burlington, NJ, United States of America
1.2551561585314495	38.8947006	-77.1609431407895	227	Bishop O'Connell, VA, United States of America
1.2533368093729476	42.1718935	-71.0673706073117	228	Tower Hill School, DE, United States of America
1.2515280422467578	39.9828955	-74.1954193	229	Toms River North, NJ, United States of America
1.2497297497955444	40.7806544	-72.8495473	230	William Floyd, NY, United States of America
1.2479418262118442	40.7206583	-74.5654945832302	231	Bernards, NJ, United States of America
1.2461641672090995	39.9232086	-75.4314683	232	Penncrest, PA, United States of America
1.2443966699933522	42.12968015	-71.043622816625	233	Avon, CT, United States of America
1.2426392332355858	40.54900865	-111.860916705025	234	Alta, UT, United States of America
1.239154142941057	40.3382193	-74.6846029	236	Hun School, NJ, United States of America
1.2374262938307268	40.8423218	-74.2962596	237	Caldwell, NJ, United States of America
1.2357081139801709	40.697377	-73.3650873	238	Lindenhurst, NY, United States of America
1.2339995089915972	38.87004485	-77.3197705621424	239	Flint Hill School, VA, United States of America
1.2323003857788186	38.3495624	-75.5732569	240	Parkside, MD, United States of America
1.2306106525436555	40.2131617	-74.9760675	241	Council Rock South, PA, United States of America
1.228930218752858	39.9678804	-75.5991665	242	West Chester Henderson, PA, United States of America
1.227258995115535	39.2688522	-76.6662459	243	Seton Keough, MD, United States of America
1.2255968935610764	41.0859301	-73.4326195	244	Brien McMahon, CT, United States of America
1.2239438272175585	33.65422815	-117.8901391	245	Monte Vista, CA, United States of America
1.2222997103906137	39.9214361	-74.8554318	246	Lenape, NJ, United States of America
1.2206644585427615	41.5026696	-81.5630091897385	247	Cleveland Heights, OH, United States of America
1.2190379882731817	40.99684405	-74.3765669112669	248	Kinnelon, NJ, United States of America
1.2174202172979212	39.3934504	-76.6747359074678	249	Park School, MD, United States of America
1.2158110644305242	42.4998317	-71.3684304807641	250	Middlesex School, MA, United States of America
1.212618293647634	39.741585	-104.9559827	252	Denver East, CO, United States of America
1.2110345186780878	40.5170362	-74.8518362	253	Hunterdon Central, NJ, United States of America
1.2094590476723497	40.7356567	-74.2657026	254	Columbia, NJ, United States of America
1.2078918046549563	40.1281743	-74.0490478	255	Manasquan, NJ, United States of America
1.2063327146400171	42.0475245	-70.6793292488759	256	Duxbury, MA, United States of America
1.2047817036145214	42.11058775	-72.4445531639882	257	Minnechaug, MA, United States of America
1.2032386985219867	40.9058094	-74.4901858	258	Morris Catholic, NJ, United States of America
1.2017036272464494	40.2939665	-74.7290554	259	Lawrenceville School, NJ, United States of America
1.200176418596779	40.2197857	-74.2824682	260	Freehold Township, NJ, United States of America
1.1986570022913163	41.7946687	-72.7508648321022	261	Hall, CT, United States of America
1.1971453089428243	40.82316305	-74.2131656036377	262	Montclair HS, NJ, United States of America
1.1956412700437424	40.8853769	-74.5084895	263	Morris Knolls, NJ, United States of America
1.1941448179517395	41.29351425	-72.619382907253	264	Daniel Hand, CT, United States of America
1.1926558858755603	40.8098887	-74.7285183	265	West Morris Central, NJ, United States of America
1.1911744078611533	41.9848186	-72.6506461	266	Suffield Academy, CT, United States of America
1.1897003187780752	40.2766445	-76.6411504076183	267	Hershey, PA, United States of America
1.188233554306169	40.032911	-75.1725330255426	268	Germantown Friends, PA, United States of America
1.186774050922504	40.1759388	-75.3976812	269	Methacton, PA, United States of America
1.1853217458885745	40.374194	-74.5634606	270	South Brunswick, NJ, United States of America
1.183876577237752	41.48156625	-81.5416774277777	271	Hathaway Brown, OH, United States of America
1.182438483762981	39.6042071	-105.075487596242	272	Columbine, CO, United States of America
1.181007405004717	40.3578709	-74.6554332	273	Princeton HS, NJ, United States of America
1.1795832812391003	40.7263338	-73.3246519782362	274	North Babylon, NY, United States of America
1.178166053466356	38.8255028	-77.0943289	275	Episcopal, VA, United States of America
1.1753520534527975	39.25355915	-76.8702477135574	277	Centennial, MD, United States of America
1.17256494702081	42.1621643	-76.8240741	279	Horseheads, NY, United States of America
1.171181338774808	40.9967714	-74.1920109743855	280	Ramapo, NJ, United States of America
1.168433737779625	43.1481445	-76.2158114319789	282	Liverpool, NY, United States of America
1.1670696371939957	40.7306507	-73.220733	283	Islip, NY, United States of America
1.1657119323805587	33.57609025	-111.932588487677	284	Chaparral, AZ, United States of America
1.164360570989417	40.6200347	-74.5677171	285	Pingry School, NJ, United States of America
1.163015501280918	42.15464885	-70.8401319665693	286	Norwell, MA, United States of America
1.1616766721164367	39.9848445	-75.2630416440402	287	Friends' Central School, PA, United States of America
1.1603440329493298	40.8043899	-74.4480122	288	Morristown-Beard, NJ, United States of America
1.159017533816053	40.9411788	-73.7435731	289	Mamaroneck, NY, United States of America
1.1576971253274488	39.1453143	-84.364127405997	290	Mariemont, OH, United States of America
1.156382758660186	33.8131392	-118.068997010321	291	Los Alamitos, CA, United States of America
1.1550743855483612	40.86177815	-74.640792943145	292	Roxbury, NJ, United States of America
1.1537719582752521	40.8564874	-73.4242871	293	Huntington, NY, United States of America
1.1524754296652193	40.09126335	-76.4140231496244	294	Hempfield, PA, United States of America
1.1511847530757549	42.0984089	-75.9193626	295	Binghamton, NY, United States of America
1.1498998823896753	40.2536054	-75.6394776	296	Pottstown, PA, United States of America
1.1486207720074542	40.9577665	-74.2439424216193	297	DePaul Catholic, NJ, United States of America
1.1473473768396913	39.2918276	-76.4195268843231	298	Chesapeake, MD, United States of America
1.1460796522997176	39.7177037	-75.6887331	299	St. Mark's, DE, United States of America
1.1448175542963306	40.1004231	-75.2070644	300	Springfield (MontCo), PA, United States of America
1.1435610392266586	38.9459444	-76.9138626	301	Elizabeth Seton, MD, United States of America
1.1423100639691526	42.6471435	-71.1322910355567	302	Phillips Andover Acad, MA, United States of America
1.1410645858766986	39.279871	-74.5676966469687	303	Ocean City, NJ, United States of America
1.1398245627698538	39.938818	-75.0522364	304	Camden Catholic, NJ, United States of America
1.1385899529301995	32.6917186	-117.1817001	305	Coronado, CA, United States of America
1.1373607150938105	40.8650992	-73.5951263	306	Friends Academy, NY, United States of America
1.1361368084448376	40.00314475	-74.7824482001629	307	Rancocas Valley, NJ, United States of America
1.134918192609201	39.586908	-105.00365	308	Heritage-Littleton, CO, United States of America
1.1337048276483936	41.6039856	-73.1239992	309	Taft School, CT, United States of America
1.1324966740533913	39.3023292	-76.6013556	310	St. James School, MD, United States of America
1.1312936927386648	42.420573	-71.1279179	311	Brooks School, MA, United States of America
1.1300958450362972	39.8670558	-75.5032557	312	Garnet Valley, PA, United States of America
1.1289030926902017	41.3652189	-73.7569963204998	313	Mahopac, NY, United States of America
1.1277153978504344	41.92600185	-73.9969744875625	314	Kingston, NY, United States of America
1.1253550312873881	40.028738	-75.350141	316	Agnes Irwin, PA, United States of America
1.124182285845111	40.6967728	-74.8835206652834	317	Voorhees, NJ, United States of America
1.1230144504604522	41.4900972	-72.9064913	318	Cheshire HS, CT, United States of America
1.1218514892322136	41.42655975	-81.3791952538465	319	Chagrin Falls, OH, United States of America
1.1206933666331858	41.24575245	-74.4892742947106	320	Vernon Township, NJ, United States of America
1.1183914970536586	42.9514554	-76.420768	322	Skaneateles, NY, United States of America
1.117247680843654	39.3506949	-84.3062308427546	323	Mason, OH, United States of America
1.116108564794162	41.0384302	-74.1434769	324	Northern Highlands, NJ, United States of America
1.1149741151738184	41.1859581	-73.2353385112984	325	Fairfield Warde, CT, United States of America
1.113844298596171	32.9573985	-117.224896678294	326	Torrey Pines, CA, United States of America
1.1127190820151067	39.9348351	-75.0307263	327	Cherry Hill East, NJ, United States of America
1.111598432720356	41.8420428	-72.5548099	328	South Windsor, CT, United States of America
1.110482318333066	40.2555149	-74.7434722	329	Notre Dame, NJ, United States of America
1.1093707068014498	40.09067845	-83.0291908390627	330	Thomas Worthington, OH, United States of America
1.1082635663965015	39.3562213	-76.6272672680563	331	Friends' School, MD, United States of America
1.1071608657077832	40.0247924	-75.3151201	332	Shipley School, PA, United States of America
1.1049686594053139	39.52953035	-76.3468870410099	334	Bel Air, MD, United States of America
1.1038790925265376	39.71276005	-74.258010495425	335	Southern Regional, NJ, United States of America
1.1027938428259758	39.11336105	-77.0176391342249	336	Blake, MD, United States of America
1.1017128804251386	40.0064442	-74.9962900207472	337	Cinnaminson, NJ, United States of America
1.1006361757401932	38.8402362	-77.275978	338	W.T. Woodson, VA, United States of America
1.0995636994781983	40.9562092	-74.1212537	339	Glen Rock, NJ, United States of America
1.0974313164835516	39.94757525	-75.3481673121681	341	Cardinal O'Hara, PA, United States of America
1.0953155027759987	40.9714188	-73.717788	343	Webster Thomas, NY, United States of America
1.09426373915943	40.2454028	-75.6340730637132	344	Hill School, PA, United States of America
1.0932160341131978	41.2560052	-81.4139387452058	345	Hudson, OH, United States of America
1.0911326905650707	39.39169255	-76.4655725464706	347	Perry Hall, MD, United States of America
1.0900969981335435	38.89596485	-77.2790801769934	348	James Madison, VA, United States of America
1.089065256406592	42.28696755	-71.2316980574263	349	Needham, MA, United States of America
1.0880374390585736	40.5781549	-74.6120968	350	Somerville, NJ, United States of America
1.0870135200138413	42.47982085	-71.4583269841174	351	Acton-Boxborough, MA, United States of America
1.0859934734436651	40.4066646	-74.2722247197172	352	Old Bridge, NJ, United States of America
1.0849772737632004	39.54113985	-104.807585295479	353	Chaparral, CO, United States of America
1.0839648956285017	40.9685405	-74.2372872145518	354	Wayne Hills, NJ, United States of America
1.0829563139335823	34.836476	-87.6780838	355	Buckingham, MA, United States of America
1.0819515038075167	42.9301763	-78.6705741506962	356	Lancaster, NY, United States of America
1.0809504406115868	30.3328019	-97.7009416	357	St. John's, TX, United States of America
1.0799530999364713	42.5352731	-71.1098491684049	358	Reading Memorial, MA, United States of America
1.0789594575994759	40.1819269	-74.0236889	359	St. Rose, NJ, United States of America
1.0779694896418048	40.0876107	-75.1593422	360	Cheltenham, PA, United States of America
1.0769831723258734	41.36890625	-72.2127679540828	361	East Lyme, CT, United States of America
1.076000482132658	36.1245025	-86.8399999	362	Ensworth, TN, United States of America
1.0750213957590895	43.8829869	-69.9877619007994	363	Brunswick, ME, United States of America
1.0740458901154786	40.88166555	-73.2438755673074	364	Kings Park, NY, United States of America
1.0730739423229845	41.1318755	-73.9558166381885	365	Clarkstown South, NY, United States of America
1.072105529711118	40.6456522	-74.3501630118898	366	Westfield, NJ, United States of America
1.0711406298152788	41.2636925	-75.8976968	367	Wyoming Seminary, PA, United States of America
1.0701792203743343	39.9620087	-82.9482362	368	Columbus Academy, OH, United States of America
1.069221279328227	38.9386375	-77.0751267	369	Sidwell Friends, DC, United States of America
1.0682667848156195	40.2665153	-74.0309938	370	Ocean Township, NJ, United States of America
1.0663680489252685	42.9104522	-76.5507374	372	Auburn, NY, United States of America
1.0654237647977285	40.176766	-75.6563054	373	Owen J. Roberts, PA, United States of America
1.0644828416996184	40.782876	-73.1384456	374	Connetquot, NY, United States of America
1.063545258729042	39.02506835	-77.1301048813096	375	Walter Johnson, MD, United States of America
1.062610995169383	39.5349	-105.0113299	376	ThunderRidge, CO, United States of America
1.0616800304871767	39.9935265	-75.5471528	377	Charter School, DE, United States of America
1.060752344330009	39.9837231	-75.3010194	378	Haverford, PA, United States of America
1.0598279165244462	39.85490755	-75.1618107078676	379	West Deptford, NJ, United States of America
1.0589067270739936	40.35005915	-74.0405577275094	380	Red Bank Regional, NJ, United States of America
1.0579887561570833	42.2132092	-71.5267901996232	381	Hopkinton, MA, United States of America
1.05707398412509	39.81577685	-75.8151762647722	382	Avon Grove, PA, United States of America
1.0561623915003728	39.912591	-75.0776346	383	Collingswood, NJ, United States of America
1.0552539589743462	42.978817	-70.94957	384	Phillips Exeter Acad, NH, United States of America
1.0543486674055782	39.9792137	-75.3852785	385	Marple Newtown, PA, United States of America
1.0534464978179112	28.6823458	-81.4226193225388	386	Lake Brantley, FL, United States of America
1.0525474313986132	39.5829291	-104.962775007037	387	Arapahoe, CO, United States of America
1.051651449496552	41.4787051	-73.3893213484487	388	Brookfield, CT, United States of America
1.0507585336203942	40.71980355	-74.3143352817316	389	Millburn, NJ, United States of America
1.04986866543683	39.9023046	-75.0267771353652	390	Haddonfield, NJ, United States of America
1.0489818267688218	42.26265965	-71.6162400235663	391	Westborough, MA, United States of America
1.0480979995938764	40.534497	-75.3989016159337	392	Southern Lehigh, PA, United States of America
1.0472171660423406	44.9218659	-93.3891775	393	Blake School, MN, United States of America
1.0463393083957206	40.2377199	-74.6157962	394	Robbinsville, NJ, United States of America
1.045464409085023	42.8692408	-71.3793387200395	395	Londonderry, NH, United States of America
1.0445924506891189	40.8937113	-74.3596403005618	396	Montville Township, NJ, United States of America
1.0437234159331301	40.80123595	-74.4861350017255	397	Morristown, NJ, United States of America
1.0428572876868365	40.8464571	-74.5667697159893	398	Randolph, NJ, United States of America
1.0419940489631043	40.74194	-73.0547199	399	Bayport-Blue Point, NY, United States of America
1.0411336829163373	39.85937375	-74.1938266997711	400	Lacey Township, NJ, United States of America
1.0402761728409455	40.88895955	-73.5918714747227	401	Locust Valley, NY, United States of America
1.0394215021698368	40.2773649	-74.2100164	402	Colts Neck, NJ, United States of America
1.038569654472928	40.7304267	-74.1863283	403	Montgomery, NJ, United States of America
1.0368743629576187	40.0806311	-74.530649	405	New Egypt, NJ, United States of America
1.036030886950963	39.60000985	-104.797958599554	406	Regis Jesuit, CO, United States of America
1.035190169539152	41.8912631	-72.7959463000224	407	Westminster School, CT, United States of America
1.0343521949554835	40.65247245	-74.4752436654308	408	Watchung Hills, NJ, United States of America
1.033516947561728	41.03094825	-74.6676976012418	409	Pope John XXIII, NJ, United States of America
1.032684411846774	40.7423293	-75.2984382	410	Nazareth Area HS, PA, United States of America
1.0310274140363842	27.839398	-82.76071069999999	412	Park Vista, FL, United States of America
1.0302029215423338	40.1900811	-75.52644	413	Spring-Ford, PA, United States of America
1.028561874295876	34.0484502	-84.2085954	415	Chattahoochee, GA, United States of America
1.0277452898722221	43.6021105	-116.2695638	416	Bishop Kelly, ID, United States of America
1.0269313119984314	43.0730556	-73.7994443	417	Saratoga Springs, NY, United States of America
1.026119926133501	40.3279957	-74.4355785925809	418	Monroe Township, NJ, United States of America
1.0253111178520864	42.45600145	-71.1341662183926	419	Winchester, MA, United States of America
1.0245048728433064	40.1970949	-75.163972524242	420	Hatboro-Horsham, PA, United States of America
1.023701176909565	40.71472	-73.7066699	421	Floral Park Memorial, NY, United States of America
1.0221013760362796	42.1397222	-77.0563888	423	Corning West, NY, United States of America
1.0213052432575762	40.43257195	-74.3985653684705	424	East Brunswick, NJ, United States of America
1.0205116038733384	38.9282293	-77.0600432	425	Maret School, DC, United States of America
1.019720444235239	39.7722541	-74.2342821209231	426	Barnegat, NJ, United States of America
1.0189317508014728	40.1070586	-74.3448699	427	Jackson Memorial, NJ, United States of America
1.0181455101356771	40.0911597	-74.2624216	428	Jackson Liberty, NJ, United States of America
1.0173617089058677	40.3822503	-74.1791234	429	Holmdel, NJ, United States of America
1.0165803338833859	40.1042819	-74.1293067	430	Brick Memorial, NJ, United States of America
1.0150248100561798	43.1478404	-77.537776	432	Our Lady of Mercy, NY, United States of America
1.0142506353014829	41.15466715	-73.3276954327841	433	Staples, CT, United States of America
1.0134788348521533	40.7858249	-74.5104276	434	Villa Walsh Academy, NJ, United States of America
1.0127093959808329	40.68678035	-74.3874717167144	435	Governor Livingston, NJ, United States of America
1.011177552548233	40.1071378	-83.1311268	437	Dublin Coffman, OH, United States of America
1.0104151230147982	40.8412107	-74.2473689	438	Verona, NJ, United States of America
1.0096550051131694	39.6513889	-105.0366666	439	Mullen, CO, United States of America
1.008897186592866	42.2251225	-70.8776890401925	440	Hingham, MA, United States of America
1.0081416552959825	41.0906081	-74.1589766828131	441	Mahwah, NJ, United States of America
1.0073883991562793	41.3359272	-73.8740251	442	Putnam Valley, NY, United States of America
1.0066374061982868	40.6541589	-111.890331277904	443	Murray, UT, United States of America
1.005888664536419	43.0604242	-77.5189882	444	Pittsford, NY, United States of America
1.005142162374099	40.6991667	-73.3252777	445	Babylon, NY, United States of America
1.0043978880028939	42.6704885	-71.4262176	446	Notre Dame Acad, MA, United States of America
1.0036558298016598	32.9947515	-117.065010408639	447	Rancho Bernardo, CA, United States of America
1.0029159762356983	43.618883	-72.9538771159524	448	Rutland, VT, United States of America
1.0021783158559212	41.36778095	-72.922737875568	449	Hamden, CT, United States of America
1.001442837298028	39.0759047	-74.8193324	450	Middle Township, NJ, United States of America
1.000709529281689	40.30530905	-75.1377394613682	451	Central Bucks West, PA, United States of America
0.9999783806097414	41.14856015	-73.2637279923243	452	Fairfield Ludlowe, CT, United States of America
0.9992493801673938	39.3986441	-75.0193118	453	Millville, NJ, United States of America
0.9985225169214405	39.8926823	-75.3060413010849	454	Interboro, PA, United States of America
0.9970751582891633	40.1685781	-74.06110989999999	456	Wall Township, NJ, United States of America
0.9963546412374054	39.1162188	-77.2538713	457	Quince Orchard, MD, United States of America
0.9956362180496631	41.022448	-74.2314433	458	Indian Hills, NJ, United States of America
0.9949198780891814	39.9348351	-75.0307263	459	Cherry Hill West, NJ, United States of America
0.9942056107962616	37.74769505	-121.945578573361	460	California HS, CA, United States of America
0.9934934056875384	42.96228	-78.7903109	461	Amherst, NY, United States of America
0.9927832523552621	41.3126651	-73.7140545837215	462	Somers, NY, United States of America
0.992075140466594	38.8220478	-77.2075747	463	Annandale, VA, United States of America
0.9913690597629033	42.64004545	-70.8823535437509	464	Pingree School, MA, United States of America
0.9906650000590785	42.7323134	-73.8208427	465	Christian Brothers, NY, United States of America
0.9899629512428412	40.4525163	-74.4766712	466	North Brunswick, NJ, United States of America
0.9892629032740735	40.8633333	-73.2430555	467	Smithtown West, NY, United States of America
0.9885648461841463	40.3294177	-74.24663	468	Marlboro, NJ, United States of America
0.9878687700752614	41.84815395	-72.8348087218137	469	Ethel Walker School, CT, United States of America
0.9871746651197977	42.2644674	-87.8400694	470	Lake Forest, IL, United States of America
0.9864825215596655	40.6978603	-75.1914849	471	Phillipsburg, NJ, United States of America
0.9857923297056684	39.047498	-77.031526	472	St. Andrew's, DC, United States of America
0.9851040799368712	42.6999184	-71.1163794	473	North Andover, MA, United States of America
0.9844177626999772	41.3814838	-73.4534555	474	Immaculate, CT, United States of America
0.9837333685087108	40.1337269	-74.768781	475	Pennsbury East, PA, United States of America
0.9830508879432075	39.6295559	-104.8009153	476	Smoky Hill, CO, United States of America
0.9823703116494098	38.80294435	-104.857174793489	477	Cheyenne Mountain, CO, United States of America
0.9816916303384714	38.9684958	-104.847213	478	Colorado Academy, CO, United States of America
0.9810148347861675	41.7362325	-72.7509292757843	479	Conard, CT, United States of America
0.9803399158323111	41.1745396	-73.7576326	480	Horace Greeley, NY, United States of America
0.9796668643801756	39.7419532	-75.5547268	481	Wilmington Friends, DE, United States of America
0.9789956713959257	39.6347099	-104.9602586	482	St. Mary's Acad, CO, United States of America
0.9783263279080512	43.0453937	-76.4728887089275	483	Jordan-Elbridge, NY, United States of America
0.9776588250068116	39.4464902	-77.5341542	484	Middletown, MD, United States of America
0.9763293056308076	40.1556504	-76.3146795	486	Warwick, PA, United States of America
0.9756672716404658	41.2961798	-73.3369952714363	487	Joel Barlow, CT, United States of America
0.9750070432045301	42.6999184	-71.1163794	488	Andover, MA, United States of America
0.9743486117139433	42.8192309	-73.8897254296259	489	Niskayuna, NY, United States of America
0.9736919686181942	33.71732895	-117.781596283608	490	Beckman, CA, United States of America
0.9730371054248018	39.74417505	-105.21164608271	491	Golden, CO, United States of America
0.9723840136988042	35.0928686	-89.8553645	492	Hutchison School, TN, United States of America
0.9717326850622522	39.2853875	-76.0921701	493	Kent County, MD, United States of America
0.9710831111937102	39.7351651	-76.4650036	494	Kennard-Dale, PA, United States of America
0.9704352838277611	31.2673967	-85.3810444	495	Northview, GA, United States of America
0.9697891947545167	42.1278526	-76.022423	496	Maine-Endwell, NY, United States of America
0.9691448358191346	40.1155415	-83.0558302	497	Worthington Kilbourne, OH, United States of America
0.9685021989213374	43.4504806	-76.5246399	498	Oswego, NY, United States of America
0.9678612760149409	40.01301425	-74.9433318195386	499	Delran, NJ, United States of America
0.9672220591073839	40.1198	-75.5215999	500	Phoenixville, PA, United States of America
0.9665845402592659	38.98659845	-104.76336228353	501	Pine Creek, CO, United States of America
0.9659487115838863	40.5348199	-75.5051837	502	Emmaus, PA, United States of America
0.9653145652467922	42.0297007	-71.2036696483533	503	Mansfield, MA, United States of America
0.9646820934653281	37.90488835	-122.097365786881	504	Acalanes, CA, United States of America
0.9640512885081922	33.95426395	-118.432865708274	505	St. Bernard, CT, United States of America
0.9634221426949965	38.885289	-77.4645284	506	Westfield, VA, United States of America
0.9627946483958305	38.305889	-85.5822108083886	507	Kentucky Country Day, KY, United States of America
0.9615445840697654	40.3049271	-74.0899398	509	Monmouth Regional, NJ, United States of America
0.9609219990315869	40.0078006	-75.2792733854084	510	Lower Merion, PA, United States of America
0.960301035484042	39.25959465	-76.7292521365685	511	Catonsville, MD, United States of America
0.959681686043245	29.9423267	-95.6527252569066	512	Cy-Fair, TX, United States of America
0.959063943373272	37.66803425	-121.875377099148	513	Amador Valley, CA, United States of America
0.9584478001857569	40.7633333	-73.3341666	514	Deer Park, NY, United States of America
0.9572202833400261	41.5637057	-73.4134543	516	New Milford, CT, United States of America
0.9566088953392851	28.70418265	-81.2654721962129	517	Winter Springs, FL, United States of America
0.9559990781351718	42.442884	-71.2332039805502	518	Lexington HS, MA, United States of America
0.9553908246711877	43.0822349	-76.0276318	519	East Syracuse-Minoa, NY, United States of America
0.9547841279360529	30.63259635	-87.0453117621274	520	Milton, GA, United States of America
0.9541789809633284	41.87159675	-72.821883157628	521	Simsbury, CT, United States of America
0.9535753768310452	42.13498935	-71.2484151099013	522	Walpole, MA, United States of America
0.9529733086613364	41.4420644	-73.6034463154583	523	Brewster, NY, United States of America
0.9523727696200704	42.3282822	-71.6074425509687	524	Algonquin, MA, United States of America
0.9511762518028638	30.6626908	-88.1669465	526	St. Luke's, CT, United States of America
0.9499857695674843	39.960325	-74.1874601	528	Monsignor Donovan, NJ, United States of America
0.949392775162185	39.800199	-75.5210476	529	Brandywine, DE, United States of America
0.9482112468802026	40.2640217	-75.6206345	531	Pottsgrove, PA, United States of America
0.9476226999687093	41.3189871	-72.3273047	532	Old Lyme, CT, United States of America
0.9470356225882564	38.96248	-77.0550499	533	St. John's College, DC, United States of America
0.9464500083228158	28.73563115	-81.3366099738316	534	Lake Mary, FL, United States of America
0.94586585079632	41.2144444	-74.016111	535	North Rockland, NY, United States of America
0.9452831436723389	41.2642229	-73.19269	536	Trumbull, CT, United States of America
0.9447018806537596	40.21924075	-75.4565339561885	537	Perkiomen Valley, PA, United States of America
0.9441220554824695	42.0739637	-72.6450505172579	538	Agawam, MA, United States of America
0.9435436619390449	42.1913486	-71.2152722347482	539	Norwood, MA, United States of America
0.942966693842438	40.09965205	-75.2701401888487	540	Plymouth-Whitemarsh, PA, United States of America
0.9423911450496704	39.3302419	-84.4310758984263	541	Lakota West, OH, United States of America
0.9418170094555296	37.9331187	-122.033466625006	542	Carondelet, CA, United States of America
0.9412442809922672	42.5223171	-71.0542193	543	Montrose School, MA, United States of America
0.9406729536292994	39.8399135	-75.7082784	544	Kennett, PA, United States of America
0.9401030213729132	39.2827324	-77.2094462410655	545	Damascus, MD, United States of America
0.9395344782659737	41.41706305	-73.4701842617439	546	Danbury, CT, United States of America
0.9389673183876327	40.8366091	-73.1014158157605	547	Sachem North, NY, United States of America
0.9384015358530432	42.9422798	-78.8575353	548	Nichols School, NY, United States of America
0.9378371248130754	39.8587232	-75.416583	549	Sun Valley, PA, United States of America
0.9367123939973829	39.2219995	-84.4328259739583	551	Mt. Notre Dame, OH, United States of America
0.9361520626994636	41.28772765	-72.8004366413514	552	Branford, CT, United States of America
0.9355930798512274	40.9934563	-73.8750969	553	Hastings, NY, United States of America
0.9350354397779618	35.7457025	-78.8382514629026	554	Apex, NC, United States of America
0.934479136839023	42.2192249	-71.3231061	555	Dover-Sherborn, MA, United States of America
0.9339241654275707	38.0755077	-78.5005554	556	Albemarle, VA, United States of America
0.9328181949272074	39.9866192	-75.0271104	558	Pennsauken, NJ, United States of America
0.9317174840882891	40.8371414	-81.9463039	560	Wooster, OH, United States of America
0.93116908737652	33.6247392	-111.956991250131	561	Horizon, AZ, United States of America
0.9306219892465174	40.3272222	-74.7938888	562	Pennington School, NJ, United States of America
0.9300761843208409	41.3278708	-73.5303072630782	563	Ridgefield, CT, United States of America
0.9295316672538194	42.62164145	-71.3738803797843	564	Chelmsford, MA, United States of America
0.9289884327313066	40.8027707	-74.3939339	565	Park Regional, NJ, United States of America
0.9279057902194013	41.7876875	-87.9338967063461	567	Hinsdale Central, IL, United States of America
0.9273663717571812	41.6156339	-72.8611198766516	568	Southington, CT, United States of America
0.9268282148933428	40.7526008	-73.6104057	569	Carle Place, NY, United States of America
0.9246881006701855	41.0163671	-74.5519242440094	573	Jefferson Township, NJ, United States of America
0.9241561749956257	40.9378396	-73.8305366	574	Bronxville, NY, United States of America
0.9236254804060043	37.4531768	-122.191665178136	575	Menlo School, CA, United States of America
0.9230960119185112	41.9853741	-72.6634243	576	Suffield HS, CT, United States of America
0.9225677645791095	40.2159266	-76.1155011	577	Cocalico, PA, United States of America
0.9220407334623206	28.4977722	-81.5061208	578	Olympia, FL, United States of America
0.9215149136710099	42.6268105	-70.9756707	579	Masconomet, MA, United States of America
0.9209903003361761	38.9491885	-77.1665079	580	Langley, VA, United States of America
0.9204668886167399	40.7853765	-73.3717866	581	Half Hollow Hills, NY, United States of America
0.9199446736993373	32.90851455	-117.112518961207	582	Scripps Ranch, CA, United States of America
0.9194236507981127	40.0957563	-75.1320941561454	583	Jenkintown, PA, United States of America
0.9189038151545166	41.7992663	-72.7523177	584	Northwest Catholic, CT, United States of America
0.9183851620371011	37.36882005	-121.838274997207	585	Foothill, CA, United States of America
0.9178676867413208	42.20554775	-71.4450314626025	586	Holliston, MA, United States of America
0.9173513845893344	40.2678599	-80.1182008244671	587	Peters Township, PA, United States of America
0.9168362509298076	41.5131082	-81.5003991	588	Hawken School, OH, United States of America
0.9163222811377173	39.0227062	-77.4906800773258	589	Broad Run, VA, United States of America
0.9158094706141602	42.5775266	-71.46351589999999	590	Westford Academy, MA, United States of America
0.9152978147861597	43.7992465	-70.1850494	591	North Yarmouth Acad, ME, United States of America
0.9147873091064767	40.6676022	-73.6051284	592	Baldwin, NY, United States of America
0.9142779490534222	40.0972222	-75.3761952	593	Upper Merion Area, PA, United States of America
0.9137697301306701	41.9598186	-72.7920404	594	Granby Memorial, CT, United States of America
0.9132626478670727	40.9343048	-72.9901065	595	Miller Place, NY, United States of America
0.9127566978164775	43.2035647	-77.4681161	596	Webster Schroeder, NY, United States of America
0.9122518755575468	41.461004	-73.5077322	597	New Fairfield, CT, United States of America
0.9117481766935772	40.0667778	-75.2046222	598	Springside School, PA, United States of America
0.9112455968523202	28.6733304	-81.2183982	599	Oviedo, FL, United States of America
0.9107441316858086	41.500441	-73.1611704843752	600	Pomperaug, CT, United States of America
0.9097445281054967	40.93082355	-74.2305578215728	602	Wayne Valley, NJ, United States of America
0.9092463811155909	42.9879381	-77.4141449	603	Victor, NY, United States of America
0.9087493316478759	39.7614801	-75.2902098	604	Kingsway, NJ, United States of America
0.9077585083856112	39.7706491	-76.7344250311156	606	Susquehannock, PA, United States of America
0.9072647262023227	36.7407825	-119.7826442	607	Cathedral Catholic, CA, United States of America
0.906772024763417	40.8289878	-73.4834562	608	Syosset, NY, United States of America
0.9062803999317486	40.52487065	-111.960689300668	609	Riverton, UT, United States of America
0.9057898475927693	41.5877778	-73.9174999	610	Wappingers, NY, United States of America
0.9053003636543675	42.4509118	-74.5776495	611	South Jefferson, NY, United States of America
0.9048119440467098	32.99885645	-117.025898955243	612	Poway, CA, United States of America
0.904324584722084	42.3667625	-71.3031131	613	Weston, MA, United States of America
0.9028688282978112	47.6773046	-122.313806996056	616	Roosevelt, WA, United States of America
0.9023856700651639	38.9076863	-77.0862504182407	617	Georgetown Day School, DC, United States of America
0.9019035522033791	42.64597699999999	-73.787032	618	Albany Academy SG, NY, United States of America
0.9014224707942374	29.9411193	-90.113531	619	Ursuline Academy, DE, United States of America
0.9009424219405751	40.7548218	-73.4829018	620	Bethpage, NY, United States of America
0.9004634017661378	40.75271605	-73.1837394883089	621	East Islip, NY, United States of America
0.8999854064154346	40.5609008	-80.2031147	622	Quaker Valley, PA, United States of America
0.8995084320535938	40.5803056	-74.3615256017915	623	J.P. Stevens, NJ, United States of America
0.8990324748662195	39.83026075	-75.5254993297501	624	Concord, DE, United States of America
0.89855753105925	38.3559376	-76.4391318888112	625	Patuxent, MD, United States of America
0.8980835968588161	40.62819115	-74.8835248925097	626	North Hunterdon, NJ, United States of America
0.897610668511104	40.905315	-73.0124669	627	Comsewogue, NY, United States of America
0.8971387422822138	38.72733119999999	-121.1969044	628	Gold Country Club, CA, United States of America
0.8961978813440569	41.5325984	-72.6750943	630	Mercy, CT, United States of America
0.8957289392653398	42.3024378	-71.7446637922589	631	Shrewsbury, MA, United States of America
0.8952609845662753	40.2401673	-77.0615260049836	632	Cumberland Valley, PA, United States of America
0.8947940136105066	39.04038565	-82.6431277260064	633	Jackson, OH, United States of America
0.8943280227807867	43.1542731	-71.5477547	634	Bow, NH, United States of America
0.8938630084788474	41.5109271	-74.0137513	635	Mt. St. Mary's Acad, NY, United States of America
0.8933989671252707	41.16806635	-81.3972775364312	636	Stow-Munroe Falls, OH, United States of America
0.89293589515936	39.0491051	-77.5094513630933	637	Stone Bridge, VA, United States of America
0.8924737890390141	42.7359829	-78.6241745	638	East Aurora, NY, United States of America
0.8920126452405993	29.7155077	-95.458552	639	Episcopal, TX, United States of America
0.8915524602588264	37.8260372	-122.005794	640	San Ramon Valley, CA, United States of America
0.8910932306066252	41.8573153	-73.619571	641	Millbrook School, NY, United States of America
0.8906349528150217	41.4637303	-72.5621416	642	Haddam-Killingworth, CT, United States of America
0.8901776234330172	40.7149336	-73.5817628272131	643	Kellenberg, NY, United States of America
0.889721239027467	40.1336993	-82.8974532631756	644	Westerville North, OH, United States of America
0.8892657961829593	40.9320429	-74.1251427	645	Fair Lawn, NJ, United States of America
0.8888112915016981	38.22197055	-85.7576153827687	646	Manual, KY, United States of America
0.8883577216033833	40.9814819	-73.7374425336433	647	Harrison, NY, United States of America
0.8879050831250963	41.06517885	-73.6923029199058	648	Convent-Sacred Heart, CT, United States of America
0.8874533727211813	39.0770529	-77.1833137	649	Wootton, MD, United States of America
0.8870025870631313	40.35022725	-76.7599392379659	650	Central Dauphin, PA, United States of America
0.8865527228394748	42.9718784	-78.6316321027381	651	Clarence, NY, United States of America
0.8861037767556614	41.3513889	-73.9755555	652	O'Neill, NY, United States of America
0.8856557455339505	43.7939687	-70.1947715	653	Yarmouth, ME, United States of America
0.8852086259132991	41.9091188	-72.4624743003138	654	Ellington, CT, United States of America
0.8847624146492515	38.8453267	-77.6301131	655	Battlefield, VA, United States of America
0.8843171085138305	32.8413139	-117.278217989881	656	Bishop's School, CA, United States of America
0.8838727042954282	41.13382635	-73.8127326414474	657	Briarcliff, NY, United States of America
0.8834291987986977	37.36882005	-121.838274997207	658	Foothill, CA, United States of America
0.8829865888444476	39.3412045	-77.4274264	659	St. Johns Catholic Prep, MD, United States of America
0.8825448712695343	43.987282	-72.446617	660	Chelsea, VT, United States of America
0.882104042926758	39.95721475	-75.2844390544217	661	Upper Darby, PA, United States of America
0.8816641006847588	39.5826125	-76.0630046	662	Perryville, MD, United States of America
0.8812250414279105	45.0601286	-92.94379599999999	663	Mahtomedi, MN, United States of America
0.8807868620562217	38.8787187	-77.2820454957048	664	Oakton, VA, United States of America
0.880349559485231	41.4178706	-70.595999	665	Martha's Vineyard, MA, United States of America
0.8799131306459077	39.838579	-75.4397670784495	666	Chichester, PA, United States of America
0.879477572484551	40.8684557	-73.3586549	667	Harborfields, NY, United States of America
0.8790428819626894	40.5245332	-79.8884632352712	668	Shady Side Academy, PA, United States of America
0.8786090560569849	41.70066025	-72.7448484028985	669	Newington, CT, United States of America
0.8781760917591322	40.0303415	-83.0637968	670	Wellington School, OH, United States of America
0.8777439860757636	40.3351571	-80.0706422	671	Upper St. Clair, PA, United States of America
0.8773127360283514	40.2612126	-74.5301501	672	Hightstown, NJ, United States of America
0.8768823386531134	41.31216985	-72.7119570639331	673	Guilford, CT, United States of America
0.8764527910009178	34.4047169	-119.4798433	674	Cate School, CA, United States of America
0.876024090137189	35.0882733	-80.849798	675	Charlotte Catholic, NC, United States of America
0.875596233141814	37.9379802	-122.5241421	676	Redwood, CA, United States of America
0.8751692171090508	43.7594256	-71.6744516	677	Holderness School, NH, United States of America
0.8747430391474358	42.90692405	-78.6783280705612	678	St. Mary's, NY, United States of America
0.874317696379693	40.981884	-74.9907997	679	North Warren, NJ, United States of America
0.8738931859426433	40.6855452	-73.4937671507594	680	Seaford, NY, United States of America
0.8734695049871152	39.80218175	-75.4541827133886	681	Archmere Academy, DE, United States of America
0.8730466506778559	29.9411193	-90.113531	682	Ursuline Academy, OH, United States of America
0.8726246201934424	40.1573811	-74.9485373269094	683	Neshaminy, PA, United States of America
0.8722034107261951	41.70903195	-70.7679425178418	684	Tabor Academy, MA, United States of America
0.8717830194820887	30.0443416	-81.6087654788025	685	Bartram Trail, FL, United States of America
0.8713634436806686	40.21199095	-74.0366682183402	686	Neptune, NJ, United States of America
0.8709446805549641	40.9213438	-72.7248928	687	Middle Country, NY, United States of America
0.8705267273514024	41.2537054	-74.3884876	688	Warwick, NY, United States of America
0.8701095813297267	32.769136	-117.0388079	689	Chico Club, CA, United States of America
0.8696932397629105	40.72266825	-73.4932508353811	690	Island Trees, NY, United States of America
0.8692776999370759	39.1128787	-84.578402822955	691	Seton School, OH, United States of America
0.8684490147180868	40.0470559	-75.1218415	693	Cardinal Dougherty, PA, United States of America
0.8680358639621799	40.7842649	-74.3201451	694	Livingston, NJ, United States of America
0.8676235042215878	38.7174282	-77.2385395	695	South County, VA, United States of America
0.8672119328469513	45.0448735	-93.5094021	696	Wayzata, MN, United States of America
0.8668011472015751	40.5885116	-73.6578609	697	Long Beach, NY, United States of America
0.8663911446613489	40.7356104	-73.9861587614155	698	St. John the Baptist, NY, United States of America
0.8659819226146698	40.38081865	-75.4901555582069	699	Upper Perkiomen, PA, United States of America
0.8655734784623643	42.7268624	-78.8298435	700	Hamburg, NY, United States of America
0.8651658096176115	40.0848	-74.9868999	701	Archbishop Ryan, PA, United States of America
0.8647589135058683	45.029077	-92.84736199999999	702	Stillwater, MN, United States of America
0.8643527875647912	41.34017875	-72.1297625428851	703	Waterford, CT, United States of America
0.8639474292441639	39.8267587	-77.8986091	704	Mercersburg Academy, PA, United States of America
0.8635428360058209	41.1217847	-73.3896352521464	705	Norwalk, CT, United States of America
0.863139005323574	33.63697335	-117.687751613223	706	El Toro, CA, United States of America
0.8627359346831398	33.8426044	-84.431873	707	Westminster School, GA, United States of America
0.8623336215820657	42.7667257	-78.8314216	708	Frontier, NY, United States of America
0.8619320635296577	37.9837505	-117.023278447941	709	Ralston Valley, CO, United States of America
0.8611312026664316	38.9702209	-77.2338456724456	711	Madeira School, VA, United States of America
0.8607318949323782	39.9865936	-74.9434686	712	Moorestown Friends, NJ, United States of America
0.8599355126374718	40.0502871	-76.2210363	714	Conestoga Valley, PA, United States of America
0.8595384332220267	39.58766005	-105.131386772782	715	Chatfield, CO, United States of America
0.8591420917436846	43.0437803	-76.17362829999999	716	Corcoran-Fowler, NY, United States of America
0.8587464858032856	43.3964738	-70.548664	717	Kennebunk, ME, United States of America
0.8579574709952694	41.26265445	-73.1628616128312	719	St. Joseph, CT, United States of America
0.8575640573847257	41.8900781	-87.7896087905373	720	Oak Park-River Forest, IL, United States of America
0.8571713698261384	40.68851595	-73.9024133515835	721	Holy Trinity, NY, United States of America
0.8567794059753429	38.7863077	-77.2402379	722	West Springfield, VA, United States of America
0.856388163498976	33.1636224	-117.3281231	723	Carlsbad, CA, United States of America
0.855997640074412	40.6675087	-111.496909696483	724	Park City, UT, United States of America
0.8556078333896981	40.8698213	-73.5845702	725	Portledge School, NY, United States of America
0.8552187411434908	36.0672263	-86.9655213	726	Harpeth Hall, TN, United States of America
0.8548303610449928	38.6434621	-75.4427296	727	Sussex Tech, DE, United States of America
0.8544426908138895	40.6617543	-74.312622	728	Cranford, NJ, United States of America
0.8540557281802884	34.195283	-118.1825727	729	St. Francis, CA, United States of America
0.8536694708846556	40.208798	-74.9322679	730	George School, PA, United States of America
0.8532839166777548	43.6767467	-70.4614411	731	Gorham, ME, United States of America
0.8528990633205872	43.0241781	-78.7366604	732	Williamsville North, NY, United States of America
0.8525149085843297	41.7508392	-99.297326	733	Kent School, CT, United States of America
0.8521314502502759	40.85865445	-74.7141422729439	734	Mt. Olive, NJ, United States of America
0.8517486861097763	43.218001	-77.5983669	735	Irondequoit, NY, United States of America
0.8513666139641782	39.9906619	-75.7963349	736	Coatesville, PA, United States of America
0.8509852316247682	42.5884618	-76.1742807	737	Cortland, NY, United States of America
0.8506045369127133	41.3487213	-73.1941493264072	738	Masuk, CT, United States of America
0.8502245276590025	30.0498008	-89.9654201	739	Cranbrook Kingswood, MI, United States of America
0.8498452017043904	40.9600848	-76.8913549	740	Lewisburg Area, PA, United States of America
0.8494665568993389	41.53704905	-72.0811945403935	741	Norwich Free Acad, CT, United States of America
0.8487113021879664	42.5931184	-71.5865252434644	743	Groton School, MA, United States of America
0.8483346880306012	42.41865575	-71.161906560951	744	Arlington HS, MA, United States of America
0.8479587465205967	38.04730895	-78.7052442724124	745	Western Albemarle, VA, United States of America
0.8475834755561126	38.5564132	-121.7505312	746	Davis, CA, United States of America
0.8472088730446821	40.844657	-73.0110356	747	Sachem East, NY, United States of America
0.8468349369031583	42.0952646	-71.4114805	748	Franklin, MA, United States of America
0.8464616650576597	39.9484428	-75.5377049	749	Westtown School, PA, United States of America
0.846089055443517	43.5916176	-70.3371097	750	Scarborough, ME, United States of America
0.8457171060052204	41.0703745	-73.8426344	751	Hackley School, NY, United States of America
0.8453458146963657	32.85778395	-116.968316209234	752	Santana, CA, United States of America
0.8449751794796029	43.1478404	-77.537776	753	Our Lady of Mercy, NY, United States of America
0.8446051983265834	32.95819065	-117.188980703657	754	Canyon Crest Academy, CA, United States of America
0.8442358692179095	39.14681235	-77.0187069262227	755	Sherwood, MD, United States of America
0.8438671901430821	39.2787182	-76.6108001	756	Southern, MD, United States of America
0.8434991591004499	39.1185163	-75.5410111845064	757	Caesar Rodney, DE, United States of America
0.8431317740971592	45.3194764	-122.563604712602	758	Oregon City, OR, United States of America
0.8427650331491037	39.25445545	-76.9586040620501	759	Glenelg Country School, MD, United States of America
0.8423989342808741	38.5462317	-76.9502505	760	La Plata, MD, United States of America
0.8420334755257091	42.895364	-71.317286	761	Pinkerton Academy, NH, United States of America
0.8416686549254461	41.05535205	-74.6239956149296	762	Sparta, NJ, United States of America
0.8413044705304723	42.32390075	-72.6523225634159	763	Northampton, MA, United States of America
0.8409409203996766	41.0205668	-73.7354869324799	764	White Plains, NY, United States of America
0.8405780026004008	40.09471865	-75.121237547184	765	Abington Friends, PA, United States of America
0.8402157152083923	40.15536415	-75.1087911849992	766	Upper Moreland, PA, United States of America
0.8394930239909086	40.9606477	-74.305666	768	Pequannock Township, NJ, United States of America
0.8391326163585301	33.5810597	-117.612627259073	769	Tesoro, CA, United States of America
0.838772831519518	38.9373332	-77.0752555	770	McLean School, DC, United States of America
0.8384136675909412	39.0806154	-104.854966	771	Lewis-Palmer, CO, United States of America
0.8376971949739526	38.6808178	-121.0715589	773	Oak Ridge, CA, United States of America
0.837339882560124	40.6386744	-75.5491527302499	774	Parkland, PA, United States of America
0.8369831836058086	40.3746091	-80.051505429267	775	Mt. Lebanon, PA, United States of America
0.8366270962682503	41.6881011	-81.3759426	776	Lake Catholic, OH, United States of America
0.8362716187125945	28.52816935	-81.146428740795	777	Timber Creek, FL, United States of America
0.8359167491118428	40.1467737	-75.361293	778	Norristown Area, PA, United States of America
0.835562485646811	40.2417733	-75.2687859	779	Lansdale Catholic, PA, United States of America
0.8352088265060847	41.7344469	-70.4597584352984	780	Sandwich, MA, United States of America
0.8348557698859757	47.57189185	-122.219308569378	781	Mercer Island, WA, United States of America
0.8345033139904796	42.88604305	-73.1909009635478	782	Mt. Anthony Union, VT, United States of America
0.8341514570312343	40.429517	-79.6690070705011	783	Franklin Regional, PA, United States of America
0.8338001972274766	40.2889879	-74.3360082	784	Manalapan, NJ, United States of America
0.833449532806	35.95685825	-86.7654797381004	785	Ravenwood, TN, United States of America
0.8330994620011146	37.8663111	-122.127081874152	786	Campolindo, CA, United States of America
0.8327499830546038	39.12927185	-84.4595157330493	787	Summit CDS, OH, United States of America
0.8324010942156849	28.8055482	-81.27062	788	Sanford School, DE, United States of America
0.8320527937409677	41.000931	-73.8079107	789	Edgemont, NY, United States of America
0.8317050798944129	39.1896909	-76.8812352685969	790	Atholton, MD, United States of America
0.8313579509472938	42.0582992	-72.5240620818223	791	East Longmeadow, MA, United States of America
0.8306654408727723	42.2001203	-70.7681266828954	793	Scituate, MA, United States of America
0.8303200563241148	38.9864508	-77.089104	794	Bethesda-Chevy Chase, MD, United States of America
0.8299752498323043	41.5241667	-74.2166666	795	Valley Central, NY, United States of America
0.8296310197045775	41.0651481	-73.5347475	796	Sacred Heart Acad, CT, United States of America
0.8292873642552459	40.1867565	-74.1773812	797	Howell, NJ, United States of America
0.8289442818056586	40.54474099999999	-80.189606	798	Sewickley Academy, PA, United States of America
0.8286017706841641	34.0628767	-84.3815932	799	Roswell, GA, United States of America
0.8282598292260716	41.7832753	-72.5595135616702	800	East Catholic, CT, United States of America
0.8279184557736137	42.6508927	-71.6607787	801	North Middlesex, MA, United States of America
0.8275776486759097	42.2568317	-71.0693283	802	Milton Academy, MA, United States of America
0.8272374062889276	40.134324	-83.1774215	803	Dublin Jerome, OH, United States of America
0.8268977269754475	40.83005379999999	-73.6795819	804	Port Washington, NY, United States of America
0.8265586091050249	42.1166823	-73.4146878	805	Berkshire School, MA, United States of America
0.8258820512052322	42.3235156	-71.3257946	807	Rivers School, MA, United States of America
0.825544607948524	40.0144694	-76.7006521	808	Central York, PA, United States of America
0.8252077196801245	39.7385784	-75.5554784	809	Tatnall School, DE, United States of America
0.824871384802925	41.3222999	-74.1343146687086	810	Monroe-Woodbury, NY, United States of America
0.8245356017263774	40.8696671	-74.1633332	811	Clifton, NJ, United States of America
0.8242003688664586	40.6125065	-74.025795092714	812	Poly Prep CDS, NY, United States of America
0.8231979558434012	40.6114905	-111.827044233995	815	Brighton, UT, United States of America
0.8228649081390677	40.9565144	-81.4737131487619	816	Green, OH, United States of America
0.8225324028279225	33.4787283	-88.1716973	817	Liberty, PA, United States of America
0.8222004383643741	32.83405585	-117.272892092514	818	La Jolla HS, CA, United States of America
0.8215381258290989	39.5913883	-104.747298695684	820	Grandview, CO, United States of America
0.8212077746974903	34.04375225	-84.4739029975894	821	Lassiter, GA, United States of America
0.8205486751030828	42.604433	-71.5628435838169	823	Lawrence Academy, MA, United States of America
0.8202199236174318	42.08611800000001	-73.9477062	824	Saugerties, NY, United States of America
0.8198917023344201	33.98980905	-84.4400399453192	825	Walton, GA, United States of America
0.8192368443974812	41.7509327	-72.8676002	827	Farmington, CT, United States of America
0.8189102047691735	44.9460214	-93.2056438288615	828	Minnehaha Academy, MN, United States of America
0.8185840893946815	39.2117763	-76.0705016	829	Catholic High, MD, United States of America
0.8182584968017096	40.1724799	-74.5891851	830	Allentown, NJ, United States of America
0.8179334255238655	44.866867	-93.32636755551	831	Centennial, MN, United States of America
0.8176088741006273	39.9456682	-75.2715727	832	Penn Wood, PA, United States of America
0.8172848410773146	45.02008	-93.4171235	833	Robbinsdale Armstrong, MN, United States of America
0.8169613250050571	40.7987107	-73.5426253	834	Jericho, NY, United States of America
0.8166383244407662	32.7990229	-117.052100345347	835	Patrick Henry, CA, United States of America
0.8163158379471024	40.3275807	-75.9999042	836	Wilson West Lawn, PA, United States of America
0.8159938640924472	40.629039	-74.089096	837	Staten Island Academy, NY, United States of America
0.8156724014508737	42.2574341	-89.049966	838	Rockford, MI, United States of America
0.815351448602117	39.8932331	-76.652095	839	Dallastown, PA, United States of America
0.815031004131544	42.1850346	-71.297188	840	Medfield, MA, United States of America
0.8147110666301254	42.9127778	-76.8688888	841	Waterloo, NY, United States of America
0.8143916346944071	38.2014433	-90.3928988	842	St. Pius X, GA, United States of America
0.8140727069264809	42.0728919	-71.3323046456334	843	King Philip, MA, United States of America
0.8137542819339558	40.7648233	-73.6626294	844	Herricks, NY, United States of America
0.8134363583299309	38.6417097	-76.9764275	845	North Point, MD, United States of America
0.8131189347329659	42.833984	-78.728937	846	West Seneca East, NY, United States of America
0.8128020097670541	39.37750795	-76.6986228639169	847	Pikesville, MD, United States of America
0.8124855820615942	37.6749304	-121.7885649	848	Granada, CA, United States of America
0.811854212976488	39.9928771	-76.2324573	850	Lampeter-Strasburg, PA, United States of America
0.8115392688824198	39.3472014	-74.5772906499882	851	Mainland Regional, NJ, United States of America
0.8109108548449615	26.3835793	-80.1455623	853	St. Andrew's, FL, United States of America
0.8105973822188467	37.58311705	-122.347650763452	854	Burlingame, CA, United States of America
0.810284397408036	32.967446	-117.1204329	855	Mt. Carmel, CA, United States of America
0.8099718990841944	44.94222965	-93.3628132835663	856	St. Louis Park, MN, United States of America
0.8096598859241503	40.6593503	-80.0170742539153	857	Pine-Richland, PA, United States of America
0.8093483566098691	39.14233995	-77.4176930480543	858	Poolesville, MD, United States of America
0.8090373098284281	41.0920025	-80.7386893	859	Fitch, CT, United States of America
0.80872674427199	41.37832815	-73.393955376357	860	Bethel, CT, United States of America
0.8084166586377779	41.2586123	-72.9586495949349	861	West Haven, CT, United States of America
0.8081070516280496	42.72422295	-70.9859528045518	862	Georgetown, MA, United States of America
0.8074892683160976	42.2281665	-72.5854986808637	864	South Hadley, MA, United States of America
0.8071810894433363	41.357597	-73.0076051	865	Amity, CT, United States of America
0.8068733840539343	39.3254345	-76.4724602454706	866	Eastern Technical, MD, United States of America
0.8065661508749463	40.51887905	-79.869531965929	867	Fox Chapel Area, PA, United States of America
0.8062593886383139	40.3202045	-75.8691436	868	Exeter Township, PA, United States of America
0.8059530960808386	42.7736705	-78.730585	869	Orchard Park, NY, United States of America
0.8056472719441595	42.3941445	-71.1656459292873	870	Belmont, MA, United States of America
0.805341914974728	40.6849378	-111.822897438099	871	Olympus, UT, United States of America
0.8050370239237843	44.88253175	-93.3766693407895	872	Edina, MN, United States of America
0.8047325975473345	39.4496863	-75.6924834048931	873	Middletown, DE, United States of America
0.8044286346061256	28.6377762	-81.2733999	874	Lake Howell, FL, United States of America
0.8035195140720469	38.1667902	-85.639160125162	877	Mercy Academy, KY, United States of America
0.8032173925732853	34.9943175	-80.8192263	878	Marvin Ridge, NC, United States of America
0.8029157283838063	37.46227555	-122.174647701133	879	Menlo-Atherton, CA, United States of America
0.8026145202923188	40.70327395	-73.5064620027541	880	MacArthur, NY, United States of America
0.8023137670921112	40.52815325	-74.1934464787584	881	Tottenville, NY, United States of America
0.8020134675810294	41.110374	-73.533735	882	King Low Heywood Thomas, NE, United States of America
0.8017136205614551	42.6469864	-73.5729405710115	883	Averill Park, NY, United States of America
0.8014142248402831	36.3313391	-119.6420732	884	Master's School, CT, United States of America
0.8011152792288987	32.96609835	-117.150068753275	885	Westview, CA, United States of America
0.8008167825431568	38.7344473	-77.80186	886	Highland School, VA, United States of America
0.8002211312342338	42.5453697	-83.2332713	888	Birmingham United, MI, United States of America
0.7999239742649114	38.619346	-76.6088590312023	889	Huntingtown, MD, United States of America
0.7996272615289064	29.9411193	-90.113531	890	Ursuline Academy, MO, United States of America
0.7993309918640937	40.7926392	-73.6395699524749	891	Roslyn, NY, United States of America
0.7990351641126888	39.4745548	-77.3610315	892	Walkersville, MD, United States of America
0.798739777121226	39.44732665	-76.8180679854226	893	Franklin, MD, United States of America
0.7984448297405375	37.4358242	-122.155244766475	894	Palo Alto, CA, United States of America
0.7981503208257331	44.8279271	-93.27688150000002	895	Bloomington Kennedy, MN, United States of America
0.7978562492361789	43.6059077	-71.6520216	896	New Hampton School, NH, United States of America
0.7975626138354773	39.122609	-76.6282995	897	Old Mill, MD, United States of America
0.7972694134914459	40.88179965	-73.627262143205	898	Glen Cove, NY, United States of America
0.7969766470760982	41.6292623	-73.310673	899	Gunnery, CT, United States of America
0.7966843134656224	43.1959141	-71.5747948	900	St. Paul's School, NH, United States of America
0.7963924115403617	38.2476254	-76.4877313	901	Great Mills, MD, United States of America
0.7961009401847947	33.62418925	-117.911108535691	902	Newport Harbor, CA, United States of America
0.7958098982875149	37.82299505	-122.233012819263	903	Piedmont, CA, United States of America
0.7955192847412114	40.88935525	-73.9063664840425	904	Fieldston School, NY, United States of America
0.7952290984426493	43.5823751	-71.2074454	905	Brewster Academy, NH, United States of America
0.7949393382926506	38.7556716	-76.0654963	906	Easton, MD, United States of America
0.7946500031960734	39.7764853	-75.6003109442716	907	Alexis I. duPont, DE, United States of America
0.7943610920617941	33.2808734	-117.0251627	908	Valley Center, CA, United States of America
0.794072603802688	41.1600953	-73.85958	909	Ossining, NY, United States of America
0.7937845373356097	40.97115555	-72.2002149483579	910	East Hampton, NY, United States of America
0.7934968915813746	42.503405	-70.94947499999999	911	Peabody Veterans Mem., MA, United States of America
0.79320966546474	40.5866656	-73.8234351	912	Beach-Channel-View, NY, United States of America
0.7929228579143865	41.47356475	-81.5698558703001	913	Shaker Heights, OH, United States of America
0.7926364678628988	33.50419249999999	-117.6507716	914	St. Margaret's, CA, United States of America
0.7923504942467486	42.3457322	-71.2085588532235	915	Newton North, MA, United States of America
0.7920649360062745	41.1915033	-81.4970808294655	916	Walsh Jesuit, OH, United States of America
0.791779792085665	42.29073305	-71.2885931740557	917	Dana Hall School, MA, United States of America
0.7914950614329398	41.4736582	-81.8509704	918	Rocky River, OH, United States of America
0.7912107429999318	42.53901515	-70.9153564128205	919	Bishop Fenwick, MA, United States of America
0.7909268357422692	40.5934382	-73.9862499	920	LaFayette, NY, United States of America
0.7906433386193579	28.5416151	-81.5669931081997	921	West Orange, FL, United States of America
0.7903602505943632	42.7825801	-71.012465775361	922	Pentucket Regional, MA, United States of America
0.7900775706341925	42.0552417	-70.7969092541548	923	Pembroke, MA, United States of America
0.7897952977094773	39.2985688	-76.9032763673401	924	Chapelgate Christian, MD, United States of America
0.7895134307945575	41.1509783	-73.9702696	925	Clarkstown North, NY, United States of America
0.78895091090989	39.5478902	-76.0960615	927	Havre De Grace, MD, United States of America
0.7886702559072001	42.49203215	-70.8687295336433	928	Marblehead, MA, United States of America
0.7883900028483865	29.44639715	-98.5634038782195	929	Memorial, TX, United States of America
0.7881101507260655	36.15359425	-115.236711276447	930	Bonanza, NV, United States of America
0.7878306985364579	39.2260365	-76.812067243631	931	Howard, MD, United States of America
0.7875516452793718	40.8172222	-73.5502777	932	Long Island Lutheran, NY, United States of America
0.7872729899581875	40.4489029	-79.9495923746897	933	Oakland Catholic, PA, United States of America
0.7869947315798386	37.8404819	-122.1460765	934	Miramonte, CA, United States of America
0.7867168691547971	34.1484162	-84.1710764	935	South Forsyth, GA, United States of America
0.7864394016970577	39.9479211	-75.0065518	936	Maple Shade, NJ, United States of America
0.786162328224119	39.787702	-76.957514	937	Southwestern, PA, United States of America
0.7858856477569696	41.13619355	-73.6901373968044	938	Byram Hills, NY, United States of America
0.7856093593200716	39.0102877	-77.7539619	939	Foxcroft School, VA, United States of America
0.7850579546521452	39.192098	-76.6375082395843	941	North County, MD, United States of America
0.7847828364872622	43.5909173	-70.2292137	942	Cape Elizabeth, ME, United States of America
0.7845081064848898	40.7738993	-73.945842	943	Chapin School, NY, United States of America
0.7842337636866168	47.62607555	-122.304181845243	944	Holy Names Acad, WA, United States of America
0.783959807137411	41.0490834	-73.9540163	945	Tappan Zee, NY, United States of America
0.7836862358856027	42.3427122	-71.3758272580667	946	Wayland, MA, United States of America
0.78341304898287	37.7207918	-121.923864577741	947	Dublin, CA, United States of America
0.7831402454842238	40.7287118	-73.5559599	948	East Meadow, NY, United States of America
0.7828678244479911	39.1352285	-77.1941391	949	Gaithersburg, MD, United States of America
0.7825957849358015	33.6542672	-117.6505386	950	Trabuco Hills, CA, United States of America
0.7820528467464899	38.90277075	-77.1407848998753	952	Yorktown, VA, United States of America
0.7817819462090019	43.0445708	-75.872947	953	Chittenango, NY, United States of America
0.781511423474795	40.0492307	-83.0171283	954	Bishop Watterson, OH, United States of America
0.7812412776217853	32.8495844	-96.8076262022552	955	Highland Park, TX, United States of America
0.7809715077311009	42.1067937	-70.73867489739	956	Marshfield, MA, United States of America
0.7807021128870689	29.2666253	-82.1144588	957	Pine Crest, FL, United States of America
0.7804330921772001	40.2600364	-76.7059612388726	958	Lower Dauphin, PA, United States of America
0.7801644446921753	44.78481745	-93.2655336536392	959	Burnsville, MN, United States of America
0.7798961695258297	40.9295434	-73.7942994	960	New Rochelle, NY, United States of America
0.7796282657751405	37.9511624	-122.5365928	961	Marin Catholic, CA, United States of America
0.7793607325402118	39.8745437	-76.8658077	962	Spring Grove, PA, United States of America
0.7790935689242597	42.66838615	-72.4851050486311	963	Northfield-Mt. Hermon, MA, United States of America
0.7788267740336002	30.11235675	-81.3947506148237	964	Ponte Vedra, FL, United States of America
0.7785603469776341	41.6970445	-73.8943944	965	Arlington, NY, United States of America
0.7782942868688327	34.0070442	-84.290479	966	Centennial, GA, United States of America
0.778028592822725	38.7452737	-104.7110826	967	Fountain Valley School, CO, United States of America
0.7777632639578843	38.8445157	-83.5549164	968	Laurel School, OH, United States of America
0.7774982993959129	40.07290935	-74.1539210398294	969	Brick Township, NJ, United States of America
0.7772336982614307	27.6000901	-80.33890439999999	970	St. Edward's, FL, United States of America
0.7769694596820604	40.7798145	-77.8581816915552	971	State College Area, PA, United States of America
0.7767055827884138	39.4328802	-77.2474825	972	Linganore, MD, United States of America
0.7764420667140801	40.2980992	-76.5838721	973	Palmyra, PA, United States of America
0.7761789105956112	40.6536111	-73.6727777	974	Lynbrook, NY, United States of America
0.7759161135725088	44.00693375	-73.1639788874456	975	Middlebury Union, VT, United States of America
0.7756536747872119	42.7964724	-76.1140658	976	Tully, NY, United States of America
0.7753915933850833	41.0250849	-76.8421853	977	North Hills, PA, United States of America
0.775129868514397	44.8176792	-93.3312902	978	Bloomington Jefferson, MN, United States of America
0.7748684993263245	41.5906968	-70.6088633914101	979	Falmouth HS, MA, United States of America
0.7746074849749227	42.5699445	-70.8470722	980	Waring School, MA, United States of America
0.7743468246171218	38.9184447	-77.0402547	981	Morgan School, CT, United States of America
0.7740865174127111	37.8910356	-122.0566293	982	Las Lomas, CA, United States of America
0.7738265625243269	43.70149835	-116.401015562782	983	Eagle, ID, United States of America
0.7735669591174413	45.0126499	-93.1504880276096	984	Roseville Area, MN, United States of America
0.7733077063603477	39.5112244	-75.8307711	985	Bohemia Manor, MD, United States of America
0.7730488034241499	41.2102192	-73.3782612998835	986	Weston, CT, United States of America
0.7727902494827488	44.0145017	-76.0199266	987	General Brown, NY, United States of America
0.7725320437128309	29.7155077	-95.458552	988	Episcopal, TX, United States of America
0.7722741852938557	30.19432435	-95.5045786608027	989	Woodlands, TX, United States of America
0.7720166734080435	39.1764139	-75.5396650770465	990	Dover, DE, United States of America
0.7717595072403636	41.6001022	-71.2708822	991	Portsmouth Abbey, RI, United States of America
0.7715026859785225	40.8932178	-73.8987301904777	992	Horace Mann School, NY, United States of America
0.7712462088129505	33.8475975	-118.3836327	993	Redondo Union, CA, United States of America
0.7709900749367922	40.7742653	-72.9223274	994	Bellport, NY, United States of America
0.7704788338387873	39.2812071	-84.2761155105828	996	Loveland, OH, United States of America
0.7702237250166886	41.3172398	-72.9738311644653	997	Hopkins School, CT, United States of America
0.7699689562834748	40.63282405	-73.9523034573947	998	Midwood, NY, United States of America
0.76971452684568	38.5952295	-90.6375145525004	999	Lafayette, MO, United States of America
0.7694604359124804	39.5617737	-76.3302368	1000	Milton, MA, United States of America
0.7692066826956846	37.8671231	-122.271353388549	1001	Berkeley, CA, United States of America
0.7689532664097211	35.0833538	-89.7870094	1002	St. George's, TN, United States of America
0.7687001862716272	41.4339992	-81.7915139	1003	Blessed Trinity, GA, United States of America
0.768447441501039	42.937945	-70.8380649	1004	Winnacunnet, NH, United States of America
0.7681950313201779	43.3219444	-76.411111	1005	Fulton, NY, United States of America
0.767942954953841	33.65422815	-117.8901391	1006	Monte Vista, CA, United States of America
0.7676912116293905	30.45588885	-97.7977960547478	1007	Westwood, TX, United States of America
0.767439800576741	40.8853684	-81.3947501	1008	North Canton-Hoover Club, OH, United States of America
0.7671887210283498	41.1204767	-73.9913528	1009	Albertus Magnus, NY, United States of America
0.7669379722192059	42.70833985	-73.8092678245316	1010	Colonie, NY, United States of America
0.7666875533868184	40.5941582	-112.01892933215	1011	Copper Hills, UT, United States of America
0.7664374637712069	39.18460485	-84.3283274997595	1012	Cincinnati CDS, OH, United States of America
0.7661877026148892	39.6590058	-77.5747101	1013	Smithsburg, MD, United States of America
0.7659382691628724	42.3457124	-71.1918607638292	1014	Newton CDS, MA, United States of America
0.7656891626626405	43.05923205	-70.7652538490579	1015	Portsmouth, NH, United States of America
0.7654403823641458	30.18813085	-97.8585696617832	1016	Bowie, TX, United States of America
0.7651919275197965	42.1112449	-87.8321866	1017	Glenbrook North, IL, United States of America
0.7649437973844471	43.4605202	-76.2347075	1018	Mexico, NY, United States of America
0.7646959912153881	40.781681	-73.603674	1019	Holy Child, NY, United States of America
0.764448508272336	33.1603397	-96.6975391	1020	St. Andrew's Episcopal, TX, United States of America
0.7642013478174219	42.08901895	-87.8536262033248	1021	Glenbrook South, IL, United States of America
0.7639545091151823	47.9188526	-122.100645089847	1022	Snohomish, WA, United States of America
0.7637079914325479	39.24666965	-76.6531004915059	1023	Lansdowne, MD, United States of America
0.7634617940388351	41.22317135	-73.0642826854589	1024	Lauralton Hall, CT, United States of America
0.7632159162057338	39.9488471	-76.6932607	1025	York Suburban, PA, United States of America
0.7629703572072993	40.70063935	-74.408811561545	1026	New Providence, NJ, United States of America
0.7627251163199412	40.580602	-74.6178548	1027	Immaculata, NJ, United States of America
0.7624801928224139	41.3651178	-71.8582280585694	1028	Stonington, CT, United States of America
0.7622355859958064	38.7746612	-77.0733941349212	1029	West Potomac, VA, United States of America
0.761991295123533	41.3953304	-81.6762391	1030	Seven Hills, OH, United States of America
0.761747319491323	38.6652734	-121.2518871	1031	Orangevale Club, CA, United States of America
0.7615036583872112	42.46059	-83.6516063	1032	South Lyon United, MI, United States of America
0.7612603111015285	43.2036938	-77.954331	1033	Brockport, NY, United States of America
0.7610172769268918	40.2789706	-79.37681649999999	1034	Greater Latrobe, PA, United States of America
0.7605321450925983	42.6283244	-70.8482769	1036	Hamilton-Wenham, MA, United States of America
0.7602900460295205	28.5990325	-81.5590216511226	1037	Ocoee, FL, United States of America
0.7600482572706287	39.9611755	-82.99879419999999	1038	Columbus SG, OH, United States of America
0.759806778119828	44.4050671	-70.0008868	1039	Kents Hill School, ME, United States of America
0.7595656078832538	27.5116847	-99.4830967	1040	Ursuline Academy, TX, United States of America
0.7593247458692617	39.1419343	-84.6019838138419	1041	Mother of Mercy, OH, United States of America
0.7588439437534905	40.7527937	-74.184769	1043	Newark Academy, NJ, United States of America
0.7586040022794412	40.71673885	-73.6903223163026	1044	Sewanhaka, NY, United States of America
0.7583643662834149	43.16418295	-73.0778494569867	1045	Burr & Burton Academy, VT, United States of America
0.7581250350847304	41.0842631	-73.8570793	1046	Sleepy Hollow, NY, United States of America
0.7578860080048729	33.6343649	-117.878423971776	1047	Corona Del Mar, CA, United States of America
0.7576472843674841	42.9723104	-70.9564454	1048	Exeter Area HS, NH, United States of America
0.7574088634983532	41.7386585	-70.59267419999999	1049	Bourne, MA, United States of America
0.7571707447254087	43.6133556	-72.5454216	1050	Woodstock Union, VT, United States of America
0.7569329273787089	40.2845058	-76.8001033	1051	Central Dauphin East, PA, United States of America
0.7566954107904333	40.6454823	-74.0823464312789	1052	Curtis, NY, United States of America
0.7564581942948747	39.1440553	-76.5287636156677	1053	Northeast, MD, United States of America
0.7562212772284287	42.2761907	-71.79980069999999	1054	Worcester Acad, MA, United States of America
0.7559846589295867	26.18392195	-80.1096194077261	1055	Cardinal Gibbons, FL, United States of America
0.755748338738927	42.3048235	-71.8148189	1056	Bancroft School, MA, United States of America
0.7555123159991057	40.6539913	-73.601795	1057	Freeport, NY, United States of America
0.7552765900548488	43.21148875	-75.4167069968766	1058	Rome Free Academy, NY, United States of America
0.7550411602529429	39.1669079	-76.8604564350845	1059	Hammond, MD, United States of America
0.7548060259422281	40.9443443	-74.0362935	1060	River Dell, NJ, United States of America
0.7545711864735883	39.1109809	-77.5796447	1061	Loudoun County, VA, United States of America
0.7543366411999435	43.015598	-76.2257126	1062	Onondaga, NY, United States of America
0.7541023894762413	40.8270431	-73.4259544	1063	Walt Whitman, NY, United States of America
0.7538684306594492	40.57369705	-111.888123053518	1064	Jordan, UT, United States of America
0.7536347641085456	42.83943505	-78.7465028066232	1065	West Seneca West, NY, United States of America
0.7534013891845116	37.5723455	-77.5211403	1066	St. Catherine's School, VA, United States of America
0.7531683052503242	40.8671451	-111.89563731486	1067	Woods Cross, UT, United States of America
0.7529355116709465	37.952941	-121.360551894268	1068	Stockton Club, CA, United States of America
0.7527030078133204	42.3938659	-71.2296977001954	1069	Waltham, MA, United States of America
0.752470793046359	40.8092798	-72.9874046182782	1070	Patchogue-Medford, NY, United States of America
0.7522388667409381	38.04445945	-84.5135419175313	1071	Collegiate, KY, United States of America
0.7520072282698882	42.41570395	-71.1505745287741	1072	Arlington Catholic, MA, United States of America
0.7517758770079866	39.5162219	-76.1713421	1073	Aberdeen, MD, United States of America
0.7515448123319507	42.6324478	-71.913257	1074	Cushing Academy, MA, United States of America
0.7513140336204278	41.3359304	-72.8003762	1075	North Branford, CT, United States of America
0.7508533316151247	43.9105642	-69.8311364561996	1077	Hyde-Bath, ME, United States of America
0.7506234070882277	38.98734195	-77.3742492762203	1078	Herndon, VA, United States of America
0.7503937660595944	43.4445263	-71.5892042	1079	Tilton School, NH, United States of America
0.7501644079174139	39.5926005	-77.133038	1080	Francis Scott Key, MD, United States of America
0.7499353320517607	40.6252722	-74.3586405918574	1081	Union Catholic, NJ, United States of America
0.7497065378545863	40.2653218	-74.730697	1082	Lawrence, NJ, United States of America
0.7494780247197128	43.5461828	-72.2581459	1083	Kimball Union Academy, NH, United States of America
0.7492497920428252	42.7387379	-71.4739405136301	1084	Bishop Guertin, NH, United States of America
0.7490218392214631	40.32278205	-111.691418051559	1085	Timpanogos, UT, United States of America
0.7487941656550148	39.965279	-74.1429089	1086	Toms River East, NJ, United States of America
0.7485667707447088	42.81455905	-73.9101338542002	1087	Schenectady, NY, United States of America
0.7483396538936066	39.62701775	-84.1480888545971	1088	Centerville, OH, United States of America
0.7478862519903828	44.8240494	-93.5899121485851	1090	Chaska, MN, United States of America
0.7476599657534851	41.2236533	-86.4252849	1091	Culver Academy, IN, United States of America
0.7474339552062249	40.69142155	-111.800269838209	1092	Skyline, UT, United States of America
0.7472082197607209	39.4341991	-77.4070793633524	1093	Thomas Johnson, MD, United States of America
0.7469827588308824	32.843655	-97.0959295738056	1094	Trinity, TX, United States of America
0.7467575718324013	40.8551528	-73.3359557	1095	Elwood-John Glenn, NY, United States of America
0.7465326581827452	33.874266	-118.389538927327	1096	Mira Costa, CA, United States of America
0.7463080173011508	43.0028191	-83.7054775	1097	Powers Catholic, MI, United States of America
0.7460836486086168	39.5982844	-75.6722546	1098	Red Lion Christ. Acad, D, United States of America
0.7458595515278964	34.1998926	-77.8930413	1099	Hoggard, NC, United States of America
0.7456357254834909	37.9989843	-78.489271	1100	Monticello, VA, United States of America
0.7454121699016433	39.9610427	-86.2738546677571	1101	Zionsville, IN, United States of America
0.74518888421033	36.56297805	-121.923309188104	1102	Stevenson School, CA, United States of America
0.7449658678392559	41.3416587	-72.9138478062865	1103	Hamden Hall CDS, CT, United States of America
0.7447431202198456	40.03750465	-83.1679043786193	1104	Hilliard Darby, OH, United States of America
0.7445206407852382	44.45460625	-73.177851500599	1105	South Burlington, VT, United States of America
0.7442984289702803	39.91325459999999	-82.73202119999999	1106	Pickerington Club, OH, United States of America
0.7440764842115186	40.0912268	-74.0479146	1107	Point Pleasant Boro, NJ, United States of America
0.7438548059471937	39.2472296	-76.625969	1108	Carver A-T, MD, United States of America
0.7436333936172339	41.69447865	-81.3370222469011	1109	Mentor, OH, United States of America
0.7434122466632478	42.7447595	-70.9193783	1110	Triton Regional, MA, United States of America
0.7431913645285184	33.3422525	-84.5176227	1111	Starr's Mill, GA, United States of America
0.7429707466579967	40.986957	-74.9664125203994	1112	Blair Academy, NJ, United States of America
0.7427503924982938	42.58331775	-70.9318685193334	1113	Danvers, MA, United States of America
0.7425303014976768	29.47862575	-81.2095519920948	1114	Flagler Palm Coast, FL, United States of America
0.7423104731060604	39.1406267	-77.2075611	1115	R. Montgomery, MD, United States of America
0.7420909067750009	40.8670432	-73.527346	1116	St. Dominic's, NY, United States of America
0.7418716019576906	39.8364559	-75.0259795	1117	Sterling, NJ, United States of America
0.741652558108951	37.2460329	-121.880268986826	1118	Pioneer, CA, United States of America
0.7414337746852263	26.1078646	-80.1797686	1119	St. Thomas Aquinas, FL, United States of America
0.7412152511445768	41.04974435	-74.0500456243336	1120	Pascack Valley, NJ, United States of America
0.740996986946674	44.8345734	-92.94191599999999	1121	South Washington County, MN, United States of America
0.7407789815527933	33.51514085	-111.99827748769	1122	Phoenix Country Day, AZ, United States of America
0.7405612344258077	40.8007675	-73.9584085	1123	Frederick Douglass, NY, United States of America
0.7403437450301821	40.30331	-75.9600469124948	1124	Governor Mifflin, PA, United States of America
0.7401265128319673	40.7724724	-73.9454724	1125	Brearley School, NY, United States of America
0.7399095372987935	40.3874836	-105.1027589	1126	Thompson Valley, CO, United States of America
0.7396928178998642	40.7928793	-80.0758425	1127	Seneca Valley, PA, United States of America
0.7392601453893853	40.2860834	-79.5555327	1129	Greensburg Central Cath, PA, United States of America
0.7388284910854013	38.28316345	-85.6247002689348	1131	Ballard, KY, United States of America
0.7386130444504012	28.58374845	-81.3201033014906	1132	Winter Park, FL, United States of America
0.7381829096069719	40.51527035	-79.9744164496882	1134	Shaler Area, PA, United States of America
0.7379682203601697	40.2624865	-74.7996836884332	1135	Ewing Township, NJ, United States of America
0.7377537825402648	42.4835553	-71.1442989996007	1136	Woburn, MA, United States of America
0.7375395956318677	26.9286989	-80.1039985064829	1137	Jupiter, FL, United States of America
0.737325659121098	39.963655	-82.9303272	1138	Bexley Club, OH, United States of America
0.7371119724955781	39.8991973	-75.06049	1139	Paul VI, NJ, United States of America
0.7368985352444274	40.7902778	-73.9713888	1140	Trinity School, NY, United States of America
0.7366853468582567	29.7489974	-95.5104378600697	1141	Kinkaid School, TX, United States of America
0.7364724068291626	39.8903263	-74.2067326940219	1142	Central Regional, NJ, United States of America
0.7362597146507219	26.65013385	-80.2660799656345	1143	Wellington, FL, United States of America
0.7360472698179861	42.56106895	-71.2739867812867	1144	Billerica Memorial, MA, United States of America
0.7358350718274755	41.3764363	-72.1039277	1145	Williams School, CT, United States of America
0.7356231201771737	39.763616	-105.104473374666	1146	Wheat Ridge, CO, United States of America
0.7351999538964152	40.9262762	-74.07701	1148	Bergen Tech, NJ, United States of America
0.7349887382691938	38.0522017	-78.476847	1149	Charlottesville, VA, United States of America
0.7347777669886404	40.8633977	-79.9181111	1150	Butler Area, PA, United States of America
0.7345670395599728	40.58511	-79.9529561911123	1151	Hampton Township, PA, United States of America
0.7343565554898408	28.46982865	-81.4771177276121	1152	Dr. Phillips, FL, United States of America
0.7341463142863186	40.7248242	-74.0729192	1153	Mt. St. Dominic Acad, NJ, United States of America
0.7339363154589003	43.2818508	-76.1498637	1154	Central Square, NY, United States of America
0.733726558518495	39.01825375	-77.0113706	1155	Blair, MD, United States of America
0.7335170429774207	41.8862089	-71.9647958	1156	Pomfret School, CT, United States of America
0.7333077683493996	38.9940588	-77.530563405008	1157	Briar Woods, VA, United States of America
0.7330987341495528	42.3402554	-71.1068437461818	1158	Winsor School, MA, United States of America
0.7328899398943948	34.4658141	-119.181409740631	1159	Thacher School, CA, United States of America
0.7326813851018281	42.26099845	-83.7536588134033	1160	Ann Arbor-Pioneer, MI, United States of America
0.732473069291139	42.3845334	-72.5108354524231	1161	Amherst-Pelham, MA, United States of America
