weight	latitude	longitude	rank	hs_name
7.51945378026559	40.7306507	-73.220733	1	West Islip, NY, United States of America
5.9819998201101185	39.4036039	-76.6268216	2	Loyola-Blakefield, MD, United States of America
5.232825833326387	43.0397885	-76.2657614	3	West Genesee, NY, United States of America
4.75889910271296	39.3723638	-76.6361295	4	Boys' Latin, MD, United States of America
4.421057799529659	40.7878631	-74.5290688	5	Delbarton, NJ, United States of America
4.162903863546375	40.8564874	-73.4242871	6	Huntington, NY, United States of America
3.9564341424901213	39.0337763	-77.10964349999999	7	Georgetown Prep, MD, United States of America
3.785877858716706	40.74508525	-73.6498182277831	8	Chaminade, NY, United States of America
3.6415499053657103	42.5453345	-72.6046808	9	Deerfield, MA, United States of America
3.5171127763150825	41.2743037	-73.6095203	10	John Jay-Cross River, NY, United States of America
3.4082128387342285	40.7330556	-73.6530555	11	Garden City, NY, United States of America
3.3117419018154495	40.0416337	-75.660066940317	12	Downingtown East, PA, United States of America
3.225410444488128	40.89520265	-74.4273233602014	13	Mountain Lakes, NJ, United States of America
3.147487705924498	40.0142	-75.3054999	14	Haverford School, PA, United States of America
3.0766364339818812	40.01684785	-83.0546924783809	15	Upper Arlington, OH, United States of America
3.0118039596490895	41.0850166	-73.4906280751206	16	Darien, CT, United States of America
2.9521481629564637	43.02066805	-76.0460217822718	17	Jamesville-DeWitt, NY, United States of America
2.8969858071326935	43.218001	-77.5983669	18	Irondequoit, NY, United States of America
2.845755644188063	40.094622	-75.19051	19	LaSalle College HS, PA, United States of America
2.7979915310392007	39.7109363	-76.789975	20	St Paul's, MD, United States of America
2.7533024862805373	40.8289878	-73.4834562	21	Syosset, NY, United States of America
2.711357657614997	40.94151859999999	-72.8672934	22	Shoreham-Wading River, NY, United States of America
2.6718748271859836	40.86669015	-73.4567175492754	23	Cold Spring Harbor, NY, United States of America
2.6346115076740895	41.2486155	-81.4337259388139	24	Western Reserve Acad, OH, United States of America
2.5993579637498168	43.2035647	-77.4681161	25	Webster Schroeder, NY, United States of America
2.5659316836744748	40.2973299	-74.7296048	26	Lawrenceville, NJ, United States of America
2.534172956572371	37.7480695	-122.4959313	27	Saint Ignatius Prep, CA, United States of America
2.5039413022330104	42.9084609	-77.27235259999999	28	Canandaigua, NY, United States of America
2.4751125650758006	39.6493139	-105.0561646	29	Kent Denver, CO, United States of America
2.447576530482218	42.14802660000001	-77.1106719	30	Corning East, NY, United States of America
2.395999931818377	41.71161155	-87.718941275254	32	Brother Rice, MI, United States of America
2.3717925143457963	41.16031295	-73.2547531312219	33	Fairfield Prep, CT, United States of America
2.348541569081928	40.024739	-75.5123591	34	Malvern Prep, PA, United States of America
2.3261827966663255	40.81222	-73.3894399	35	St Anthony's, NY, United States of America
2.3046579024942484	40.79288105	-73.7045040358531	36	Manhasset, NY, United States of America
2.2839138874102334	39.3947049	-76.7769673	37	McDonogh, MD, United States of America
2.263902438803085	42.7481398	-70.8980369	38	The Governor's Academy, MA, United States of America
2.244579405660245	40.7701167	-74.4079338	39	Madison Boro, NJ, United States of America
2.225904344178967	40.7076001	-73.4440122	40	Farmingdale, NY, United States of America
2.1734102147762004	32.7801294	-96.8466692	43	Episcopal Dallas, TX, United States of America
2.156983937141008	39.6303721	-104.879335	44	Cherry Creek, CO, United States of America
2.141046820946736	38.8178183	-77.1011477	45	St Stephen/St Agnes, VA, United States of America
2.1255739050528186	38.8019293	-107.715892	46	Hotchkiss, CT, United States of America
2.1105420097431895	42.0475245	-70.6793292488759	47	Duxbury, MA, United States of America
2.09592957487529	38.9751925	-76.48887789999999	48	St Mary's Annapolis, MD, United States of America
2.081716515758496	26.3835793	-80.1455623	49	Saint Andrews, FL, United States of America
2.0678840945018746	41.9987038	-73.3926196	50	Salisbury School, CT, United States of America
2.054414804898234	42.8192309	-73.8897254296259	51	Niskayuna, NY, United States of America
2.04129226918573	43.5823751	-71.2074454	52	Brewster Academy, NH, United States of America
2.028501145259191	42.5884618	-76.1742807	53	Cortland, NY, United States of America
2.01602704309839	40.8633333	-73.2430555	54	Smithtown West, NY, United States of America
2.003856449345829	40.916255	-73.0744567809568	55	Ward Melville, NY, United States of America
1.9919766591071613	40.8559314	-73.2006686	56	Smithtown East, NY, United States of America
1.9803757141673255	40.905315	-73.0124669	57	Comsewogue, NY, United States of America
1.9690423469180196	42.1850346	-71.297188	58	Medfield, MA, United States of America
1.957965929380183	41.2560052	-81.4139387452058	59	Hudson, OH, United States of America
1.947136426780887	38.9911172	-77.1270588	60	Landon, MD, United States of America
1.9365443552093458	43.158679	-76.3327099	61	Baldwinsville, NY, United States of America
1.9261807429332733	40.5885116	-73.6578609	62	Long Beach, NY, United States of America
1.9160370950058134	42.2709264	-71.7967377	63	Belmont Hill, MA, United States of America
1.9061053608358167	42.7736705	-78.730585	64	Orchard Park, NY, United States of America
1.8963779044313773	43.9864256	-75.6459341	65	Carthage, NY, United States of America
1.8868474770588919	41.2789753	-73.8584444	66	Lakeland/Panas, NY, United States of America
1.8775071920882587	40.5934382	-73.9862499	67	Lafayette, NY, United States of America
1.8593711761094778	43.1745123	-76.1038116	69	Cicero-North Syracuse, NY, United States of America
1.8419211686254582	39.5829291	-104.962775007037	71	Arapahoe, CO, United States of America
1.8334394440082604	41.04018275	-73.6133129328867	72	Greenwich HS, CT, United States of America
1.8251129657168235	41.7895402	-72.8345009	73	Avon Old Farms, CT, United States of America
1.816936823189364	40.134324	-83.1774215	74	Dublin Jerome, OH, United States of America
1.8010169857295912	41.2102192	-73.3782612998835	76	Weston, CT, United States of America
1.793264515493172	40.6536111	-73.6727777	77	Lynbrook, NY, United States of America
1.7856448078876563	42.8669444	-76.9874999	78	Geneva, NY, United States of America
1.7781539304606802	42.08600405	-76.0457894938925	79	Vestal, NY, United States of America
1.7707881151429337	33.7668073	-117.7975286	80	Foothill-Santa Ana, CA, United States of America
1.7635437494238613	39.07779085	-76.5605181555464	81	Severna Park, MD, United States of America
1.7564173681033282	39.2196122	-84.3592785378475	82	Archbishop Moeller, OH, United States of America
1.749405645575139	40.6369444	-73.6299999	83	Oceanside, NY, United States of America
1.7425053886021782	40.6678787	-73.4531796	84	Massapequa, NY, United States of America
1.729027120020081	40.6676022	-73.6051284	86	Baldwin, NY, United States of America
1.722443324927508	40.7304267	-74.1863283	87	Montgomery, NJ, United States of America
1.7159594168689976	40.7739961	-73.4022992	88	Half Hollow Hills West, NY, United States of America
1.7032808594906133	41.28772765	-72.8004366413514	90	Branford, CT, United States of America
1.6970812480566027	31.4627676	-97.1214578	91	Robinson, VA, United States of America
1.690971590386931	41.12858455	-73.489421231771	92	New Canaan, CT, United States of America
1.6849496246042182	43.01362385	-75.9619659916267	93	Fayetteville-Manlius, NY, United States of America
1.679013169248136	42.9514554	-76.420768	94	Skaneateles, NY, United States of America
1.6731601195969859	40.04778665	-75.4537537294326	95	Conestoga, PA, United States of America
1.6673884441942295	40.5170362	-74.8518362	96	Hunterdon Central, NJ, United States of America
1.6616961815665559	42.9791148	-70.9516775992823	97	Phillips Exeter, NH, United States of America
1.6560814371210548	43.1414449	-78.9233736	98	Niagara Wheatfield, NY, United States of America
1.650542380210023	40.7586111	-73.5263888	99	Hicksville, NY, United States of America
1.645077241352745	41.8975977	-71.9625735	100	Pomfret, CT, United States of America
1.6396843096043783	40.7350984	-73.0940003	101	Sayville, NY, United States of America
1.6343619300627878	40.1155415	-83.0558302	102	Worthington Kilbourne, OH, United States of America
1.6291085015048208	39.60000985	-104.797958599554	103	Regis Jesuit, CO, United States of America
1.6239224741441143	40.88166555	-73.2438755673074	104	Kings Park, NY, United States of America
1.6188023475030962	42.6647282	-77.0613847	105	Penn Yan, NY, United States of America
1.6137466683923223	43.0828198	-77.415935872457	106	Fairport, NY, United States of America
1.6087540289907953	36.873678	-76.19358799999999	107	Norfolk Academy, VA, United States of America
1.6038230650213192	47.6262626	-122.5204512	108	Bainbridge Island, WA, United States of America
1.5989524540153517	40.9714188	-73.717788	109	Webster Thomas, NY, United States of America
1.5941409136621967	42.6982304	-73.9654422842923	110	Guilderland, NY, United States of America
1.5893872002377059	32.9573985	-117.224896678294	111	Torrey Pines, CA, United States of America
1.5846901071079813	40.6397222	-73.6972221	112	Hewlett, NY, United States of America
1.5800484633038712	41.5637057	-73.4134543	113	New Milford, CT, United States of America
1.5754611321623102	40.8464571	-74.5667697159893	114	Randolph, NJ, United States of America
1.5709270100308177	42.65232015	-71.6621127768527	115	Middlesex, MA, United States of America
1.566445025031694	41.8395666	-72.6401410835967	116	Loomis Chaffee, CT, United States of America
1.562014135882681	41.3126651	-73.7140545837215	117	Somers, NY, United States of America
1.5576333307710422	42.0554269	-72.5607093	118	Longmeadow, MA, United States of America
1.5533016262782189	40.1024408	-76.2998167483992	119	Manheim Township, PA, United States of America
1.5490180663523836	40.97768845	-74.10647155	120	Ridgewood, NJ, United States of America
1.5447817213263788	29.7067936	-95.4385142	121	St Mark's, TX, United States of America
1.5405916869786789	38.9829602	-76.9423133773692	122	Calvert Hall, MD, United States of America
1.5364470836351585	40.7149252	-73.70631809999999	123	Floral Park, NY, United States of America
1.5323470553095735	39.127886	-76.6869129	124	Severn, MD, United States of America
1.5282907688807894	40.9525987	-72.9253804	125	Rocky Point, NY, United States of America
1.5242774133049135	42.2281665	-72.5854986808637	126	South Hadley, MA, United States of America
1.520306198860577	43.1183946	-77.8344528	127	Churchville-Chili, NY, United States of America
1.516376356425726	42.260537	-71.1847489	128	Noble & Greenough, MA, United States of America
1.5124871367843755	40.99684405	-74.3765669112669	129	Kinnelon, NJ, United States of America
1.5086378099618594	45.39734995	-122.692798822972	130	Lakeridge, OR, United States of America
1.5048276645871967	40.3746091	-80.051505429267	131	Mount Lebanon, PA, United States of America
1.5010560072812704	42.6471435	-71.1322910355567	132	Phillips Andover, MA, United States of America
1.4973221620695891	42.23256415	-70.8092798421583	133	Cohasset, MA, United States of America
1.4863409886393792	42.56106895	-71.2739867812867	136	Billerica, MA, United States of America
1.4827519608798925	39.28045695	-76.6874066760513	137	Mount St Joseph, MD, United States of America
1.4791976074373816	40.7317463	-74.4007444	138	Chatham, NJ, United States of America
1.4756773456706151	41.461004	-73.5077322	139	New Fairfield, CT, United States of America
1.472190606830314	43.69874465	-72.2832153186343	140	Hanover, NH, United States of America
1.4687368356315196	41.0859301	-73.4326195	141	Brien McMahon-Norwalk, CT, United States of America
1.4653154898420475	39.57143665	-76.9768013304972	142	Winters Mill, MD, United States of America
1.4619260398863223	41.8912631	-72.7959463000224	143	Westminster School, CT, United States of America
1.4585679684639046	41.4900972	-72.9064913	144	Cheshire HS, CT, United States of America
1.4552407701820766	40.71418145	-73.6685791139288	145	Carey, NY, United States of America
1.451943951201873	41.2961798	-73.3369952714363	146	Barlow-Redding, CT, United States of America
1.4486770288969713	39.3278867	-76.6257547	147	Gilman, MD, United States of America
1.4454395315248993	34.1805605	-118.7631463	148	Oak Park, CA, United States of America
1.442230997910028	35.9444845	-79.078599237112	149	Chapel Hill, NC, United States of America
1.4390509771378568	35.95685825	-86.7654797381004	150	Ravenwood, TN, United States of America
1.43589902826011	38.9889604	-77.7852529	151	Notre Dame Academy, VA, United States of America
1.4327747200102012	37.8438451	-121.9817492	152	Monte Vista/Danville, CA, United States of America
1.429677630528631	40.6936985	-74.5471314	153	Ridge, NJ, United States of America
1.4266073470979062	43.8829869	-69.9877619007994	154	Brunswick, ME, United States of America
1.4205455917021734	40.0570949	-75.567083	156	Great Valley, PA, United States of America
1.4145863254136777	43.4504806	-76.5246399	158	Oswego, NY, United States of America
1.41164418401007	33.63697335	-117.687751613223	159	El Toro, CA, United States of America
1.4087265505958095	39.6513889	-105.0366666	160	Mullen, CO, United States of America
1.4058330697479389	40.9401412	-73.0271798	161	Mount Sinai, NY, United States of America
1.4029633933646244	38.5952295	-90.6375145525004	162	Lafayette, MO, United States of America
1.400117180470272	39.8670558	-75.5032557	163	Garnet Valley, PA, United States of America
1.3972940970269903	33.753195	-118.009772394229	164	Westminster, GA, United States of America
1.3944938157521563	40.01169005	-75.7178930752684	165	Downingtown West, PA, United States of America
1.3917160159418493	40.1372446	-75.21528769999999	166	Germantown Academy, PA, United States of America
1.3889603832999342	39.761971	-75.547721	167	Salesianum, DE, United States of America
1.3862266097725748	40.6855452	-73.4937671507594	168	Seaford, NY, United States of America
1.3835143933879803	43.5461828	-72.2581459	169	Kimball Union, NH, United States of America
1.3808234381011841	43.05792515	-77.6063444861447	170	Rush-Henrietta, NY, United States of America
1.37815345364367	40.6456522	-74.3501630118898	171	Westfield, NJ, United States of America
1.375504155377669	43.7992465	-70.1850494	172	North Yarmouth Acad, ME, United States of America
1.3728752641549526	43.0822349	-76.0276318	173	East Syracuse-Minoa, NY, United States of America
1.3702665061799608	40.580602	-74.6178548	174	Immaculata, NJ, United States of America
1.3676776128771055	41.87159675	-72.821883157628	175	Simsbury, CT, United States of America
1.3625583713171845	42.1397222	-77.0563888	177	Corning West, NY, United States of America
1.3600275108700532	42.9482232	-85.6129143967942	178	East Grand Rapids, MI, United States of America
1.3575154904764533	33.77951045	-118.419564342899	179	Palos Verdes, CA, United States of America
1.3550220658062184	43.732406	-71.5889739	180	Holderness, NH, United States of America
1.3500900487253586	40.82316305	-74.2131656036377	182	Montclair, NJ, United States of America
1.3476509897456845	45.4750373	-122.7571329	183	Oregon Episcopal, OR, United States of America
1.3428256360706659	40.8650992	-73.5951263	185	Friends Academy, NY, United States of America
1.3404388996618097	41.292594	-73.8029119	186	Yorktown, NY, United States of America
1.3380691689654227	42.7964724	-76.1140658	187	Tully, NY, United States of America
1.3357162328418646	36.0823583	-79.908091	188	Western Guilford, NC, United States of America
1.331059918303145	40.6894488	-73.5132704684335	190	Wantagh, NY, United States of America
1.328756135904313	41.35794595	-73.0053446589273	191	Amity Regional, CT, United States of America
1.326468339947862	40.844657	-73.0110356	192	Sachem East, NY, United States of America
1.3241963371002945	43.1369037	-77.4701760374478	193	Penfield, NY, United States of America
1.3219399373524328	39.9169129	-75.4207639	194	Penn Charter, PA, United States of America
1.319698953945478	42.9398704	-76.247912	195	Onondaga Central, NY, United States of America
1.3174732032990761	33.7508535	-116.9639126	196	West Valley, CA, United States of America
1.315262504941341	32.8495844	-96.8076262022552	197	Highland Park, TX, United States of America
1.3130666814407557	40.7548218	-73.4829018	198	Bethpage, NY, United States of America
1.3108855583399113	42.2001203	-70.7681266828954	199	Scituate, MA, United States of America
1.3087189640910044	40.6991667	-73.3252777	200	Babylon, NY, United States of America
1.3065667299930546	28.6823458	-81.4226193225388	201	Lake Brantley, FL, United States of America
1.3044286901307787	42.08292405	-87.7600667611925	202	Loyola Academy, IL, United States of America
1.3023046813150727	37.8260372	-122.005794	203	San Ramon Valley, CA, United States of America
1.3001945430250526	38.5916682	-90.4234016191751	204	Kirkwood, MO, United States of America
1.298098117351603	29.852567	-95.3238879	205	Kinkaid, TX, United States of America
1.2960152489423897	40.6753793	-73.5429044	206	Mepham, NY, United States of America
1.2939457849482896	32.6382191	-82.7676383	207	Lovett, GA, United States of America
1.2918895749711967	41.36890625	-72.2127679540828	208	East Lyme, CT, United States of America
1.2898464710131614	40.374194	-74.5634606	209	South Brunswick, NJ, United States of America
1.287816327426821	43.0702133	-75.2856371	210	New Hartford, NY, United States of America
1.2857990008670863	42.93414445	-75.8577392568601	211	Cazenovia Central, NY, United States of America
1.2818022366770354	41.2144444	-74.016111	213	North Rockland, NY, United States of America
1.2798225234498959	39.9232086	-75.4314683	214	Penncrest, PA, United States of America
1.2778550759672818	34.04375225	-84.4739029975894	215	Lassiter, GA, United States of America
1.2758997617120966	35.7974777	-95.2754973	216	Rivers, MA, United States of America
1.273956450203956	39.339125	-82.1008619	217	Troy Athens, MI, United States of America
1.2720250129586712	41.7009328	-72.5934232	218	Glastonbury, CT, United States of America
1.27010532344872	39.8894	-75.3336999	219	Ridley, PA, United States of America
1.2681972570646776	42.2081552	-71.0058807	220	Thayer Academy, MA, United States of America
1.2663006910775774	40.8366091	-73.1014158157605	221	Sachem North, NY, United States of America
1.2644155046021794	41.1217847	-73.3896352521464	222	Norwalk, CT, United States of America
1.2625415785611152	40.1120981	-75.131461	223	Abington, PA, United States of America
1.2606787956498888	40.4468606	-79.9458211	224	Central Catholic, PA, United States of America
1.2588270403027086	42.3157951	-71.0446890909555	225	Boston College HS, MA, United States of America
1.2569861986591244	40.697377	-73.3650873	226	Lindenhurst, NY, United States of America
1.2551561585314495	40.591955	-80.0758425	227	North Allegheny, PA, United States of America
1.2533368093729476	41.0716191	-74.1362282	228	Don Bosco Prep, NJ, United States of America
1.2497297497955444	42.11058775	-72.4445531639882	230	Minnechaug, MA, United States of America
1.2461641672090995	42.420573	-71.1279179	232	Brooks School, MA, United States of America
1.2443966699933522	42.7268624	-78.8298435	233	Hamburg, NY, United States of America
1.2426392332355858	39.8559543	-74.7761224	234	Shawnee, NJ, United States of America
1.2408917570446931	37.9379802	-122.5241421	235	Redwood, CA, United States of America
1.239154142941057	42.26099845	-83.7536588134033	236	Ann Arbor Pioneer, MI, United States of America
1.2374262938307268	42.63267155	-70.8739748345129	237	Pingree, MA, United States of America
1.2357081139801709	39.312885	-76.5652432	238	Archbishop Curley, MD, United States of America
1.2339995089915972	42.192683	-75.8548479	239	Chenango Forks, NY, United States of America
1.2323003857788186	41.1745396	-73.7576326	240	Horace Greeley, NY, United States of America
1.2306106525436555	28.70418265	-81.2654721962129	241	Winter Springs, FL, United States of America
1.228930218752858	40.8098887	-74.7285183	242	West Morris Central, NJ, United States of America
1.2255968935610764	40.33355715	-80.0418396636526	244	Bethel Park, PA, United States of America
1.2239438272175585	38.885289	-77.4645284	245	Westfield, VA, United States of America
1.2222997103906137	37.82299505	-122.233012819263	246	Piedmont, CA, United States of America
1.2206644585427615	42.09447385	-87.7198764776642	247	New Trier, IL, United States of America
1.2190379882731817	40.9411788	-73.7435731	248	Mamaroneck, NY, United States of America
1.2174202172979212	45.5188593	-122.689574989586	249	Lincoln, OR, United States of America
1.2158110644305242	40.9731712	-73.6865301	250	Rye HS, NY, United States of America
1.212618293647634	40.7316667	-73.2544443	252	Bay Shore, NY, United States of America
1.2110345186780878	41.833491	-71.3980237	253	Moses Brown, RI, United States of America
1.2094590476723497	43.1481445	-76.2158114319789	254	Liverpool, NY, United States of America
1.2078918046549563	40.65247245	-74.4752436654308	255	Watchung Hills, NJ, United States of America
1.2063327146400171	39.2524068	-84.320758	256	Cincinnati Indian Hill, OH, United States of America
1.2047817036145214	47.57189185	-122.219308569378	257	Mercer Island, WA, United States of America
1.2032386985219867	29.9062331	-95.6686189	258	Episcopal Houston, TX, United States of America
1.2017036272464494	30.63259635	-87.0453117621274	259	Milton, GA, United States of America
1.200176418596779	41.9767633	-72.4606399	260	Somers, CT, United States of America
1.1986570022913163	28.58374845	-81.3201033014906	261	Winter Park, FL, United States of America
1.1971453089428243	44.8546856	-93.4707859	262	Eden Prairie, MN, United States of America
1.1956412700437424	35.1876781	-80.7333527	263	Charlotte Cou Day, NC, United States of America
1.1941448179517395	39.5220529	-76.4131134	264	Fallston, MD, United States of America
1.1926558858755603	38.9581808	-76.9421547433805	265	DeMatha, MD, United States of America
1.188233554306169	42.66838615	-72.4851050486311	268	Northfield Mt Hermon, MA, United States of America
1.186774050922504	42.7667257	-78.8314216	269	Frontier, NY, United States of America
1.1853217458885745	41.2045404	-73.4328986	270	Wilton, CT, United States of America
1.183876577237752	40.0399648	-75.360608025	271	Radnor, PA, United States of America
1.182438483762981	38.6647734	-90.5044529	272	Parkway Central, MO, United States of America
1.181007405004717	39.8496978	-74.9670539897655	273	Eastern Regional, NJ, United States of America
1.1795832812391003	39.9501097	-82.93343569999999	274	Columbus St Charles, OH, United States of America
1.178166053466356	42.30258735	-71.2792295320111	275	Wellesley, MA, United States of America
1.1767556633994232	40.6673246	-73.6209621	276	South Side, NY, United States of America
1.1753520534527975	43.0604242	-77.5189882	277	Pittsford, NY, United States of America
1.17256494702081	42.564178	-70.8790279	279	Beverly, MA, United States of America
1.171181338774808	42.6999184	-71.1163794	280	Andover HS, MA, United States of America
1.1698042871069814	41.2545384	-73.9345831	281	Hendrick Hudson, NY, United States of America
1.168433737779625	44.1982814	-70.4106088	282	Hebron Academy, ME, United States of America
1.1670696371939957	38.6230905	-90.5342016	283	Parkway West, MO, United States of America
1.1657119323805587	42.28696755	-71.2316980574263	284	Needham, MA, United States of America
1.164360570989417	39.1245335	-76.64682719999999	285	Archbishop Spalding, MD, United States of America
1.163015501280918	41.3278708	-73.5303072630782	286	Ridgefield, CT, United States of America
1.1616766721164367	44.9757459	-93.1939289	287	Blake, MN, United States of America
1.1603440329493298	44.490628	-73.1112669	288	Essex Junction, VT, United States of America
1.159017533816053	43.0300663	-76.2021481	289	Westhill, NY, United States of America
1.1576971253274488	40.1071378	-83.1311268	290	Dublin Coffman, OH, United States of America
1.156382758660186	41.70903195	-70.7679425178418	291	Tabor Academy, MA, United States of America
1.1550743855483612	39.46068935	-76.612585140643	292	Dulaney, MD, United States of America
1.1537719582752521	38.8400539	-77.2765857	293	Woodson, VA, United States of America
1.1524754296652193	43.8897803	-92.8364760807336	294	Hayfield, VA, United States of America
1.1511847530757549	33.96717165	-84.6832395881206	295	Harrison, GA, United States of America
1.1498998823896753	42.3427122	-71.3758272580667	296	Wayland, MA, United States of America
1.1486207720074542	40.3382193	-74.6846029	297	Hun School, NJ, United States of America
1.1460796522997176	40.6998227	-73.4748467	299	Plainedge, NY, United States of America
1.1448175542963306	45.4497535	-122.808024240352	300	Southridge, OR, United States of America
1.1435610392266586	38.9491885	-77.1665079	301	Langley, VA, United States of America
1.1423100639691526	39.1453143	-84.364127405997	302	Mariemont, OH, United States of America
1.1410645858766986	40.54900865	-111.860916705025	303	Alta, UT, United States of America
1.1398245627698538	39.0289815	-77.1981184	304	Bullis, MD, United States of America
1.1385899529301995	41.2236533	-86.4252849	305	Culver Academy, IN, United States of America
1.1373607150938105	45.0838098	-93.0069303	306	White Bear Lake, MN, United States of America
1.1361368084448376	40.5348199	-75.5051837	307	Emmaus, PA, United States of America
1.1324966740533913	40.1219539	-83.0989496709546	310	Dublin Scioto, OH, United States of America
1.1312936927386648	37.3427658	-121.918110173237	311	Bellarmine Prep, CA, United States of America
1.1300958450362972	42.9104522	-76.5507374	312	Auburn, NY, United States of America
1.1289030926902017	35.7457025	-78.8382514629026	313	Apex, NC, United States of America
1.1277153978504344	39.8945915	-75.3719465493986	314	Strath Haven, PA, United States of America
1.126532723067606	41.06880875	-73.6996917065398	315	Brunswick School, CT, United States of America
1.1253550312873881	37.7908735	-122.445576811572	316	University SF, CA, United States of America
1.124182285845111	44.6051884	-75.168457	317	Canton Central, NY, United States of America
1.1230144504604522	42.4509118	-74.5776495	318	South Jefferson, NY, United States of America
1.1218514892322136	43.1514749	-70.84089	319	St Thomas Aquinas, NH, United States of America
1.1206933666331858	35.1108421	-80.76364819999999	320	Charlotte Providence, NC, United States of America
1.1195400475050998	40.3578709	-74.6554332	321	Princeton HS, NJ, United States of America
1.1183914970536586	40.6200347	-74.5677171	322	Pingry, NJ, United States of America
1.117247680843654	40.09067845	-83.0291908390627	323	Thomas Worthington, OH, United States of America
1.116108564794162	40.4964701	-74.6557896	324	Hillsborough, NJ, United States of America
1.1149741151738184	42.0297007	-71.2036696483533	325	Mansfield, MA, United States of America
1.1127190820151067	40.7739961	-73.4022992	327	Half Hollow Hills East, NY, United States of America
1.111598432720356	32.6917186	-117.1817001	328	Coronado, CA, United States of America
1.110482318333066	41.13353025	-74.1100881791337	329	Suffern, NY, United States of America
1.1093707068014498	39.98793695	-74.9438015956539	330	Moorestown, NJ, United States of America
1.1082635663965015	41.4509	-71.4690999	331	Prout School, RI, United States of America
1.1071608657077832	40.00544155	-75.4228891134414	332	Episcopal Academy, PA, United States of America
1.106062573639279	40.9967714	-74.1920109743855	333	Ramapo, NJ, United States of America
1.1049686594053139	39.9796447	-75.5653868	334	West Chester East, PA, United States of America
1.1038790925265376	40.6539913	-73.601795	335	Freeport, NY, United States of America
1.1027938428259758	32.83177925	-96.800641047037	336	Highland Park II, TX, United States of America
1.1017128804251386	38.4669229	-77.4561887	337	North Stafford, VA, United States of America
1.1006361757401932	33.07225645	-117.230366116231	338	La Costa Canyon, CA, United States of America
1.0995636994781983	40.7356567	-74.2657026	339	Columbia, NJ, United States of America
1.0984954226333936	40.15311415	-75.1997546310871	340	Upper Dublin, PA, United States of America
1.0974313164835516	41.7362325	-72.7509292757843	341	Conard-West Hartford, CT, United States of America
1.0963713525863825	43.0453937	-76.4728887089275	342	Jordan-Elbridge, NY, United States of America
1.0953155027759987	40.3692196	-74.0015620226967	343	Rumson-Fair Haven, NJ, United States of America
1.09426373915943	40.7208073	-74.370989196874	344	Summit, NJ, United States of America
1.0932160341131978	39.59912935	-76.6596023713956	345	Hereford, MD, United States of America
1.0921723602799362	40.2621002	-75.1630703100395	346	Central Bucks South, PA, United States of America
1.0911326905650707	42.27815895	-71.1655042002054	347	Catholic Memorial, MA, United States of America
1.0900969981335435	41.55623195	-71.4485952335191	348	North Kingstown, RI, United States of America
1.089065256406592	39.0770529	-77.1833137	349	Wootton, MD, United States of America
1.0880374390585736	35.9607794	-79.0289107808845	350	East Chapel Hill, NC, United States of America
1.0870135200138413	28.52816935	-81.146428740795	351	Timber Creek, FL, United States of America
1.0859934734436651	38.3495624	-75.5732569	352	Parkside, MD, United States of America
1.0849772737632004	42.5070435	-71.3203159501964	353	Concord Carlisle, MA, United States of America
1.0839648956285017	42.13498935	-71.2484151099013	354	Walpole, MA, United States of America
1.0829563139335823	39.7385784	-75.5554784	355	Tatnall, DE, United States of America
1.0819515038075167	39.2750246	-77.0033637273565	356	Glenelg HS, MD, United States of America
1.0809504406115868	38.7344473	-77.80186	357	Highland School, VA, United States of America
1.0799530999364713	40.5925865	-74.6343546	358	Bridgewater-Raritan, NJ, United States of America
1.0789594575994759	40.3288746	-74.8019628981452	359	Hopewell Valley, NJ, United States of America
1.0779694896418048	39.8834425	-75.7196607	360	Unionville, PA, United States of America
1.0769831723258734	40.8092798	-72.9874046182782	361	Patchogue-Medford, NY, United States of America
1.076000482132658	38.7572962	-75.1494885	362	Cape Henlopen, DE, United States of America
1.0750213957590895	40.2454028	-75.6340730637132	363	Hill School, PA, United States of America
1.0740458901154786	45.0891207	-93.343797	364	Osseo-Park Center, MN, United States of America
1.0730739423229845	31.2673967	-85.3810444	365	Northview, GA, United States of America
1.072105529711118	39.03994495	-76.4534831848471	366	Broadneck, MD, United States of America
1.0711406298152788	38.8787187	-77.2820454957048	367	Oakton, VA, United States of America
1.0701792203743343	42.442884	-71.2332039805502	368	Lexington HS, MA, United States of America
1.069221279328227	42.6259385	-73.6913855456407	369	Columbia, NY, United States of America
1.0682667848156195	42.9922222	-76.3433332	370	Marcellus, NY, United States of America
1.0673157151715753	40.09126335	-76.4140231496244	371	Hempfield, PA, United States of America
1.0663680489252685	42.2568317	-71.0693283	372	Milton Academy, MA, United States of America
1.0644828416996184	42.2192249	-71.3231061	374	Dover-Sherborn, MA, United States of America
1.063545258729042	40.8384331	-73.6312389	375	North Shore, NY, United States of America
1.062610995169383	40.83005379999999	-73.6795819	376	Port Washington, NY, United States of America
1.0616800304871767	43.288116	-77.7933419	377	Hilton, NY, United States of America
1.0589067270739936	40.8043899	-74.4480122	380	Morristown Beard, NJ, United States of America
1.0579887561570833	38.90277075	-77.1407848998753	381	Yorktown, VA, United States of America
1.0552539589743462	43.6133556	-72.5454216	384	Woodstock, VT, United States of America
1.0543486674055782	30.0792562	-81.4479872685438	385	Nease, FL, United States of America
1.0534464978179112	40.75501425	-111.86007872533	386	Judge Memorial, UT, United States of America
1.0525474313986132	42.2525245	-71.7910001688388	387	Worcester Academy, MA, United States of America
1.051651449496552	43.2659168	-70.8645038	388	Berwick, ME, United States of America
1.0507585336203942	40.57369705	-111.888123053518	389	Jordan, UT, United States of America
1.04986866543683	41.0384302	-74.1434769	390	Northern Highlands, NJ, United States of America
1.0489818267688218	40.2773649	-74.2100164	391	Colt's Neck, NJ, United States of America
1.0480979995938764	40.8782306	-73.3421004166701	392	Northport, NY, United States of America
1.0472171660423406	43.7939687	-70.1947715	393	Yarmouth, ME, United States of America
1.0463393083957206	38.4836465	-90.5007414	394	Cranbrook, MI, United States of America
1.045464409085023	44.90942995	-93.5112004871135	395	Minnetonka, MN, United States of America
1.0445924506891189	42.9879381	-77.4141449	396	Victor, NY, United States of America
1.0437234159331301	39.7023341	-75.6954872	397	Choate, CT, United States of America
1.0428572876868365	37.5796741	-77.586755	398	Collegiate School, VA, United States of America
1.0411336829163373	40.6743513	-73.5643147	400	Calhoun, NY, United States of America
1.0402761728409455	40.8853684	-81.3947501	401	Hoover/No. Canton, OH, United States of America
1.0394215021698368	42.6999184	-71.1163794	402	North Andover, MA, United States of America
1.038569654472928	42.7387379	-71.4739405136301	403	Bishop Guertin, NH, United States of America
1.037720613455674	42.5446	-70.9742999	404	Peabody, MA, United States of America
1.0368743629576187	43.1163889	-75.2927777	405	Whitesboro, NY, United States of America
1.036030886950963	43.204799	-77.5527899	406	Eastridge, NY, United States of America
1.035190169539152	41.1917153	-73.6777247905449	407	Fox Lane, NY, United States of America
1.0343521949554835	37.66803425	-121.875377099148	408	Amador Valley, CA, United States of America
1.033516947561728	40.8944444	-73.9033332	409	Fieldston, NY, United States of America
1.032684411846774	40.9598203	-74.0493067	410	Bergen Catholic, NJ, United States of America
1.0318545724252866	40.02106335	-74.9533997445549	411	Holy Cross-Delran, NJ, United States of America
1.0310274140363842	40.429517	-79.6690070705011	412	Franklin Regional, PA, United States of America
1.0302029215423338	41.29341400000001	-72.619822	413	Daniel Hand-Madison, CT, United States of America
1.0293810799272602	40.30530905	-75.1377394613682	414	Central Bucks West, PA, United States of America
1.028561874295876	35.0882733	-80.849798	415	Charlotte Catholic, NC, United States of America
1.0277452898722221	33.4170959	-84.5627402	416	McIntosh, GA, United States of America
1.0269313119984314	34.1616721	-118.815648	417	Westlake, CA, United States of America
1.026119926133501	42.895364	-71.317286	418	Pinkerton, NH, United States of America
1.0245048728433064	42.3845334	-72.5108354524231	420	Amherst-Pelham, MA, United States of America
1.023701176909565	39.7419532	-75.5547268	421	Wilmington Friends, DE, United States of America
1.0229000159653892	42.1473471	-72.7537507	422	Westfield, MA, United States of America
1.0221013760362796	32.99885645	-117.025898955243	423	Poway, CA, United States of America
1.0213052432575762	35.098424	-89.8570311	424	Memphis Univ School, TN, United States of America
1.0205116038733384	40.82248745	-73.2023491812515	425	Hauppauge, NY, United States of America
1.019720444235239	38.7905226	-90.4889813	426	St Charles, IL, United States of America
1.0189317508014728	43.5916176	-70.3371097	427	Scarborough, ME, United States of America
1.0181455101356771	39.25959465	-76.7292521365685	428	Catonsville, MD, United States of America
1.0173617089058677	42.2644674	-87.8400694	429	Lake Forest, IL, United States of America
1.0165803338833859	39.8765774	-82.7552766	430	Pickerington, OH, United States of America
1.0158013719418602	37.8404819	-122.1460765	431	Miramonte, CA, United States of America
1.0150248100561798	42.0975869	-76.0482546597201	432	Union-Endicott, NY, United States of America
1.0142506353014829	38.8802258	-77.4064865	433	Chantilly, VA, United States of America
1.0127093959808329	41.31216985	-72.7119570639331	435	Guilford, CT, United States of America
1.011942306057446	40.7816605	-73.4587311	436	Plainview JFK, NY, United States of America
1.011177552548233	40.99453015	-73.7932680034856	437	Scarsdale, NY, United States of America
1.0104151230147982	38.9217797	-76.5599615	438	South River, MD, United States of America
1.0096550051131694	40.2907167	-111.6412338	439	Waterford, UT, United States of America
1.008897186592866	37.4531768	-122.191665178136	440	Menlo School, CA, United States of America
1.0081416552959825	39.25355915	-76.8702477135574	441	Centennial, MD, United States of America
1.0073883991562793	41.5630556	-73.5969443	442	Trinity-Pawling, NY, United States of America
1.0066374061982868	38.9684958	-104.847213	443	Colorado Academy, CO, United States of America
1.005888664536419	40.68263	-75.252749	444	Easton, PA, United States of America
1.0036558298016598	40.208505	-75.096709653418	447	Archbishop Wood, PA, United States of America
1.001442837298028	36.1092849	-79.7864417	450	Greensboro Page, NC, United States of America
0.9999783806097414	43.1239669	-77.5908975989522	452	McQuaid Jesuit, NY, United States of America
0.9992493801673938	37.9511624	-122.5365928	453	Marin Catholic, CA, United States of America
0.9985225169214405	42.1166823	-73.4146878	454	Berkshire School, MA, United States of America
0.9977977799194829	41.6001022	-71.2708822	455	Portsmouth Abbey, RI, United States of America
0.9970751582891633	39.6042071	-105.075487596242	456	Columbine, CO, United States of America
0.9963546412374054	42.18135865	-70.9439389174459	457	Weymouth, MA, United States of America
0.9956362180496631	38.7315505	-121.21187472402	458	Granite Bay, CA, United States of America
0.9949198780891814	39.9610427	-86.2738546677571	459	Zionsville, IN, United States of America
0.9942056107962616	43.95810705	-75.9113279893039	460	Watertown HS, NY, United States of America
0.9934934056875384	42.1067937	-70.73867489739	461	Marshfield, MA, United States of America
0.9927832523552621	44.3445624	-73.1099672	462	Champlain Valley, VT, United States of America
0.9913690597629033	36.1289469	-86.8369442	464	Montgomery Bell Acad, TN, United States of America
0.9906650000590785	40.7806544	-72.8495473	465	William Floyd, NY, United States of America
0.9899629512428412	41.2642229	-73.19269	466	Trumbull, CT, United States of America
0.9892629032740735	45.4275204	-122.7024808	467	Lake Oswego, OR, United States of America
0.9885648461841463	40.6228095	-74.3140212	468	A.L.Johnson-Clark, NJ, United States of America
0.9871746651197977	38.9731554	-76.5674712347829	470	Annapolis, MD, United States of America
0.9864825215596655	26.618859	-80.6409984	471	Bolles, FL, United States of America
0.9857923297056684	33.6788923	-117.806863871358	472	Woodbridge, CA, United States of America
0.9851040799368712	40.651412	-73.5238933	473	Bellmore JFK, NY, United States of America
0.9844177626999772	41.6555757	-70.3206757785336	474	Barnstable, MA, United States of America
0.9837333685087108	38.8961	-77.2792099	475	Madison, VA, United States of America
0.9830508879432075	40.2678599	-80.1182008244671	476	Peters Township, PA, United States of America
0.9823703116494098	39.741585	-104.9559827	477	Denver East, CO, United States of America
0.9816916303384714	44.88253175	-93.3766693407895	478	Edina, MN, United States of America
0.9810148347861675	34.0628767	-84.3815932	479	Roswell, GA, United States of America
0.9803399158323111	38.14698415	-85.568372218277	480	Louisville Trinity, KY, United States of America
0.9796668643801756	41.6081492	-74.2990401	481	Pine Bush, NY, United States of America
0.9789956713959257	40.72266825	-73.4932508353811	482	Island Trees, NY, United States of America
0.9776588250068116	43.1544972	-77.706266878788	484	Gates-Chili, NY, United States of America
0.9769931538436818	40.7306507	-73.220733	485	Islip, NY, United States of America
0.9763293056308076	42.6103375	-73.8566187238381	486	Bethlehem, NY, United States of America
0.9756672716404658	44.496664	-73.2357519325485	487	Burlington, VT, United States of America
0.9750070432045301	39.5869266	-105.003629706601	488	Heritage, CO, United States of America
0.9736919686181942	40.68851595	-73.9024133515835	490	Holy Trinity, NY, United States of America
0.9730371054248018	39.9828955	-74.1954193	491	Toms River North, NJ, United States of America
0.9723840136988042	42.454775	-76.4970466746796	492	Ithaca, NY, United States of America
0.9717326850622522	44.45249345	-73.2007195331105	493	Rice Memorial, VT, United States of America
0.9710831111937102	33.58863425	-111.8109526	494	Desert Mountain, AZ, United States of America
0.9704352838277611	41.1450544	-81.8506909	495	Medina, OH, United States of America
0.9697891947545167	40.4515469	-79.94200459999999	496	Winchester Thurston, PA, United States of America
0.9691448358191346	42.41865575	-71.161906560951	497	Arlington, MA, United States of America
0.9685021989213374	42.32390075	-72.6523225634159	498	Northampton, MA, United States of America
0.9678612760149409	42.7359829	-78.6241745	499	East Aurora, NY, United States of America
0.9672220591073839	39.9306677	-75.32018780000001	500	Springfield-Delco, PA, United States of America
0.9665845402592659	43.16418295	-73.0778494569867	501	Burr-Burton Academy, VT, United States of America
0.9659487115838863	41.81131265	-87.8802093682677	502	Lyons Township, IL, United States of America
0.9653145652467922	33.29576255	-112.01671306988	503	Desert Vista, AZ, United States of America
0.9646820934653281	37.4534747	-79.1908592	504	Virginia Episcopal, VA, United States of America
0.9640512885081922	42.62164145	-71.3738803797843	505	Chelmsford, MA, United States of America
0.9634221426949965	41.1318755	-73.9558166381885	506	Clarkstown South, NY, United States of America
0.9627946483958305	40.0078006	-75.2792733854084	507	Lower Merion, PA, United States of America
0.9621687980308335	42.2251225	-70.8776890401925	508	Hingham, MA, United States of America
0.9615445840697654	40.20386035	-83.0202232516368	509	Olentangy HS, OH, United States of America
0.9609219990315869	34.044734	-118.2956306	510	Loyola-Los Angeles, CA, United States of America
0.960301035484042	35.077439	-80.7746835868932	511	Charlotte Latin, NC, United States of America
0.959681686043245	40.7987107	-73.5426253	512	Jericho, NY, United States of America
0.959063943373272	39.2992019	-76.8396083059577	513	Mount Hebron, MD, United States of America
0.9584478001857569	43.0168412	-71.0003155511422	514	Exeter HS, NH, United States of America
0.9578332492394905	42.64748465	-71.311935522624	515	Lowell, MA, United States of America
0.9572202833400261	39.3302419	-84.4310758984263	516	Lakota West, OH, United States of America
0.9566088953392851	40.88895955	-73.5918714747227	517	Locust Valley, NY, United States of America
0.9559990781351718	42.12954225	-70.8713456313137	518	Hanover, MA, United States of America
0.9553908246711877	30.3328019	-97.7009416	519	St John's, TX, United States of America
0.9547841279360529	41.0163671	-74.5519242440094	520	Jefferson Twp, NJ, United States of America
0.9541789809633284	40.8043715	-74.3750623147417	521	Hanover Park, NJ, United States of America
0.9535753768310452	39.81577685	-75.8151762647722	522	Avon Grove, PA, United States of America
0.9529733086613364	40.965908	-73.7879579	523	Iona Prep, NY, United States of America
0.9523727696200704	39.9802627	-86.1196065656726	524	Carmel, IN, United States of America
0.9517737529164919	43.65898225	-70.2588437354691	525	Portland, ME, United States of America
0.9511762518028638	47.74830545	-121.98180455	526	Holy Innocents, GA, United States of America
0.9505802595741141	40.26378655	-74.5221782963702	527	Peddie School, NJ, United States of America
0.9499857695674843	34.0751245	-84.2561252	528	Alpharetta, GA, United States of America
0.949392775162185	40.8196831	-72.6494083076982	529	Westhampton Beach, NY, United States of America
0.9488012697790509	41.7992663	-72.7523177	530	Northwest Catholic, CT, United States of America
0.9482112468802026	47.60422605	-122.198430332444	531	Bellevue, WA, United States of America
0.9476226999687093	29.9423267	-95.6527252569066	532	Cy-Fair, TX, United States of America
0.9470356225882564	43.1670236	-71.828412	533	Proctor, NH, United States of America
0.9464500083228158	39.4250375	-76.991008	534	Century, MD, United States of America
0.94586585079632	42.3990754	-71.4001700040642	535	Lincoln-Sudbury, MA, United States of America
0.9452831436723389	33.98980905	-84.4400399453192	536	Walton, GA, United States of America
0.9447018806537596	33.57609025	-111.932588487677	537	Chaparral, AZ, United States of America
0.9441220554824695	42.08901895	-87.8536262033248	538	Glenbrook South, IL, United States of America
0.9435436619390449	42.5352731	-71.1098491684049	539	Reading Memorial, MA, United States of America
0.942966693842438	40.7351019	-73.6879081	540	New Hyde Park, NY, United States of America
0.9412442809922672	37.46227555	-122.174647701133	543	Menlo-Atherton, CA, United States of America
0.9401030213729132	39.5222817	-104.965641495822	545	Mountain Vista, CO, United States of America
0.9395344782659737	42.5775266	-71.46351589999999	546	Westford Academy, MA, United States of America
0.9384015358530432	42.8619583	-73.8000404	548	Shenendehowa, NY, United States of America
0.9378371248130754	43.1542731	-71.5477547	549	Bow, NH, United States of America
0.9367123939973829	45.0448735	-93.5094021	551	Wayzata, MN, United States of America
0.9361520626994636	40.0492307	-83.0171283	552	Watterson, OH, United States of America
0.9355930798512274	34.1159315	-84.564932	553	Etowah, GA, United States of America
0.934479136839023	42.47982085	-71.4583269841174	555	Acton Boxborough, MA, United States of America
0.9339241654275707	44.9807698	-93.34184259999999	556	Breck, MN, United States of America
0.9333705199703054	40.9320429	-74.1251427	557	Fair Lawn, NJ, United States of America
0.9328181949272074	44.7446797	-93.1920016662017	558	Eastview, MN, United States of America
0.9322671847912789	40.5245332	-79.8884632352712	559	Shady Side Academy, PA, United States of America
0.93116908737652	44.0394864	-123.15144578945	561	Churchill, OR, United States of America
0.9306219892465174	40.8814442	-111.870281955492	562	Bountiful, UT, United States of America
0.9300761843208409	42.1885734	-83.74937	563	Saline, MI, United States of America
0.9295316672538194	39.69075	-121.5153246	564	Chico Red, CA, United States of America
0.9289884327313066	43.3964738	-70.548664	565	Kennebunk, ME, United States of America
0.92844647547044	34.7446492	-79.489038	566	St Andrew's College, CN, United States of America
0.9279057902194013	44.8176792	-93.3312902	567	Bloom Jefferson, MN, United States of America
0.9273663717571812	45.5279622	-122.821174188664	568	Sunset, OR, United States of America
0.9268282148933428	39.4745548	-77.3610315	569	Walkersville, MD, United States of America
0.9262913144677901	32.88324075	-96.7847122692215	570	Hillcrest, TX, United States of America
0.9257556653505385	42.3806752	-83.1098895	571	De La Salle, MI, United States of America
0.9252212624414854	35.9084044	-79.0902385361288	572	Pace Academy, GA, United States of America
0.9246881006701855	42.12179065	-72.641446243102	573	West Springfield, MA, United States of America
0.9241561749956257	42.6268105	-70.9756707	574	Masconomet, MA, United States of America
0.9236254804060043	41.03094825	-74.6676976012418	575	Pope John XXIII, NJ, United States of America
0.9225677645791095	35.77128295	-78.7662437950008	577	Cary HS, NC, United States of America
0.9220407334623206	38.9018713	-77.0101887	578	Gonzaga, DC, United States of America
0.9215149136710099	39.3262047	-77.3407907	579	Urbana, MD, United States of America
0.9209903003361761	40.7928793	-80.0758425	580	Seneca Valley, PA, United States of America
0.9199446736993373	42.1933581	-87.8014551	582	Highland Park, IL, United States of America
0.9189038151545166	40.7995447	-74.2059787	584	Glen Ridge, NJ, United States of America
0.9183851620371011	40.8603759	-73.2890049	585	Commack, NY, United States of America
0.9178676867413208	42.833984	-78.728937	586	West Seneca East, NY, United States of America
0.9173513845893344	34.02384975	-84.4522261531746	587	Pope, GA, United States of America
0.9163222811377173	42.45600145	-71.1341662183926	589	Winchester, MA, United States of America
0.9158094706141602	41.7158203	-83.7081642	590	Sylvania, OH, United States of America
0.9152978147861597	43.0445708	-75.872947	591	Chittenango, NY, United States of America
0.9147873091064767	42.5477	-83.2617999	592	Detroit Country Day, MI, United States of America
0.9142779490534222	39.122609	-76.6282995	593	Old Mill, MD, United States of America
0.9137697301306701	40.75271605	-73.1837394883089	594	East Islip, NY, United States of America
0.9132626478670727	45.6847194	-121.5465429	595	Hood River, OR, United States of America
0.9127566978164775	39.5913883	-104.747298695684	596	Grandview, CO, United States of America
0.9122518755575468	38.7863077	-77.2402379	597	West Springfield, VA, United States of America
0.9117481766935772	39.4496863	-75.6924834048931	598	Middletown, DE, United States of America
0.9112455968523202	44.05016759999999	-92.4251955	599	Rochester Century/JM, MN, United States of America
0.9107441316858086	41.14856015	-73.2637279923243	600	Fairfield-Ludlowe, CT, United States of America
0.910243776870178	36.8766111	-76.0292664	601	Cape Henry Collegiate, VA, United States of America
0.9097445281054967	40.2980916	-75.3560416	602	Souderton, PA, United States of America
0.9092463811155909	42.8113889	-77.6663888	603	Livonia, NY, United States of America
0.9087493316478759	40.6386744	-75.5491527302499	604	Parkland, PA, United States of America
0.9082533754731869	37.3886526	-77.4947533	605	Richmond LC, VA, United States of America
0.906772024763417	43.0241781	-78.7366604	608	Williamsville North, NY, United States of America
0.9062803999317486	28.58795735	-81.3906581888158	609	Bishop Moore, FL, United States of America
0.9057898475927693	42.26265965	-71.6162400235663	610	Westborough, MA, United States of America
0.9053003636543675	41.6970445	-73.8943944	611	Arlington, NY, United States of America
0.9048119440467098	33.1003966	-96.6586052	612	Allen, TX, United States of America
0.904324584722084	42.9434299	-85.52304079999999	613	Forest Hills Central, MI, United States of America
0.9038382816547417	37.90488835	-122.097365786881	614	Acalanes, CA, United States of America
0.9033530308407447	44.729396	-93.3784834112301	615	Prior Lake, MN, United States of America
0.9028688282978112	38.0895905	-122.571736	616	Novato, CA, United States of America
0.9023856700651639	40.3225097	-74.6006179	617	West Windsor-PB So, NJ, United States of America
0.9019035522033791	41.7344469	-70.4597584352984	618	Sandwich, MA, United States of America
0.9014224707942374	40.09965205	-75.2701401888487	619	Plymouth-Whitemarsh, PA, United States of America
0.9009424219405751	42.604433	-71.5628435838169	620	Lawrence Academy, MA, United States of America
0.9004634017661378	39.9725895	-105.246221204107	621	Fairview, CO, United States of America
0.8999854064154346	39.9214361	-74.8554318	622	Lenape, NJ, United States of America
0.8995084320535938	47.60570065	-122.301242318436	623	Garfield, WA, United States of America
0.8990324748662195	40.19777	-83.0987625	624	Liberty-Olentangy, OH, United States of America
0.89855753105925	40.1573811	-74.9485373269094	625	Neshaminy, PA, United States of America
0.8980835968588161	43.2818508	-76.1498637	626	Central Square, NY, United States of America
0.897610668511104	34.851354	-82.3984881	627	Greenville, SC, United States of America
0.8971387422822138	40.71591375	-74.0406138853098	628	St Peter's Prep, NJ, United States of America
0.8966678144580242	42.4639283	-83.4906800038312	629	Novi, MI, United States of America
0.8961978813440569	43.9105642	-69.8311364561996	630	Hyde-Bath, ME, United States of America
0.8957289392653398	40.8638204	-72.9242514481796	631	Longwood, NY, United States of America
0.8952609845662753	43.5909173	-70.2292137	632	Cape Elizabeth, ME, United States of America
0.8943280227807867	42.49203215	-70.8687295336433	634	Marblehead, MA, United States of America
0.8938630084788474	42.0952646	-71.4114805	635	Franklin, MA, United States of America
0.8933989671252707	42.2649238	-72.6742172426393	636	Williston Northampton, MA, United States of America
0.89293589515936	41.8814931	-70.6166995	637	Plymouth, MA, United States of America
0.8924737890390141	41.05535205	-74.6239956149296	638	Sparta, NJ, United States of America
0.8920126452405993	42.15464885	-70.8401319665693	639	Norwell, MA, United States of America
0.8915524602588264	39.8745176	-74.8974412277105	640	Cherokee, NJ, United States of America
0.8910932306066252	40.6617543	-74.312622	641	Cranford, NJ, United States of America
0.8906349528150217	38.5564132	-121.7505312	642	Davis, CA, United States of America
0.8901776234330172	34.3187653	-79.8811743	643	Darlington, GA, United States of America
0.889721239027467	40.0841673	-82.8148762461311	644	New Albany, OH, United States of America
0.8892657961829593	39.21605815	-76.9267008656082	645	River Hill, MD, United States of America
0.8888112915016981	44.08206835	-123.072281600678	646	Sheldon, OR, United States of America
0.8883577216033833	42.2844674	-87.9664641	647	Libertyville, IL, United States of America
0.8879050831250963	41.17476585	-111.975523654347	648	Bonneville, UT, United States of America
0.8874533727211813	42.2132092	-71.5267901996232	649	Hopkinton, MA, United States of America
0.8870025870631313	40.7356104	-73.9861587614155	650	St John Baptist, NY, United States of America
0.8865527228394748	32.6761927	-114.643758383861	651	Tucson, AZ, United States of America
0.8861037767556614	39.5758968	-77.758482	652	St James, MD, United States of America
0.8856557455339505	40.5902122	-105.0331632	653	Heritage Christian, IN, United States of America
0.8852086259132991	40.5643433	-111.945799675422	654	Bingham, UT, United States of America
0.8843171085138305	38.2701269	-76.6113486	656	Leonardtown, MD, United States of America
0.8838727042954282	40.2313336	-74.9448065	657	Council Rock North, PA, United States of America
0.8834291987986977	42.505715	-70.910476339482	658	Salem, MA, United States of America
0.8829865888444476	39.8399135	-75.7082784	659	Kennett, PA, United States of America
0.8825448712695343	42.2574341	-89.049966	660	Rockford, MI, United States of America
0.882104042926758	39.7706491	-76.7344250311156	661	Susquehannock, PA, United States of America
0.8816641006847588	43.0831301	-73.7845651	662	Saratoga Spgs, NY, United States of America
0.8812250414279105	40.1970949	-75.163972524242	663	Hatboro-Horsham, PA, United States of America
0.8807868620562217	41.5906968	-70.6088633914101	664	Falmouth HS, MA, United States of America
0.880349559485231	38.0755077	-78.5005554	665	Albemarle, VA, United States of America
0.8799131306459077	44.80741285	-93.1343200300958	666	Eagan, MN, United States of America
0.879477572484551	33.6343649	-117.878423971776	667	Corona Del Mar, CA, United States of America
0.8790428819626894	41.02080695	-73.8324183659328	668	Ardsley, NY, United States of America
0.8786090560569849	44.6013609	-72.6309496	669	Lamoille, VT, United States of America
0.8781760917591322	37.74769505	-121.945578573361	670	California, CA, United States of America
0.8777439860757636	38.2014433	-90.3928988	671	St Pius X, GA, United States of America
0.8773127360283514	43.0578253	-76.1190622	672	Henninger, NY, United States of America
0.8768823386531134	42.4272548	-71.0465998521096	673	Malden Catholic, MA, United States of America
0.8764527910009178	40.7025073	-73.3447958	674	West Babylon, NY, United States of America
0.875596233141814	40.8591544	-81.4913976	676	Massillon-Jackson, OH, United States of America
0.8751692171090508	45.02005865	-93.4161319292395	677	Armstrong, MN, United States of America
0.8747430391474358	38.80294435	-104.857174793489	678	Cheyenne Mountain, CO, United States of America
0.874317696379693	30.2729495	-97.7669278345007	679	Austin, TX, United States of America
0.8738931859426433	33.6186596	-117.6111099	680	J Serra Catholic, CA, United States of America
0.8734695049871152	39.3905794	-76.6002762716028	681	Towson, MD, United States of America
0.8730466506778559	40.67	-73.6608332	682	Malverne, NY, United States of America
0.8726246201934424	44.80852845	-73.0830665784586	683	Bellows Free Academy, VT, United States of America
0.8722034107261951	38.8220478	-77.2075747	684	Annandale, VA, United States of America
0.8717830194820887	45.0601286	-92.94379599999999	685	Mahtomedi, MN, United States of America
0.8713634436806686	35.0304484	-85.2599951	686	McCallie, TN, United States of America
0.8709446805549641	47.52245525	-122.028659288438	687	Issaquah, WA, United States of America
0.8705267273514024	41.6881574	-71.2697709	688	Mount Hope, RI, United States of America
0.8701095813297267	42.0582992	-72.5240620818223	689	East Longmeadow, MA, United States of America
0.8696932397629105	39.0439925	-77.172990652889	690	Churchill, MD, United States of America
0.8692776999370759	37.2777997	-79.9384281	691	Saint Andrews, DE, United States of America
0.8688629591514105	42.12968015	-71.043622816625	692	Avon HS, CT, United States of America
0.8684490147180868	39.5414903	-76.9924814	693	Westminster, MD, United States of America
0.8676235042215878	33.50419249999999	-117.6507716	695	Saint Margaret's, CA, United States of America
0.8672119328469513	32.8413139	-117.278217989881	696	Bishop's School, CA, United States of America
0.8668011472015751	39.9348351	-75.0307263	697	Cherry Hill West, NJ, United States of America
0.8663911446613489	42.3282822	-71.6074425509687	698	Algonquin, MA, United States of America
0.8659819226146698	44.017855	-95.7615204	699	Hill-Murray, MN, United States of America
0.8655734784623643	41.74752635	-71.3206242536853	700	Barrington, RI, United States of America
0.8651658096176115	42.6305334	-76.1893646468257	701	Homer, NY, United States of America
0.8647589135058683	44.866867	-93.32636755551	702	Centennial, MN, United States of America
0.8643527875647912	30.19432435	-95.5045786608027	703	The Woodlands, TX, United States of America
0.8639474292441639	47.7279727	-116.8104151	704	Lake City, ID, United States of America
0.8635428360058209	38.75307475	-77.4667721502182	705	Seton School, VA, United States of America
0.863139005323574	38.7174282	-77.2385395	706	South County, VA, United States of America
0.8619320635296577	34.4047169	-119.4798433	709	Cate School, CA, United States of America
0.8615312580469097	44.45460625	-73.177851500599	710	South Burlington, VT, United States of America
0.8611312026664316	40.534497	-75.3989016159337	711	Southern Lehigh, PA, United States of America
0.8607318949323782	35.4648376	-82.48762	712	Christ School, NC, United States of America
0.8599355126374718	40.3351571	-80.0706422	714	Upper St Clair, PA, United States of America
0.8595384332220267	42.7360516	-73.7473709231484	715	Shaker, NY, United States of America
0.8591420917436846	42.39280695	-82.9040665061426	716	Grosse Pointe South, MI, United States of America
0.8587464858032856	38.5772523	-90.5120413	717	Parkway South, MO, United States of America
0.8583516130128012	40.3439248	-87.8247509	718	Covenant, VA, United States of America
0.8579574709952694	42.7447595	-70.9193783	719	Triton-Byfield, MA, United States of America
0.8575640573847257	44.0935722	-70.2025508	720	Lewiston, ME, United States of America
0.8571713698261384	41.4270465	-71.4728343	721	Narragansett, RI, United States of America
0.8567794059753429	38.4945184	-77.9874354	722	Culpeper HS, VA, United States of America
0.856388163498976	42.3667625	-71.3031131	723	Weston, MA, United States of America
0.855997640074412	35.1668118	-80.7514584	724	Woodberry Forest, VA, United States of America
0.8556078333896981	45.239006	-93.3190352	725	Andover, MN, United States of America
0.8552187411434908	42.613531	-70.6751419	726	Gloucester, MA, United States of America
0.8548303610449928	40.7777808	-74.5912517090318	727	Mendham, NJ, United States of America
0.8544426908138895	40.2401673	-77.0615260049836	728	Cumberland Valley, PA, United States of America
0.8540557281802884	39.0577192	-77.0064633	729	Springbrook, MD, United States of America
0.8536694708846556	40.176766	-75.6563054	730	Owen J Roberts, PA, United States of America
0.8532839166777548	38.8551253	-77.7752307	731	Wakefield School, VA, United States of America
0.8528990633205872	42.20554775	-71.4450314626025	732	Holliston, MA, United States of America
0.8525149085843297	42.78523105	-71.1065216729894	733	Haverhill, MA, United States of America
0.8521314502502759	39.800199	-75.5210476	734	Brandywine, DE, United States of America
0.8517486861097763	40.7206583	-74.5654945832302	735	Bernards, NJ, United States of America
0.8513666139641782	40.8443902	-72.7493995	736	Eastport/South Manor, NY, United States of America
0.8506045369127133	38.6808178	-121.0715589	738	Oak Ridge, CA, United States of America
0.8502245276590025	40.86177815	-74.640792943145	739	Roxbury, NJ, United States of America
0.8498452017043904	40.7287118	-73.5559599	740	East Meadow, NY, United States of America
0.8494665568993389	42.96228	-78.7903109	741	Amherst, NY, United States of America
0.8490885911039614	39.2196122	-84.3592785378475	742	Cincinnati Sycamore, OH, United States of America
0.8487113021879664	39.52953035	-76.3468870410099	743	Bel Air, MD, United States of America
0.8483346880306012	43.4445263	-71.5892042	744	Tilton School, NH, United States of America
0.8479587465205967	42.0728919	-71.3323046456334	745	King Philip, MA, United States of America
0.8475834755561126	34.04719825	-118.531581872966	746	Palisades Charter, CA, United States of America
0.8472088730446821	37.7221877	-122.449000526358	747	Lick-Wilmerding, CA, United States of America
0.8468349369031583	42.3024378	-71.7446637922589	748	Shrewsbury, MA, United States of America
0.8464616650576597	32.97557605	-96.9997632733938	749	Coppell, TX, United States of America
0.846089055443517	41.13250295	-73.7854452746053	750	Pleasantville, NY, United States of America
0.8457171060052204	38.8093982	-77.0812583	751	Bishop Ireton, VA, United States of America
0.8453458146963657	41.24575245	-74.4892742947106	752	Vernon Township, NJ, United States of America
0.8449751794796029	42.6283244	-70.8482769	753	Hamilton-Wenham, MA, United States of America
0.8446051983265834	42.7128687	-71.1711695	754	Central Catholic, MA, United States of America
0.8442358692179095	39.0376119	-76.053277	755	Queen Annes County, MD, United States of America
0.8438671901430821	34.1508386	-118.7487007	756	Agoura, CA, United States of America
0.8434991591004499	45.562432	-122.902156543943	757	Liberty, OR, United States of America
0.8431317740971592	41.3172398	-72.9738311644653	758	Hopkins School, CT, United States of America
0.8427650331491037	39.3934504	-76.6747359074678	759	Park School, MD, United States of America
0.8420334755257091	40.7742653	-72.9223274	761	Bellport, NY, United States of America
0.8416686549254461	38.96819065	-104.84612191246	762	Air Academy, CO, United States of America
0.8413044705304723	39.9678804	-75.5991665	763	West Chester Henderson, PA, United States of America
0.8409409203996766	32.798165	-116.914648005576	764	Granite Hills, CA, United States of America
0.8405780026004008	41.41706305	-73.4701842617439	765	Danbury, CT, United States of America
0.8402157152083923	41.4420644	-73.6034463154583	766	Brewster, NY, United States of America
0.839854056307756	40.4525163	-74.4766712	767	North Brunswick, NJ, United States of America
0.8394930239909086	47.423236	-122.4581298	768	Vashon Island, WA, United States of America
0.8391326163585301	42.70833985	-73.8092678245316	769	Colonie, NY, United States of America
0.8384136675909412	42.2280476	-71.0042797484757	771	Archbishop Williams, MA, United States of America
0.8376971949739526	44.00693375	-73.1639788874456	773	Middlebury Union, VT, United States of America
0.8369831836058086	41.6111735	-71.2508454150901	775	Portsmouth, RI, United States of America
0.8366270962682503	34.0070442	-84.290479	776	Centennial, GA, United States of America
0.8362716187125945	40.9562092	-74.1212537	777	Glen Rock, NJ, United States of America
0.8359167491118428	39.1843661	-76.667445	778	NorthEast AA, MD, United States of America
0.835562485646811	38.8947006	-77.1609431407895	779	Bishop O'Connell, VA, United States of America
0.8348557698859757	39.74417505	-105.21164608271	781	Golden, CO, United States of America
0.8345033139904796	37.8671231	-122.271353388549	782	Berkeley, CA, United States of America
0.8341514570312343	38.9386375	-77.0751267	783	Sidwell Friends, DC, United States of America
0.8338001972274766	45.3630189	-122.617653745817	784	West Linn, OR, United States of America
0.833449532806	40.7648233	-73.6626294	785	Herricks, NY, United States of America
0.8330994620011146	41.3359272	-73.8740251	786	Putnam Valley, NY, United States of America
0.8324010942156849	43.187562	-77.6397246	788	Aquinas Institute, NY, United States of America
0.8320527937409677	36.7954163	-79.4941945	789	Flint Hill, VA, United States of America
0.8317050798944129	45.4015777	-122.769195375787	790	Tigard, OR, United States of America
0.831011405178155	35.2270869	-80.8431267	792	Charlotte North Meck, NC, United States of America
0.8306654408727723	38.04730895	-78.7052442724124	793	Western Albemarle, VA, United States of America
0.8303200563241148	42.2046584	-71.0181333503979	794	Braintree, MA, United States of America
0.8299752498323043	43.1236224	-77.5663994	795	Brighton, NY, United States of America
0.8296310197045775	34.1998549	-77.8921411	796	Wilmington Hoggard, NC, United States of America
0.8292873642552459	40.1178848	-82.9232433	797	Westerville South, OH, United States of America
0.8289442818056586	40.1556504	-76.3146795	798	Warwick, PA, United States of America
0.8286017706841641	45.029077	-92.84736199999999	799	Stillwater, MN, United States of America
0.8282598292260716	40.4066646	-74.2722247197172	800	Old Bridge, NJ, United States of America
0.8275776486759097	41.6039856	-73.1239992	802	Taft School, CT, United States of America
0.8272374062889276	32.951447	-97.153255	803	Southlake Carroll I, TX, United States of America
0.8265586091050249	41.3652189	-73.7569963204998	805	Mahopac, NY, United States of America
0.8262200510539538	39.2985688	-76.9032763673401	806	Chapelgate Christian, MD, United States of America
0.8258820512052322	29.6012195	-81.2340317	807	Matanzas, FL, United States of America
0.825544607948524	39.7506493	-75.2074	808	Clearview Regional, NJ, United States of America
0.8252077196801245	32.9947515	-117.065010408639	809	Rancho Bernardo, CA, United States of America
0.824871384802925	41.3189871	-72.3273047	810	Old Lyme, CT, United States of America
0.8245356017263774	38.8255028	-77.0943289	811	Episcopal HS, VA, United States of America
0.8242003688664586	32.96609835	-117.150068753275	812	Westview, CA, United States of America
0.8238656846456365	38.83519485	-94.6927587442671	813	Blue Valley West, KS, United States of America
0.8235315474928354	42.3131531	-71.1861651	814	Newton South, MA, United States of America
0.8228649081390677	41.14711945	-81.3478462628022	816	University School, OH, United States of America
0.8225324028279225	41.3513889	-73.9755555	817	O'Neill, NY, United States of America
0.8222004383643741	39.507596	-121.558077	818	Chico Grey, CA, United States of America
0.8215381258290989	42.35158615	-71.8744573491523	820	Wachusett, MA, United States of America
0.8212077746974903	43.2111919	-71.5570167	821	Bishop Brady, NH, United States of America
0.8208779582936475	42.2168967	-75.839481323669	822	Chenango Valley, NY, United States of America
0.8205486751030828	38.81851229999999	-77.1687535	823	Thos Jefferson, VA, United States of America
0.8202199236174318	40.8684557	-73.3586549	824	Harborfields, NY, United States of America
0.8198917023344201	39.7421068	-75.0766802	825	Washington Twp, NJ, United States of America
0.8195640097578326	35.9394422	-86.8773030254043	826	Franklin, TN, United States of America
0.8192368443974812	41.2636925	-75.8976968	827	Wyoming Seminary, PA, United States of America
0.8189102047691735	39.3842073	-88.9592429	828	Tower Hill, DE, United States of America
0.8185840893946815	36.06528515	-78.94353323404	829	Durham Riverside, NC, United States of America
0.8182584968017096	37.8910356	-122.0566293	830	Las Lomas, CA, United States of America
0.8179334255238655	43.0100575	-78.797256	831	Sweet Home, NY, United States of America
0.8176088741006273	40.729291	-73.5254889375394	832	Division-Levittown, NY, United States of America
0.8172848410773146	34.4658141	-119.181409740631	833	Thacher School, CA, United States of America
0.8169613250050571	40.71673885	-73.6903223163026	834	Sewanhaka, NY, United States of America
0.8166383244407662	42.6324478	-71.913257	835	Cushing Academy, MA, United States of America
0.8163158379471024	42.4323	-83.1538999	836	Univ Detroit Jesuit, MI, United States of America
0.8159938640924472	47.7201117	-116.777668929826	837	Coeur d'Alene, ID, United States of America
0.8156724014508737	41.2657181	-70.0683143	838	Nantucket, MA, United States of America
0.815351448602117	33.3256917	-111.991732185578	839	Mountain Pointe, AZ, United States of America
0.8143916346944071	42.14526845	-71.4072690747932	842	Medway, MA, United States of America
0.8140727069264809	42.1980789	-85.5866599026508	843	Portage Central, MI, United States of America
0.8137542819339558	42.27650535	-71.3609922356681	844	Natick, MA, United States of America
0.8134363583299309	42.41165125	-83.4948431221299	845	Northville, MI, United States of America
0.8128020097670541	41.15466715	-73.3276954327841	847	Staples-Westport, CT, United States of America
0.8124855820615942	40.2799548	-111.6457548	848	Timpview, UT, United States of America
0.8121696502513629	40.519195	-79.86958369999999	849	Fox Chapel, PA, United States of America
0.811854212976488	25.7231565	-80.2447719	850	Ransom Everglades, FL, United States of America
0.8115392688824198	38.3418227	-75.1906972	851	Stephen Decatur, MD, United States of America
0.8109108548449615	41.3487213	-73.1941493264072	853	Masuk-Monroe, CT, United States of America
0.8105973822188467	42.47861755	-70.9193797240363	854	Swampscott, MA, United States of America
0.810284397408036	42.65144585	-71.540995750282	855	Groton-Dunstable, MA, United States of America
0.8099718990841944	40.1900811	-75.52644	856	Spring-Ford, PA, United States of America
0.8096598859241503	39.9792137	-75.3852785	857	Marple Newtown, PA, United States of America
0.8093483566098691	41.8811428	-87.7889469	858	Fenwick, IL, United States of America
0.8090373098284281	42.88604305	-73.1909009635478	859	Mt Anthony Union, VT, United States of America
0.80872674427199	41.4098714	-73.2715494078504	860	Newtown, CT, United States of America
0.8084166586377779	41.13619355	-73.6901373968044	861	Byram Hills, NY, United States of America
0.8081070516280496	40.7364215	-80.3016846	862	Brighton, MI, United States of America
0.8077979219500725	38.4492	-90.3684999	863	Fox, MO, United States of America
0.8074892683160976	39.9519199	-105.141794978828	864	Monarch, CO, United States of America
0.8071810894433363	40.35005915	-74.0405577275094	865	Red Bank Regional, NJ, United States of America
0.8068733840539343	38.98734195	-77.3742492762203	866	Herndon, VA, United States of America
0.8065661508749463	37.36882005	-121.838274997207	867	Foothill, CA, United States of America
0.8062593886383139	41.36778095	-72.922737875568	868	Hamden, CT, United States of America
0.8059530960808386	34.1844498	-118.951802911968	869	Newbury Park, CA, United States of America
0.8056472719441595	39.9837231	-75.3010194	870	Haverford HS, PA, United States of America
0.805341914974728	41.4178706	-70.595999	871	Martha's Vineyard, MA, United States of America
0.8050370239237843	42.576645	-71.781195	872	St Bernard-Fitchburg, MA, United States of America
0.8047325975473345	42.3938659	-71.2296977001954	873	Waltham, MA, United States of America
0.8044286346061256	45.06401145	-93.1807215101458	874	Mounds View, MN, United States of America
0.8041251338656229	33.5271688	-111.906611842548	875	Saguaro, AZ, United States of America
0.8038220940959863	42.2813889	-83.70264300000001	876	Ann Arbor Huron, MI, United States of America
0.8035195140720469	42.9513738	-77.5866728	877	Honeoye Falls-Lima, NY, United States of America
0.8032173925732853	37.2563123	-76.7258298	878	Walsingham Academy, VA, United States of America
0.8029157283838063	40.6593503	-80.0170742539153	879	Pine Richland, PA, United States of America
0.8026145202923188	42.31885485	-71.403216109992	880	Framingham, MA, United States of America
0.8023137670921112	41.9853741	-72.6634243	881	Suffield HS, CT, United States of America
0.8020134675810294	40.3481711	-74.0656232	882	Red Bank Catholic, NJ, United States of America
0.8017136205614551	40.1337269	-74.768781	883	Pennsbury, PA, United States of America
0.8014142248402831	41.7822222	-73.6866666	884	Millbrook, NY, United States of America
0.8011152792288987	41.7939511	-72.7536243	885	Hall-West Hartford, CT, United States of America
0.8008167825431568	41.13382635	-73.8127326414474	886	Briarcliff, NY, United States of America
0.8002211312342338	34.06421515	-84.5131368565291	888	Kell, GA, United States of America
0.7999239742649114	40.21924075	-75.4565339561885	889	Perkiomen Valley, PA, United States of America
0.7996272615289064	41.022448	-74.2314433	890	Indian Hills, NJ, United States of America
0.7993309918640937	40.0249231	-75.31523539999999	891	Shipley, PA, United States of America
0.7990351641126888	38.63929895	-90.3973897578826	892	Ladue, MO, United States of America
0.798739777121226	33.30888235	-111.843761622495	893	Chandler, AZ, United States of America
0.7984448297405375	38.62122	-76.861963	894	Sts Peter & Paul, MD, United States of America
0.7981503208257331	43.6716363	-70.2958929	895	Deering, ME, United States of America
0.7978562492361789	43.04065655	-76.097194577617	896	Nottingham, NY, United States of America
0.7975626138354773	44.665078	-93.2574327	897	Lakeville, MN, United States of America
0.7972694134914459	41.782546	-88.1571556109788	898	Naperville North, IL, United States of America
0.7969766470760982	42.3064815	-71.8245162	899	St Peter Marian, MA, United States of America
0.7966843134656224	42.10342355	-72.5856957702823	900	Cathedral Springfield, MA, United States of America
0.7963924115403617	42.9127778	-76.8688888	901	Waterloo, NY, United States of America
0.7961009401847947	40.5347971	-111.8821486	902	Juan Diego Catholic, UT, United States of America
0.7958098982875149	42.2114684	-71.6951051	903	Grafton, MA, United States of America
0.7955192847412114	41.93722085	-71.4505749393112	904	Lincoln, RI, United States of America
0.7952290984426493	43.6507561	-116.336902104469	905	Centennial, ID, United States of America
0.7946500031960734	45.4771686	-122.691128922746	907	Wilson, OR, United States of America
0.7943610920617941	41.3003244	-72.53255639999999	908	Morgan-Clinton, CT, United States of America
0.7937845373356097	42.68439675	-84.456141	910	Okemos, MI, United States of America
0.7934968915813746	35.97263600000001	-79.697805	911	SouthEast Guilford, NC, United States of America
0.79320966546474	40.04226555	-75.3165399284129	912	Harriton, PA, United States of America
0.7929228579143865	40.63282405	-73.9523034573947	913	Midwood, NY, United States of America
0.7926364678628988	39.94757525	-75.3481673121681	914	Cardinal O'Hara, PA, United States of America
0.7923504942467486	34.0484502	-84.2085954	915	Chattahoochee, GA, United States of America
0.7920649360062745	43.1409185	-70.9170031	916	Oyster River, NH, United States of America
0.791779792085665	40.782876	-73.1384456	917	Connetquot, NY, United States of America
0.7914950614329398	40.8745177	-74.26920369999999	918	West Essex Regional, NJ, United States of America
0.7912107429999318	44.2446845	-72.5269458	919	U-32, VT, United States of America
0.7909268357422692	39.8569672	-74.717725	920	Seneca, NJ, United States of America
0.7906433386193579	33.32614265	-111.926568869609	921	Corona del Sol, AZ, United States of America
0.7903602505943632	40.1336993	-82.8974532631756	922	Westerville North, OH, United States of America
0.7900775706341925	43.21498055	-123.353895932755	923	Roseburg, OR, United States of America
0.7897952977094773	28.73563115	-81.3366099738316	924	Lake Mary, FL, United States of America
0.7892319688674613	44.7422383	-93.2299596996104	926	Apple Valley, MN, United States of America
0.7886702559072001	43.0174406	-76.1734319	928	Corcoran, NY, United States of America
0.7883900028483865	40.6967728	-74.8835206652834	929	Voorhees, NJ, United States of America
0.7881101507260655	40.9288105	-72.6756690654701	930	Riverhead, NY, United States of America
0.7878306985364579	40.201824	-77.1893887	931	Carlisle, PA, United States of America
0.7875516452793718	43.3305685	-73.6924559057056	932	Queensbury, NY, United States of America
0.7872729899581875	40.56279420000001	-75.005436	933	Delaware Valley, NJ, United States of America
0.7869947315798386	41.82877585	-71.39734356005	934	Wheeler School, RI, United States of America
0.7867168691547971	41.6156339	-72.8611198766516	935	Southington, CT, United States of America
0.7864394016970577	36.7407825	-119.7826442	936	Cathedral Catholic, CA, United States of America
0.7858856477569696	43.11631725	-88.3486190993024	938	Arrowhead, WI, United States of America
0.7856093593200716	40.741389	-73.6577776	939	Mineola, NY, United States of America
0.7853334619413432	40.2417733	-75.2687859	940	Lansdale Catholic, PA, United States of America
0.7847828364872622	40.7527937	-74.184769	942	Newark Academy, NJ, United States of America
0.7845081064848898	40.1281743	-74.0490478	943	Manasquan, NJ, United States of America
0.783959807137411	38.7628566	-77.4484807	945	Osbourn Park, VA, United States of America
0.78341304898287	39.3896693	-104.856866	947	Douglas County, CO, United States of America
0.7831402454842238	43.6425662	-79.3870568	948	Hagersville, CN, United States of America
0.7828678244479911	40.62819115	-74.8835248925097	949	North Hunterdon, NJ, United States of America
0.7825957849358015	26.304503	-80.26945700000002	950	Douglas, FL, United States of America
0.7823241260125717	33.2512215	-111.843452696251	951	Hamilton, AZ, United States of America
0.7820528467464899	43.7891632	-75.4917439	952	Lowville, NY, United States of America
0.7817819462090019	40.7149336	-73.5817628272131	953	Kellenberg, NY, United States of America
0.781511423474795	35.9747179	-80.005827	954	Grant Park, CN, United States of America
0.7812412776217853	33.954959	-117.328993	955	Canyon Crest, CA, United States of America
0.7809715077311009	42.9718784	-78.6316321027381	956	Clarence, NY, United States of America
0.7807021128870689	30.6626908	-88.1669465	957	St Luke's, CT, United States of America
0.7804330921772001	39.2260365	-76.812067243631	958	Howard, MD, United States of America
0.7801644446921753	36.0454346	-80.2599087	959	St Peter's, CN, United States of America
0.7798961695258297	41.5931836	-70.9775741819829	960	Dartmouth, MA, United States of America
0.7796282657751405	39.8926823	-75.3060413010849	961	Interboro, PA, United States of America
0.7790935689242597	40.8371414	-81.9463039	963	Wooster, OH, United States of America
0.7788267740336002	44.6749325	-74.9809037	964	Potsdam, NY, United States of America
0.7785603469776341	44.556739	-69.7168963731145	965	Messalonskee, ME, United States of America
0.7782942868688327	42.6018221	-71.2423894	966	Tewksbury Memorial, MA, United States of America
0.778028592822725	39.06943565	-84.3488692635515	967	Anderson, OH, United States of America
0.7774982993959129	40.8423218	-74.2962596	969	Caldwell, NJ, United States of America
0.7772336982614307	41.964821	-71.447559	970	Cumberland, RI, United States of America
0.7769694596820604	39.6946252	-105.144934545025	971	Green Mountain, CO, United States of America
0.7764420667140801	40.97115555	-72.2002149483579	973	East Hampton, NY, United States of America
0.7761789105956112	40.54474099999999	-80.189606	974	Sewickley Academy, PA, United States of America
0.7759161135725088	39.95721475	-75.2844390544217	975	Upper Darby, PA, United States of America
0.7753915933850833	41.0701861	-73.84337230000001	977	Hackley, NY, United States of America
0.775129868514397	40.9213438	-72.7248928	978	Middle Country, NY, United States of America
0.7748684993263245	42.3457322	-71.2085588532235	979	Newton North, MA, United States of America
0.7746074849749227	42.1621643	-76.8240741	980	Horseheads, NY, United States of America
0.7743468246171218	42.09420805	-87.9694251939445	981	Saint Viator, IL, United States of America
0.7740865174127111	28.6733304	-81.2183982	982	Oviedo, FL, United States of America
0.7738265625243269	37.9793212	-84.498751221847	983	Lexington Tates Creek, KY, United States of America
0.7735669591174413	38.92215785	-94.7397828793408	984	St Thomas Aquinas, KS, United States of America
0.7733077063603477	39.5617737	-76.3302368	985	Milton, MA, United States of America
0.7730488034241499	40.7902778	-73.9713888	986	Trinity School, NY, United States of America
0.7727902494827488	45.30680125	-122.746661320245	987	Wilsonville, OR, United States of America
0.7725320437128309	45.5418615	-122.992444910981	988	Glencoe, OR, United States of America
0.7722741852938557	40.58374395	-79.9401157147933	989	Hampton, PA, United States of America
0.7720166734080435	43.0962143	-79.0377388	990	Niagara District, CN, United States of America
0.7717595072403636	32.8857964	-79.7592112	991	Wando, SC, United States of America
0.7715026859785225	40.6849378	-111.822897438099	992	Olympus, UT, United States of America
0.7712462088129505	39.9559945	-74.1946860979362	993	Toms River South, NJ, United States of America
0.7709900749367922	40.36307499999999	-74.687815	994	Princeton Day, NJ, United States of America
0.770734283545893	40.74194	-73.0547199	995	Bayport-Blue Point, NY, United States of America
0.7704788338387873	47.4069344	-122.0334405	996	Maple Valley, WA, United States of America
0.7702237250166886	37.7532062	-122.154881820827	997	Bishop O'Dowd, CA, United States of America
0.76971452684568	38.9558741	-92.1282375	999	Lindbergh, MO, United States of America
0.7694604359124804	36.7749397	-76.6200653271291	1000	Nansemond-Suffolk Acad, VA, United States of America
0.7692066826956846	47.60020645	-122.031610630111	1001	Skyline, WA, United States of America
0.7689532664097211	42.5600339	-83.2932663	1002	Bloomfield Hills, MI, United States of America
0.7687001862716272	39.98391	-75.261518	1003	Friends Central, PA, United States of America
0.768447441501039	44.9772995	-93.2654691	1004	Minneapolis, MN, United States of America
0.7681950313201779	42.25414425	-71.0006282025798	1005	Quincy, MA, United States of America
0.767942954953841	39.8991973	-75.06049	1006	Paul VI, VA, United States of America
0.7676912116293905	39.30869295	-123.802094779246	1007	Mendocino, CA, United States of America
0.767439800576741	42.575156	-71.0834525544947	1008	North Reading, MA, United States of America
0.7671887210283498	32.4481944	-93.7126971	1009	Captain Shreve, LA, United States of America
0.7669379722192059	36.5953	-121.900084490177	1010	Monterey, CA, United States of America
0.7664374637712069	40.7633333	-73.3341666	1012	Deer Park, NY, United States of America
0.7661877026148892	38.7746612	-77.0733941349212	1013	West Potomac, VA, United States of America
0.7659382691628724	41.3236581	-111.984848877464	1014	Weber, UT, United States of America
0.7656891626626405	33.02856685	-96.750721583706	1015	Plano, TX, United States of America
0.7651919275197965	35.922502	-78.96258569999999	1017	Durham Jordan, NC, United States of America
0.7649437973844471	45.1325686	-93.4595724	1018	Maple Grove, MN, United States of America
0.7646959912153881	41.1915033	-81.4970808294655	1019	Walsh Jesuit, OH, United States of America
0.764448508272336	41.7508392	-99.297326	1020	Kent School, CT, United States of America
0.7642013478174219	39.9575461	-75.1586194	1021	Roman Catholic, PA, United States of America
0.7639545091151823	42.74378805	-84.6270287790457	1022	Lansing Waverly, MI, United States of America
0.7637079914325479	41.47356475	-81.5698558703001	1023	Shaker Heights, OH, United States of America
0.7634617940388351	40.800125	-73.73995339999999	1024	Great Neck North, NY, United States of America
0.7632159162057338	29.7071721	-95.5402493520622	1025	Strake Jesuit, TX, United States of America
0.7629703572072993	45.224573	-93.38192	1026	Anoka, MN, United States of America
0.7627251163199412	40.7926392	-73.6395699524749	1027	Roslyn, NY, United States of America
0.7624801928224139	41.6821461	-69.9598363	1028	St Christopher's, VA, United States of America
0.761991295123533	43.6217496	-70.2686591	1030	South Portland, ME, United States of America
0.761747319491323	40.2197857	-74.2824682	1031	Freehold Township, NJ, United States of America
0.7615036583872112	30.2435737	-81.6259261	1032	Episcopal Jacksonville, FL, United States of America
0.7612603111015285	46.5864939	-123.1115045	1033	Curtis, WA, United States of America
0.7610172769268918	41.4339992	-81.7915139	1034	Blessed Trinity, GA, United States of America
0.7607745551581948	33.34623175	-111.766494829613	1035	Gilbert, AZ, United States of America
0.7605321450925983	39.61412305	-104.985033909473	1036	Littleton, CO, United States of America
0.7602900460295205	36.3405847	-102.0762856	1037	Stratford, TX, United States of America
0.7600482572706287	32.78238415	-116.988000974297	1038	Grossmont, CA, United States of America
0.759806778119828	41.6365339	-70.9678925016017	1039	Bishop Stang, MA, United States of America
0.7595656078832538	40.1759388	-75.3976812	1040	Methacton, PA, United States of America
0.7593247458692617	41.7386585	-70.59267419999999	1041	Bourne, MA, United States of America
0.7590841913884175	32.83405585	-117.272892092514	1042	La Jolla HS, CA, United States of America
0.7588439437534905	41.7876875	-87.9338967063461	1043	Hinsdale Central, IL, United States of America
0.7586040022794412	47.248404	-122.461667941409	1044	Tacoma, WA, United States of America
0.7583643662834149	41.53704905	-72.0811945403935	1045	Norwich Free Academy, CT, United States of America
0.7581250350847304	39.6103807	-76.8610887	1046	North Carroll, MD, United States of America
0.7578860080048729	43.3219444	-76.411111	1047	Fulton, NY, United States of America
0.7576472843674841	38.4345106	-77.4511691	1048	Colonial Forge, VA, United States of America
0.7574088634983532	33.4912982	-86.712196	1049	Mountain Brook, AL, United States of America
0.7571707447254087	33.008321	-117.2440957	1050	San Dieguito, CA, United States of America
0.7569329273787089	40.154617	-82.9041421	1051	Westerville Central, OH, United States of America
0.7566954107904333	42.6977761	-71.4084483972303	1052	Tyngsborough, MA, United States of America
0.7564581942948747	42.496301	-71.0506772719111	1053	Wakefield, MA, United States of America
0.7562212772284287	41.7509327	-72.8676002	1054	Farmington, CT, United States of America
0.7559846589295867	40.0614886	-105.1066309	1055	Alexander Dawson, CO, United States of America
0.755748338738927	39.960325	-74.1874601	1056	Monsignor Donovan, NJ, United States of America
0.7555123159991057	42.72422295	-70.9859528045518	1057	Georgetown, MA, United States of America
0.7552765900548488	40.903155	-73.8112445	1058	Pelham Memorial, NY, United States of America
0.7550411602529429	38.6499316	-90.3468472163967	1059	Clayton, MO, United States of America
0.7548060259422281	40.2131617	-74.9760675	1060	Council Rock South, PA, United States of America
0.7545711864735883	42.1913486	-71.2152722347482	1061	Norwood, MA, United States of America
0.7543366411999435	39.1798717	-84.2406153455696	1062	Milford, OH, United States of America
0.7541023894762413	40.9814819	-73.7374425336433	1063	Harrison, NY, United States of America
0.7538684306594492	38.8022995	-77.2718110517746	1064	Lake Braddock, VA, United States of America
0.7536347641085456	34.0616763	-118.4117452	1065	Beverly Hills, CA, United States of America
0.7531683052503242	42.49801205	-71.1981901820925	1067	Burlington, MA, United States of America
0.7529355116709465	38.92345715	-77.1847740245733	1068	McLean, VA, United States of America
0.7527030078133204	42.3488187	-88.0443831	1069	Grayslake Central, IL, United States of America
0.752470793046359	42.8692408	-71.3793387200395	1070	Londonderry, NH, United States of America
0.7522388667409381	41.1600953	-73.85958	1071	Ossining, NY, United States of America
0.7520072282698882	43.7405766	-70.2728682	1072	Falmouth, ME, United States of America
0.7517758770079866	38.7556716	-76.0654963	1073	Easton, MD, United States of America
0.7515448123319507	30.5245955	-84.2747387	1074	Maclay, FL, United States of America
0.7513140336204278	33.7708615	-84.2969272	1075	Decatur, GA, United States of America
0.7510835402539902	40.1717754	-75.2273981	1076	Wissahickon, PA, United States of America
0.7508533316151247	40.9378396	-73.8305366	1077	Bronxville, NY, United States of America
0.7506234070882277	39.4143512	-76.35151479999999	1078	Joppatowne, MD, United States of America
0.7503937660595944	41.5131082	-81.5003991	1079	Hawken School, OH, United States of America
0.7501644079174139	42.0739637	-72.6450505172579	1080	Agawam, MA, United States of America
0.7499353320517607	41.53179895	-72.6203198874681	1081	Xavier, CT, United States of America
0.7494780247197128	26.8252013	-80.1020754365847	1083	Palm Beach Gardens, FL, United States of America
0.7492497920428252	38.3475164	-90.9801452	1084	Parkway North, MO, United States of America
0.7490218392214631	45.013599	-93.1527032	1085	Roseville, MN, United States of America
0.7487941656550148	40.1070586	-74.3448699	1086	Jackson Memorial, NJ, United States of America
0.7485667707447088	40.69667	-73.7186099	1087	Elmont, NY, United States of America
0.7483396538936066	40.80123595	-74.4861350017255	1088	Morristown, NJ, United States of America
0.7481128145065957	39.44732665	-76.8180679854226	1089	Franklin, MD, United States of America
0.7478862519903828	43.2004366	-71.551175	1090	Concord, NH, United States of America
0.7476599657534851	37.9964041	-78.4904421	1091	Tandem Friends, VA, United States of America
0.7474339552062249	41.3307535	-74.5393228201632	1092	Minisink Valley, NY, United States of America
0.7472082197607209	39.23904165	-76.4410946526604	1093	Sparrows Point, MD, United States of America
0.7469827588308824	42.5699445	-70.8470722	1094	Waring, MA, United States of America
0.7467575718324013	40.0848	-74.9868999	1095	Archbishop Ryan, PA, United States of America
0.7465326581827452	40.6906574	-73.6090172	1096	Lawrence, NY, United States of America
0.7463080173011508	39.8520207	-86.0808139369425	1097	Cathedral, IN, United States of America
0.7460836486086168	43.9418969	-69.9622229416776	1098	Mount Ararat, ME, United States of America
0.7458595515278964	39.5200937	-104.9206542	1099	Rock Canyon, CO, United States of America
0.7456357254834909	42.5814233	-82.8535291	1100	L'Anse Creuse, MI, United States of America
0.7454121699016433	39.4464902	-77.5341542	1101	Middletown, MD, United States of America
0.74518888421033	40.0620556	-75.2082336	1102	Chestnut Hill Academy, PA, United States of America
0.7449658678392559	45.5494788	-122.865007426937	1103	Westview, OR, United States of America
0.7445206407852382	37.8404753	-94.34113889999999	1105	Centennial/Meadows, NV, United States of America
0.7442984289702803	34.1484162	-84.1710764	1106	South Forsyth, GA, United States of America
0.7440764842115186	38.990733	-76.3092282020402	1107	Kent Island, MD, United States of America
0.7438548059471937	42.43709245	-82.8892243741671	1108	Grosse Pointe North, MI, United States of America
0.7436333936172339	41.0842631	-73.8570793	1109	Sleepy Hollow, NY, United States of America
0.7434122466632478	37.6048617	-76.5343957	1110	Christchurch, VA, United States of America
0.7431913645285184	40.8270431	-73.4259544	1111	Walt Whitman, NY, United States of America
0.7429707466579967	42.1169295	-76.2728687	1112	Owego Free Academy, NY, United States of America
0.7427503924982938	40.6790333	-75.3141021	1113	Moravian Academy, PA, United States of America
0.7425303014976768	28.58142005	-81.3915638173261	1114	Edgewater, FL, United States of America
0.7423104731060604	33.9404936	-118.126206509993	1115	Downey, CA, United States of America
0.7420909067750009	40.88179965	-73.627262143205	1116	Glen Cove, NY, United States of America
0.7418716019576906	42.04624425	-87.7021812492043	1117	Evanston Township, IL, United States of America
0.741652558108951	41.3732322	-72.8633704	1118	North Haven, CT, United States of America
0.7414337746852263	33.3422525	-84.5176227	1119	Starr's Mill, GA, United States of America
0.7412152511445768	40.9685405	-74.2372872145518	1120	Wayne Hills, NJ, United States of America
0.740996986946674	38.6119121	-77.3642193	1121	Forest Park, VA, United States of America
0.7407789815527933	39.0227062	-77.4906800773258	1122	Broad Run, VA, United States of America
0.7405612344258077	40.52487065	-111.960689300668	1123	Riverton, UT, United States of America
0.7403437450301821	42.6861973	-72.0439685	1124	Winchendon, MA, United States of America
0.7401265128319673	41.0205668	-73.7354869324799	1125	White Plains, NY, United States of America
0.7399095372987935	37.5457699	-122.3166361	1126	Serra-San Mateo, CA, United States of America
0.7396928178998642	40.331132	-75.6299489	1127	Boyertown, PA, United States of America
0.7394763541059508	40.8681583	-73.5837454	1128	Portledge, NY, United States of America
0.7392601453893853	34.836476	-87.6780838	1129	Buckingham, MA, United States of America
0.7390441912240566	43.3141667	-73.6505555	1130	Glens Falls, NY, United States of America
0.7388284910854013	47.6134559	-122.0313908	1131	Eastlake, WA, United States of America
0.7386130444504012	41.4787051	-73.3893213484487	1132	Brookfield, CT, United States of America
0.7383978507975744	37.612607	-122.4279914	1133	Peninsula, CA, United States of America
0.7381829096069719	28.5189072	-81.3660096211856	1134	Boone, FL, United States of America
0.7379682203601697	39.763616	-105.104473374666	1135	Wheat Ridge, CO, United States of America
0.7377537825402648	34.0070791	-81.7562181	1136	Riverside, SC, United States of America
0.7375395956318677	42.7535148	-71.4957937	1137	Nashua South, NH, United States of America
0.737325659121098	39.44309765	-77.04142025	1138	South Carroll, MD, United States of America
0.7368985352444274	37.3496123	-121.871570273378	1140	San Jose, CA, United States of America
0.7366853468582567	40.669459	-73.973348419	1141	Poly Prep, NY, United States of America
0.7364724068291626	36.0834689	-79.8150319	1142	Greensboro Grimsley, NC, United States of America
0.7362597146507219	40.256776	-75.7974829	1143	Daniel Boone, PA, United States of America
0.7360472698179861	41.4770068	-78.3686258	1144	Truman, PA, United States of America
0.7358350718274755	40.986957	-74.9664125203994	1145	Blair Academy, NJ, United States of America
0.7356231201771737	40.8551528	-73.3359557	1146	John Glenn-Elwood, NY, United States of America
0.7354114143665221	36.15359425	-115.236711276447	1147	Bonanza, NV, United States of America
0.7351999538964152	42.304404	-71.815298	1148	Bancroft, MA, United States of America
0.7347777669886404	38.81144	-90.8529106	1150	Wentzville, MO, United States of America
0.7345670395599728	41.3191677	-73.1189280510612	1151	Shelton, CT, United States of America
0.7343565554898408	40.2159266	-76.1155011	1152	Cocalico, PA, United States of America
0.7341463142863186	30.45588885	-97.7977960547478	1153	Westwood, TX, United States of America
0.7339363154589003	39.7614801	-75.2902098	1154	Kingsway Regional, NJ, United States of America
0.733726558518495	38.619346	-76.6088590312023	1155	Huntingtown, MD, United States of America
0.7333077683493996	39.6295559	-104.8009153	1157	Smoky Hill, CO, United States of America
0.7330987341495528	42.9906	-73.8559999	1158	Ballston Spa, NY, United States of America
0.7328899398943948	41.76008015	-72.7362497560195	1159	Kingswood-Oxford, CT, United States of America
0.7326813851018281	41.5025524	-73.16102959999999	1160	Pomperaug-Southbury, CT, United States of America
0.732473069291139	44.9575655	-93.4127916782346	1161	Hopkins, MN, United States of America
0.7322649919829916	38.5862944	-121.3510625	1162	Jesuit-Sacramento, CA, United States of America
0.7320571526994225	33.6803727	-117.7934588	1163	Eastlake, CA, United States of America
0.7318495509638366	44.92023825	-74.9028695974428	1164	Massena, NY, United States of America
0.7316421863010012	41.4380195	-71.9956445557092	1165	Ledyard, CT, United States of America
0.7314350582370408	42.8431445	-71.1153364	1166	Timberlane, NH, United States of America
0.7312281662994333	39.2812071	-84.2761155105828	1167	Loveland, OH, United States of America
0.7310215100170038	45.53887975	-122.627105486497	1168	Grant, OR, United States of America
0.7308150889199198	34.8622058	-85.8347410061685	1169	Stevenson, IL, United States of America
0.7306089025396866	39.6754963	-76.4010768878517	1170	North Harford, MD, United States of America
0.7304029504091419	39.02506835	-77.1301048813096	1171	Walter Johnson, MD, United States of America
0.7301972320624517	43.0039254	-78.7082432229032	1172	Williamsville East, NY, United States of America
0.7299917470351038	44.25404065	-72.7862737549447	1173	Harwood, VT, United States of America
0.7297864948639052	42.9567369	-77.0978034	1174	Midlakes, NY, United States of America
0.7295814750869752	42.4355935	-71.1930303	1175	Lexington Christian, MA, United States of America
0.7293766872437414	44.0491667	-122.9247221	1176	Thurston, OR, United States of America
0.7291721308749349	41.0490834	-73.9540163	1177	Tappan Zee, NY, United States of America
0.7289678055225858	44.8240494	-93.5899121485851	1178	Chaska, MN, United States of America
0.7287637107300173	34.1391776	-118.4135136	1179	Harvard-Westlake, CA, United States of America
0.7285598460418425	40.3874658	-75.2747359	1180	Pennridge, PA, United States of America
0.7283562110039585	42.3261324	-88.4312019	1181	Marian Catholic, IL, United States of America
0.7281528051635422	38.5890095	-76.6091255	1182	Calverton, MD, United States of America
0.7279496280690455	38.64943305	-90.4074513281316	1183	Chaminade Prep, MO, United States of America
0.7277466792701903	41.74752635	-71.3206242536853	1184	Barrington, IL, United States of America
0.7275439583179649	38.01704695	-84.5342417882846	1185	Lexington Catholic, KY, United States of America
0.7273414647646183	39.8267587	-77.8986091	1186	Mercersburg Academy, PA, United States of America
0.7271391981636555	39.80218175	-75.4541827133886	1187	Archmere Academy, DE, United States of America
0.7269371580698343	40.93082355	-74.2305578215728	1188	Wayne Valley, NJ, United States of America
0.726735344039159	38.7468636	-77.4676865777208	1189	Osbourn, VA, United States of America
0.7265337556288775	40.74722	-73.5644399	1190	Clarke, NY, United States of America
0.7263323923974749	42.9301763	-78.6705741506962	1191	Lancaster, NY, United States of America
0.7261312539046713	44.9504037	-93.1015025	1192	St Paul, MN, United States of America
0.7259303397114153	41.0078755	-73.7534648	1193	Archbishop Stepinac, NY, United States of America
0.7257296493798806	30.43743265	-84.2112677791628	1194	Lincoln-Tallahassee, FL, United States of America
0.725529182473461	39.1560025	-122.1571966	1195	Williams, CT, United States of America
0.7253289385567666	42.4980678	-83.3467341068515	1196	Farmington Hills, MI, United States of America
0.7251289171956191	41.70641645	-88.1994376638285	1197	Neuqua Valley, IL, United States of America
0.7249291179570471	40.43257195	-74.3985653684705	1198	East Brunswick, NJ, United States of America
