weight	latitude	longitude	rank	hs_name
7.51945378026559	39.39829565	-76.7724035842073	1	McDonogh School, MD, United States of America
5.9819998201101185	39.98793695	-74.9438015956539	2	Moorestown, NJ, United States of America
5.232825833326387	40.81222	-73.3894399	3	St. Anthony's, NY, United States of America
4.75889910271296	38.8178183	-77.1011477	4	Sts. Stephen's & Agnes, VA, United States of America
4.421057799529659	39.4250375	-76.991008	5	Century, MD, United States of America
4.162903863546375	39.36443	-76.62987	6	Bryn Mawr SG, MD, United States of America
3.9564341424901213	40.7317463	-74.4007444	7	Chatham, NJ, United States of America
3.785877858716706	43.0397885	-76.2657614	8	West Genesee, NY, United States of America
3.6415499053657103	39.4281283	-76.6875369031863	9	Maryvale Prep, MD, United States of America
3.5171127763150825	40.7316667	-73.2544443	10	Bay Shore, NY, United States of America
3.4082128387342285	27.62859005	-80.4035754155209	11	Vero Beach, FL, United States of America
3.3117419018154495	39.3229746	-76.9345443568182	12	Marriotts Ridge, MD, United States of America
3.225410444488128	39.8670558	-75.5032557	13	Garnet Valley, PA, United States of America
3.147487705924498	40.7076001	-73.4440122	14	Farmingdale, NY, United States of America
3.0766364339818812	40.97768845	-74.10647155	15	Ridgewood, NJ, United States of America
3.0118039596490895	40.0570949	-75.567083	16	Great Valley, PA, United States of America
2.9521481629564637	40.7330556	-73.6530555	17	Garden City, NY, United States of America
2.8969858071326935	38.90944	-77.0694399	18	Georgetown Visitation, DC, United States of America
2.845755644188063	40.0399648	-75.360608025	19	Radnor, PA, United States of America
2.7979915310392007	40.82248745	-73.2023491812515	20	Hauppauge, NY, United States of America
2.7533024862805373	40.79288105	-73.7045040358531	21	Manhasset, NY, United States of America
2.711357657614997	40.7777808	-74.5912517090318	22	Mendham, NJ, United States of America
2.6718748271859836	42.21701835	-71.2161230047884	23	Westwood, MA, United States of America
2.6346115076740895	40.1024408	-76.2998167483992	24	Manheim Township, PA, United States of America
2.5993579637498168	40.916255	-73.0744567809568	25	Ward Melville, NY, United States of America
2.5659316836744748	40.94151859999999	-72.8672934	26	Shoreham-Wading River, NY, United States of America
2.534172956572371	39.6299727	-104.880273	27	Cherry Creek V1, CO, United States of America
2.5039413022330104	40.8782306	-73.3421004166701	28	Northport, NY, United States of America
2.4751125650758006	42.14661575	-77.0479470054486	29	Corning, NY, United States of America
2.447576530482218	39.07779085	-76.5605181555464	30	Severna Park, MD, United States of America
2.4212349556135164	40.7995447	-74.2059787	31	Glen Ridge, NJ, United States of America
2.395999931818377	40.8443902	-72.7493995	32	Eastport-South Manor, NY, United States of America
2.3717925143457963	40.04226555	-75.3165399284129	33	Harriton, PA, United States of America
2.348541569081928	41.12858455	-73.489421231771	34	New Canaan, CT, United States of America
2.3261827966663255	40.6678787	-73.4531796	35	Massapequa, NY, United States of America
2.3046579024942484	38.96819065	-104.84612191246	36	Air Academy, CO, United States of America
2.2839138874102334	40.7058199	-73.8647893	37	Sacred Heart Acad, NY, United States of America
2.263902438803085	39.9306677	-75.32018780000001	38	Springfield (DelCo), PA, United States of America
2.225904344178967	40.7025073	-73.3447958	40	West Babylon, NY, United States of America
2.207840122948313	42.6982304	-73.9654422842923	41	Guilderland, NY, United States of America
2.1903525786492937	42.9084609	-77.27235259999999	42	Canandaigua Academy, NY, United States of America
2.1734102147762004	42.7323134	-73.8208427	43	Christian Brothers, NY, United States of America
2.156983937141008	39.6493139	-105.0561646	44	Kent Denver, CO, United States of America
2.141046820946736	40.6894488	-73.5132704684335	45	Wantagh, NY, United States of America
2.1255739050528186	42.2081552	-71.0058807	46	Thayer Academy, MA, United States of America
2.1105420097431895	39.8559543	-74.7761224	47	Shawnee, NJ, United States of America
2.09592957487529	39.5615926	-76.3301611	48	C. M. Wright, MD, United States of America
2.081716515758496	40.7350984	-73.0940003	49	Sayville, NY, United States of America
2.0678840945018746	39.4148265	-76.5786483	50	Notre Dame Prep, MD, United States of America
2.054414804898234	37.9331187	-122.033466625006	51	Carondelet, CA, United States of America
2.04129226918573	39.0376119	-76.053277	52	Queen Anne's County, MD, United States of America
2.028501145259191	40.1970949	-75.163972524242	53	Hatboro-Horsham, PA, United States of America
2.01602704309839	40.15311415	-75.1997546310871	54	Upper Dublin, PA, United States of America
2.003856449345829	40.86669015	-73.4567175492754	55	Cold Spring Harbor, NY, United States of America
1.9919766591071613	40.75271605	-73.1837394883089	56	East Islip, NY, United States of America
1.9803757141673255	30.63259635	-87.0453117621274	57	Milton, GA, United States of America
1.9690423469180196	39.35754439999999	-76.6338468	58	Roland Park Country, MD, United States of America
1.957965929380183	40.04778665	-75.4537537294326	59	Conestoga, PA, United States of America
1.947136426780887	40.9401412	-73.0271798	60	Mt. Sinai, NY, United States of America
1.9365443552093458	40.0094271	-75.2488642	61	Merion Mercy Academy, PA, United States of America
1.9261807429332733	28.70418265	-81.2654721962129	62	Winter Springs, FL, United States of America
1.9160370950058134	39.2992019	-76.8396083059577	63	Mt. Hebron, MD, United States of America
1.9061053608358167	40.8384331	-73.6312389	64	North Shore, NY, United States of America
1.8963779044313773	39.03994495	-76.4534831848471	65	Broadneck, MD, United States of America
1.8868474770588919	43.0604242	-77.5189882	66	Pittsford, NY, United States of America
1.8775071920882587	38.8720282	-76.8957652	67	St. Paul's SG, MD, United States of America
1.8683505018196964	42.3990754	-71.4001700040642	68	Lincoln-Sudbury, MA, United States of America
1.8593711761094778	39.25959465	-76.7292521365685	69	Catonsville, MD, United States of America
1.8505632826311114	42.7360516	-73.7473709231484	70	Shaker, NY, United States of America
1.8419211686254582	38.9217797	-76.5599615	71	South River, MD, United States of America
1.8334394440082604	40.7208073	-74.370989196874	72	Summit, NJ, United States of America
1.8251129657168235	39.8945915	-75.3719465493986	73	Strath Haven, PA, United States of America
1.816936823189364	43.1236224	-77.5663994	74	Brighton, NY, United States of America
1.808906324880992	40.8684557	-73.3586549	75	Harborfields, NY, United States of America
1.8010169857295912	40.331132	-75.6299489	76	Boyertown Area, PA, United States of America
1.793264515493172	42.28696755	-71.2316980574263	77	Needham, MA, United States of America
1.7856448078876563	41.04018275	-73.6133129328867	78	Greenwich HS, CT, United States of America
1.7781539304606802	33.07225645	-117.230366116231	79	La Costa Canyon, CA, United States of America
1.7707881151429337	39.9678804	-75.5991665	80	West Chester Henderson, PA, United States of America
1.7635437494238613	41.0850166	-73.4906280751206	81	Darien, CT, United States of America
1.7564173681033282	39.5389726	-76.3331499	82	John Carroll, MD, United States of America
1.749405645575139	40.00544155	-75.4228891134414	83	Episcopal Academy, PA, United States of America
1.7357135295464026	42.9482232	-85.6129143967942	85	East Grand Rapids, MI, United States of America
1.729027120020081	32.6917186	-117.1817001	86	Coronado, CA, United States of America
1.722443324927508	40.6200347	-74.5677171	87	Pingry School, NJ, United States of America
1.7159594168689976	39.14155015	-77.0457855235145	88	Our Lady of Good Counsel, MD, United States of America
1.7095727708812882	43.218001	-77.5983669	89	Irondequoit, NY, United States of America
1.7032808594906133	40.0462209	-75.3535211	90	Archbishop Carroll, PA, United States of America
1.6970812480566027	40.2313336	-74.9448065	91	Council Rock North, PA, United States of America
1.690971590386931	40.7306507	-73.220733	92	West Islip, NY, United States of America
1.6849496246042182	39.01490625	-77.0351496865924	93	Holy Cross, MD, United States of America
1.6731601195969859	39.5220529	-76.4131134	95	Fallston, MD, United States of America
1.6673884441942295	39.1462195	-76.6852462	96	Severn School, MD, United States of America
1.6616961815665559	39.6754963	-76.4010768878517	97	North Harford, MD, United States of America
1.6560814371210548	40.844657	-73.0110356	98	Sachem East, NY, United States of America
1.650542380210023	38.7572962	-75.1494885	99	Cape Henlopen, DE, United States of America
1.645077241352745	33.8131392	-118.068997010321	100	Los Alamitos, CA, United States of America
1.6396843096043783	42.6704885	-71.4262176	101	Notre Dame Acad, MA, United States of America
1.6343619300627878	38.2701269	-76.6113486	102	Leonardtown, MD, United States of America
1.6291085015048208	40.6936985	-74.5471314	103	Ridge, NJ, United States of America
1.6239224741441143	39.9837231	-75.3010194	104	Haverford, PA, United States of America
1.6188023475030962	39.1245335	-76.64682719999999	105	Archbishop Spalding, MD, United States of America
1.6137466683923223	40.83005379999999	-73.6795819	106	Port Washington, NY, United States of America
1.6087540289907953	40.9525987	-72.9253804	107	Rocky Point, NY, United States of America
1.6038230650213192	43.1369037	-77.4701760374478	108	Penfield, NY, United States of America
1.5989524540153517	37.66803425	-121.875377099148	109	Amador Valley, CA, United States of America
1.5941409136621967	40.3481711	-74.0656232	110	Red Bank Catholic, NJ, United States of America
1.5893872002377059	39.98592975	-105.111568528849	111	Centaurus, CO, United States of America
1.5846901071079813	40.89520265	-74.4273233602014	112	Mountain Lakes, NJ, United States of America
1.5800484633038712	39.98391	-75.261518	113	Friends' Central, PA, United States of America
1.5754611321623102	42.11058775	-72.4445531639882	114	Minnechaug, MA, United States of America
1.5709270100308177	39.59912935	-76.6596023713956	115	Hereford, MD, United States of America
1.566445025031694	40.1004231	-75.2070644	116	Springfield (MontCo), PA, United States of America
1.562014135882681	43.2004366	-71.551175	117	Concord, NH, United States of America
1.5576333307710422	38.8093982	-77.0812583	118	Bishop Ireton, VA, United States of America
1.5533016262782189	40.6991667	-73.3252777	119	Babylon, NY, United States of America
1.5490180663523836	40.4964701	-74.6557896	120	Hillsborough, NJ, United States of America
1.5447817213263788	38.3495624	-75.5732569	121	Parkside, MD, United States of America
1.5364470836351585	41.2045404	-73.4328986	123	Wilton, CT, United States of America
1.5323470553095735	43.158679	-76.3327099	124	Baldwinsville, NY, United States of America
1.5282907688807894	30.3328019	-97.7009416	125	St. John's, TX, United States of America
1.5242774133049135	40.1372446	-75.21528769999999	126	Germantown Academy, PA, United States of America
1.520306198860577	39.81577685	-75.8151762647722	127	Avon Grove, PA, United States of America
1.516376356425726	42.6999184	-71.1163794	128	Andover, MA, United States of America
1.5124871367843755	42.9879381	-77.4141449	129	Victor, NY, United States of America
1.5086378099618594	40.9213438	-72.7248928	130	Middle Country, NY, United States of America
1.5048276645871967	38.8787187	-77.2820454957048	131	Oakton, VA, United States of America
1.5010560072812704	39.3562213	-76.6272672680563	132	Friends' School, MD, United States of America
1.4973221620695891	40.6855452	-73.4937671507594	133	Seaford, NY, United States of America
1.4899652876935023	41.8395666	-72.6401410835967	135	Loomis Chaffee School, CT, United States of America
1.4863409886393792	42.9513738	-77.5866728	136	Honeoye Falls-Lima, NY, United States of America
1.4827519608798925	42.08292405	-87.7600667611925	137	Loyola Academy, IL, United States of America
1.4791976074373816	40.7107507	-74.3672938	138	Oak Knoll School, NJ, United States of America
1.4756773456706151	39.2750246	-77.0033637273565	139	Glenelg HS, MD, United States of America
1.472190606830314	39.8834425	-75.7196607	140	Unionville, PA, United States of America
1.4687368356315196	42.0554269	-72.5607093	141	Longmeadow, MA, United States of America
1.4653154898420475	40.6998227	-73.4748467	142	Plainedge, NY, United States of America
1.4619260398863223	42.2649238	-72.6742172426393	143	Williston Northampton, MA, United States of America
1.4585679684639046	39.7506493	-75.2074	144	Clearview Regional, NJ, United States of America
1.4552407701820766	33.65422815	-117.8901391	145	Monte Vista, CA, United States of America
1.451943951201873	28.58795735	-81.3906581888158	146	Bishop Moore, FL, United States of America
1.4486770288969713	40.1900811	-75.52644	147	Spring-Ford, PA, United States of America
1.4454395315248993	42.3282822	-71.6074425509687	148	Algonquin, MA, United States of America
1.442230997910028	40.0416337	-75.660066940317	149	Downingtown East, PA, United States of America
1.4390509771378568	41.038436	-73.626072	150	Greenwich Academy, CT, United States of America
1.43589902826011	40.032911	-75.1725330255426	151	Germantown Friends, PA, United States of America
1.4327747200102012	40.74194	-73.0547199	152	Bayport-Blue Point, NY, United States of America
1.429677630528631	42.8192309	-73.8897254296259	153	Niskayuna, NY, United States of America
1.4266073470979062	40.027319	-75.565855	154	Villa Maria Academy, PA, United States of America
1.4235634658866005	41.2789753	-73.8584444	155	Lakeland-Panas, NY, United States of America
1.4235634658866005	35.0928686	-89.8553645	155	Hutchison School, TN, United States of America
1.4175533377522007	40.7853765	-73.3717866	157	Half Hollow Hills, NY, United States of America
1.4145863254136777	40.01684785	-83.0546924783809	158	Upper Arlington, OH, United States of America
1.41164418401007	43.1481445	-76.2158114319789	159	Liverpool, NY, United States of America
1.4087265505958095	41.1450544	-81.8506909	160	Medina, OH, United States of America
1.4058330697479389	40.9714188	-73.717788	161	Webster Thomas, NY, United States of America
1.4029633933646244	39.57143665	-76.9768013304972	162	Winters Mill, MD, United States of America
1.400117180470272	42.9514554	-76.420768	163	Skaneateles, NY, United States of America
1.3972940970269903	42.45600145	-71.1341662183926	164	Winchester, MA, United States of America
1.3944938157521563	41.4098714	-73.2715494078504	165	Newtown, CT, United States of America
1.3917160159418493	37.9511624	-122.5365928	166	Marin Catholic, CA, United States of America
1.3889603832999342	42.1850346	-71.297188	167	Medfield, MA, United States of America
1.3862266097725748	41.6039856	-73.1239992	168	Taft School, CT, United States of America
1.3835143933879803	43.05792515	-77.6063444861447	169	Rush-Henrietta, NY, United States of America
1.3808234381011841	40.2953597	-74.0226274	170	Shore Regional, NJ, United States of America
1.37815345364367	39.7421068	-75.0766802	171	Washington Township, NJ, United States of America
1.375504155377669	39.60000985	-104.797958599554	172	Regis Jesuit, CO, United States of America
1.3728752641549526	40.97115555	-72.2002149483579	173	East Hampton, NY, United States of America
1.3702665061799608	42.4998317	-71.3684304807641	174	Middlesex School, MA, United States of America
1.3676776128771055	40.8745436	-74.2690363	175	West Essex, NJ, United States of America
1.3651083207621033	39.4189054	-76.7753229756711	176	Garrison Forest, MD, United States of America
1.3625583713171845	26.2100884	-81.7645312	177	Barron Collier, FL, United States of America
1.3600275108700532	37.74769505	-121.945578573361	178	California HS, CA, United States of America
1.3575154904764533	44.8546856	-93.4707859	179	Eden Prairie, MN, United States of America
1.3550220658062184	41.4900972	-72.9064913	180	Cheshire HS, CT, United States of America
1.3525469970326869	39.3905794	-76.6002762716028	181	Towson HS, MD, United States of America
1.3500900487253586	39.9214361	-74.8554318	182	Lenape, NJ, United States of America
1.3476509897456845	37.5796741	-77.586755	183	Collegiate School, VA, United States of America
1.3452295931458815	42.09447385	-87.7198764776642	184	New Trier, IL, United States of America
1.3428256360706659	38.89596485	-77.2790801769934	185	James Madison, VA, United States of America
1.3404388996618097	40.3692196	-74.0015620226967	186	Rumson-Fair Haven, NJ, United States of America
1.3380691689654227	40.6673246	-73.6209621	187	South Side, NY, United States of America
1.3357162328418646	40.5885116	-73.6578609	188	Long Beach, NY, United States of America
1.3333798838782052	37.4531768	-122.191665178136	189	Menlo School, CA, United States of America
1.331059918303145	37.2777997	-79.9384281	190	St. Andrew's, DE, United States of America
1.328756135904313	38.9751788	-76.4886206155201	191	St. Mary's, MD, United States of America
1.326468339947862	41.2144444	-74.016111	192	North Rockland, NY, United States of America
1.3241963371002945	40.01169005	-75.7178930752684	193	Downingtown West, PA, United States of America
1.3219399373524328	42.9127778	-76.8688888	194	Waterloo, NY, United States of America
1.3174732032990761	40.1724799	-74.5891851	196	Allentown, NJ, United States of America
1.315262504941341	41.1917153	-73.6777247905449	197	Fox Lane, NY, United States of America
1.3130666814407557	40.88166555	-73.2438755673074	198	Kings Park, NY, United States of America
1.3108855583399113	40.1281743	-74.0490478	199	Manasquan, NJ, United States of America
1.3087189640910044	37.36882005	-121.838274997207	200	Foothill, CA, United States of America
1.3065667299930546	39.5414903	-76.9924814	201	Westminster, MD, United States of America
1.3044286901307787	40.88895955	-73.5918714747227	202	Locust Valley, NY, United States of America
1.3023046813150727	40.7149336	-73.5817628272131	203	Kellenberg, NY, United States of America
1.3001945430250526	38.9491885	-77.1665079	204	Langley, VA, United States of America
1.298098117351603	42.2132092	-71.5267901996232	205	Hopkinton, MA, United States of America
1.2960152489423897	40.7356104	-73.9861587614155	206	St. John the Baptist, NY, United States of America
1.2939457849482896	41.87159675	-72.821883157628	207	Simsbury, CT, United States of America
1.2918895749711967	42.420573	-71.1279179	208	Brooks School, MA, United States of America
1.2898464710131614	42.8256495	-71.5801458	209	Souhegan, NH, United States of America
1.287816327426821	38.7315505	-121.21187472402	210	Granite Bay HS, CA, United States of America
1.2857990008670863	42.26265965	-71.6162400235663	211	Westborough, MA, United States of America
1.2837943502440428	42.7964724	-76.1140658	212	Tully, NY, United States of America
1.2818022366770354	43.0828198	-77.415935872457	213	Fairport, NY, United States of America
1.2798225234498959	40.8559314	-73.2006686	214	Smithtown East, NY, United States of America
1.2778550759672818	43.2035647	-77.4681161	215	Webster Schroeder, NY, United States of America
1.2758997617120966	40.8603759	-73.2890049	216	Commack, NY, United States of America
1.2720250129586712	42.0475245	-70.6793292488759	218	Duxbury, MA, United States of America
1.27010532344872	42.15464885	-70.8401319665693	219	Norwell, MA, United States of America
1.2681972570646776	40.8196831	-72.6494083076982	220	Westhampton Beach, NY, United States of America
1.2663006910775774	40.905315	-73.0124669	221	Comsewogue, NY, United States of America
1.2644155046021794	28.6823458	-81.4226193225388	222	Lake Brantley, FL, United States of America
1.2625415785611152	39.5349	-105.0113299	223	ThunderRidge, CO, United States of America
1.2606787956498888	38.5564132	-121.7505312	224	Davis, CA, United States of America
1.2588270403027086	40.0841673	-82.8148762461311	225	New Albany, OH, United States of America
1.2569861986591244	37.90488835	-122.097365786881	226	Acalanes, CA, United States of America
1.2551561585314495	43.288116	-77.7933419	227	Hilton, NY, United States of America
1.2533368093729476	41.2743037	-73.6095203	228	John Jay-Cross River, NY, United States of America
1.2515280422467578	40.99684405	-74.3765669112669	229	Kinnelon, NJ, United States of America
1.2497297497955444	41.7946687	-72.7508648321022	230	Hall, CT, United States of America
1.2479418262118442	40.9343048	-72.9901065	231	Miller Place, NY, United States of America
1.2461641672090995	37.8910356	-122.0566293	232	Las Lomas, CA, United States of America
1.2443966699933522	33.6343649	-117.878423971776	233	Corona Del Mar, CA, United States of America
1.2426392332355858	33.71732895	-117.781596283608	234	Beckman, CA, United States of America
1.2408917570446931	40.7806544	-72.8495473	235	William Floyd, NY, United States of America
1.239154142941057	38.824317	-77.4105839413102	236	Centreville, VA, United States of America
1.2374262938307268	41.48156625	-81.5416774277777	237	Hathaway Brown, OH, United States of America
1.2357081139801709	41.13353025	-74.1100881791337	238	Suffern, NY, United States of America
1.2339995089915972	40.0247924	-75.3151201	239	Shipley School, PA, United States of America
1.2323003857788186	40.26378655	-74.5221782963702	240	Peddie School, NJ, United States of America
1.2323003857788186	43.70149835	-116.401015562782	240	Eagle, ID, United States of America
1.228930218752858	34.04375225	-84.4739029975894	242	Lassiter, GA, United States of America
1.227258995115535	39.2787182	-76.6108001	243	Southern, MD, United States of America
1.2255968935610764	40.374194	-74.5634606	244	South Brunswick, NJ, United States of America
1.2239438272175585	39.9373953	-75.5533057	245	West Chester Rustin, PA, United States of America
1.2222997103906137	39.26689425	-84.3520989953498	246	Sycamore, OH, United States of America
1.2190379882731817	33.8426044	-84.431873	248	Westminster School, GA, United States of America
1.2174202172979212	42.8669444	-76.9874999	249	Geneva, NY, United States of America
1.2158110644305242	40.8289878	-73.4834562	250	Syosset, NY, United States of America
1.2142104495630732	38.9731554	-76.5674712347829	251	Annapolis, MD, United States of America
1.212618293647634	42.5775266	-71.46351589999999	252	Westford Academy, MA, United States of America
1.2110345186780878	39.8496978	-74.9670539897655	253	Eastern, NJ, United States of America
1.2094590476723497	37.8404819	-122.1460765	254	Miramonte, CA, United States of America
1.2078918046549563	39.6544107	-76.8779862605637	255	Manchester Valley, MD, United States of America
1.2063327146400171	29.9423267	-95.6527252569066	256	Cy-Fair, TX, United States of America
1.2047817036145214	41.7009328	-72.5934232	257	Glastonbury, CT, United States of America
1.2032386985219867	33.98980905	-84.4400399453192	258	Walton, GA, United States of America
1.2017036272464494	33.4170959	-84.5627402	259	McIntosh, GA, United States of America
1.200176418596779	40.5643433	-111.945799675422	260	Bingham, UT, United States of America
1.1986570022913163	39.46068935	-76.612585140643	261	Dulaney, MD, United States of America
1.1971453089428243	34.195283	-118.1825727	262	St. Francis, CA, United States of America
1.1956412700437424	42.9573719	-85.6669342	263	Catholic Central, MI, United States of America
1.1941448179517395	37.36882005	-121.838274997207	264	Foothill, CA, United States of America
1.1926558858755603	39.5829291	-104.962775007037	265	Arapahoe, CO, United States of America
1.1911744078611533	40.8633333	-73.2430555	266	Smithtown West, NY, United States of America
1.1897003187780752	42.8619583	-73.8000404	267	Shenendehowa, NY, United States of America
1.188233554306169	41.15466715	-73.3276954327841	268	Staples, CT, United States of America
1.186774050922504	42.6471435	-71.1322910355567	269	Phillips Andover Acad, MA, United States of America
1.1853217458885745	39.25355915	-76.8702477135574	270	Centennial, MD, United States of America
1.183876577237752	42.08600405	-76.0457894938925	271	Vestal, NY, United States of America
1.182438483762981	40.2955189	-75.353050273046	272	Souderton Area, PA, United States of America
1.181007405004717	43.3305685	-73.6924559057056	273	Queensbury, NY, United States of America
1.1795832812391003	40.8366091	-73.1014158157605	274	Sachem North, NY, United States of America
1.178166053466356	38.8947006	-77.1609431407895	275	Bishop O'Connell, VA, United States of America
1.1753520534527975	38.3418227	-75.1906972	277	Stephen Decatur, MD, United States of America
1.1739551667315928	38.87004485	-77.3197705621424	278	Flint Hill School, VA, United States of America
1.17256494702081	40.6397222	-73.6972221	279	Hewlett, NY, United States of America
1.171181338774808	42.8692408	-71.3793387200395	280	Londonderry, NH, United States of America
1.1698042871069814	27.6000901	-80.33890439999999	281	St. Edward's, FL, United States of America
1.168433737779625	35.80551335	-78.8668352256792	282	Green Hope, NC, United States of America
1.1670696371939957	38.7556716	-76.0654963	283	Easton, MD, United States of America
1.1657119323805587	41.2236533	-86.4252849	284	Culver Academy, IN, United States of America
1.164360570989417	32.99885645	-117.025898955243	285	Poway, CA, United States of America
1.163015501280918	40.719934	-74.36464699999999	286	Kent Place SG, NJ, United States of America
1.1616766721164367	40.3578709	-74.6554332	287	Princeton HS, NJ, United States of America
1.1603440329493298	43.6059077	-71.6520216	288	New Hampton School, NH, United States of America
1.159017533816053	43.1478404	-77.537776	289	Our Lady of Mercy, NY, United States of America
1.1576971253274488	40.6369444	-73.6299999	290	Oceanside, NY, United States of America
1.156382758660186	40.7356567	-74.2657026	291	Columbia, NJ, United States of America
1.1550743855483612	40.1070586	-74.3448699	292	Jackson Memorial, NJ, United States of America
1.1537719582752521	40.6676022	-73.6051284	293	Baldwin, NY, United States of America
1.1524754296652193	40.2159266	-76.1155011	294	Cocalico, PA, United States of America
1.1511847530757549	38.990733	-76.3092282020402	295	Kent Island, MD, United States of America
1.1498998823896753	40.8092798	-72.9874046182782	296	Patchogue-Medford, NY, United States of America
1.1486207720074542	26.3380911	-81.4267887	297	Pope John Paul II, FL, United States of America
1.1473473768396913	42.6999184	-71.1163794	298	North Andover, MA, United States of America
1.1460796522997176	38.0895905	-122.571736	299	Novato, CA, United States of America
1.1448175542963306	40.2197857	-74.2824682	300	Freehold Township, NJ, United States of America
1.1435610392266586	44.9218659	-93.3891775	301	Blake School, MN, United States of America
1.1410645858766986	39.2827324	-77.2094462410655	303	Damascus, MD, United States of America
1.1398245627698538	42.1166823	-73.4146878	304	Berkshire School, MA, United States of America
1.1385899529301995	43.1959141	-71.5747948	305	St. Paul's School, NH, United States of America
1.1373607150938105	33.640855	-117.603104	306	Santa Margarita CS, CA, United States of America
1.1361368084448376	41.4420644	-73.6034463154583	307	Brewster, NY, United States of America
1.134918192609201	37.8663111	-122.127081874152	308	Campolindo, CA, United States of America
1.1337048276483936	32.90851455	-117.112518961207	309	Scripps Ranch, CA, United States of America
1.1324966740533913	41.3278708	-73.5303072630782	310	Ridgefield, CT, United States of America
1.1312936927386648	39.54113985	-104.807585295479	311	Chaparral, CO, United States of America
1.1300958450362972	37.7532062	-122.154881820827	312	Bishop O'Dowd, CA, United States of America
1.1289030926902017	42.31885485	-71.403216109992	313	Framingham, MA, United States of America
1.1277153978504344	40.8098887	-74.7285183	314	West Morris Central, NJ, United States of America
1.126532723067606	40.1042819	-74.1293067	315	Brick Memorial, NJ, United States of America
1.1253550312873881	40.9731712	-73.6865301	316	Rye HS, NY, United States of America
1.124182285845111	40.74722	-73.5644399	317	Clarke, NY, United States of America
1.1218514892322136	39.6513889	-105.0366666	319	Mullen, CO, United States of America
1.1206933666331858	42.7268624	-78.8298435	320	Hamburg, NY, United States of America
1.1195400475050998	42.2607756	-71.4453561187979	321	Ashland, MA, United States of America
1.1183914970536586	41.292594	-73.8029119	322	Yorktown, NY, United States of America
1.117247680843654	39.9232086	-75.4314683	323	Penncrest, PA, United States of America
1.116108564794162	40.72919415	-74.1636541953012	324	Immaculate Heart, NJ, United States of America
1.1149741151738184	38.80294435	-104.857174793489	325	Cheyenne Mountain, CO, United States of America
1.1127190820151067	39.8467243	-75.7115931	327	Kennett Square, PA, United States of America
1.111598432720356	42.27650535	-71.3609922356681	328	Natick, MA, United States of America
1.110482318333066	39.741585	-104.9559827	329	Denver East, CO, United States of America
1.1093707068014498	37.8671231	-122.271353388549	330	Berkeley, CA, United States of America
1.1082635663965015	39.9802627	-86.1196065656726	331	Carmel, IN, United States of America
1.1071608657077832	40.2939665	-74.7290554	332	Lawrenceville School, NJ, United States of America
1.106062573639279	40.02106335	-74.9533997445549	333	Holy Cross, NJ, United States of America
1.1049686594053139	38.885289	-77.4645284	334	Westfield, VA, United States of America
1.1038790925265376	30.0498008	-89.9654201	335	Cranbrook Kingswood, MI, United States of America
1.1027938428259758	39.39169255	-76.4655725464706	336	Perry Hall, MD, United States of America
1.1017128804251386	39.3672791	-76.5895879	337	Mercy, MD, United States of America
1.1006361757401932	42.5352731	-71.1098491684049	338	Reading Memorial, MA, United States of America
1.0995636994781983	39.1896909	-76.8812352685969	339	Atholton, MD, United States of America
1.0974313164835516	43.95810705	-75.9113279893039	341	Watertown, NY, United States of America
1.0963713525863825	41.6292623	-73.310673	342	Gunnery, CT, United States of America
1.0953155027759987	42.260537	-71.1847489	343	Noble & Greenough, MA, United States of America
1.09426373915943	30.0443416	-81.6087654788025	344	Bartram Trail, FL, United States of America
1.0932160341131978	41.36890625	-72.2127679540828	345	East Lyme, CT, United States of America
1.0911326905650707	40.8423218	-74.2962596	347	Caldwell, NJ, United States of America
1.0900969981335435	28.6733304	-81.2183982	348	Oviedo, FL, United States of America
1.089065256406592	39.4464902	-77.5341542	349	Middletown, MD, United States of America
1.0880374390585736	34.0628767	-84.3815932	350	Roswell, GA, United States of America
1.0859934734436651	39.2260365	-76.812067243631	352	Howard, MD, United States of America
1.0849772737632004	37.8260372	-122.005794	353	San Ramon Valley, CA, United States of America
1.0839648956285017	42.9723104	-70.9564454	354	Exeter Area HS, NH, United States of America
1.0829563139335823	42.6887514	-70.8518328	355	Ipswich, MA, United States of America
1.0819515038075167	47.6262626	-122.5204512	356	Bainbridge Island, WA, United States of America
1.0809504406115868	42.4509118	-74.5776495	357	South Jefferson, NY, United States of America
1.0789594575994759	38.8022995	-77.2718110517746	359	Lake Braddock, VA, United States of America
1.0779694896418048	43.1183946	-77.8344528	360	Churchville-Chili, NY, United States of America
1.0769831723258734	39.1127457	-104.8628772	361	Palmer Ridge, CO, United States of America
1.076000482132658	39.9023046	-75.0267771353652	362	Haddonfield, NJ, United States of America
1.0750213957590895	41.1073506	-73.9312991	363	Nyack, NY, United States of America
1.0740458901154786	43.7594256	-71.6744516	364	Holderness School, NH, United States of America
1.0730739423229845	42.64954965	-83.7470925379929	365	Hartland, MI, United States of America
1.072105529711118	38.6808178	-121.0715589	366	Oak Ridge, CA, United States of America
1.0701792203743343	43.01362385	-75.9619659916267	368	Fayetteville-Manlius, NY, United States of America
1.069221279328227	40.782876	-73.1384456	369	Connetquot, NY, United States of America
1.0673157151715753	41.0384302	-74.1434769	371	Northern Highlands, NJ, United States of America
1.0663680489252685	42.6268105	-70.9756707	372	Masconomet, MA, United States of America
1.0654237647977285	38.905904	-77.2123123	373	George C. Marshall, VA, United States of America
1.0644828416996184	40.62819115	-74.8835248925097	374	North Hunterdon, NJ, United States of America
1.063545258729042	40.5934382	-73.9862499	375	LaFayette, NY, United States of America
1.062610995169383	27.5116847	-99.4830967	376	Ursuline Academy, TX, United States of America
1.0616800304871767	33.72525555	-117.883790932001	377	Mater Dei, CA, United States of America
1.060752344330009	40.1337269	-74.768781	378	Pennsbury East, PA, United States of America
1.0598279165244462	38.4935217	-122.7416541	379	Cardinal Newman, CA, United States of America
1.0589067270739936	40.9411788	-73.7435731	380	Mamaroneck, NY, United States of America
1.0579887561570833	40.56279420000001	-75.005436	381	Delaware Valley, NJ, United States of America
1.05707398412509	39.80218175	-75.4541827133886	382	Archmere Academy, DE, United States of America
1.0561623915003728	40.8564874	-73.4242871	383	Huntington, NY, United States of America
1.0552539589743462	42.5070435	-71.3203159501964	384	Concord-Carlisle, MA, United States of America
1.0543486674055782	42.0952646	-71.4114805	385	Franklin, MA, United States of America
1.0534464978179112	42.9922222	-76.3433332	386	Marcellus, NY, United States of America
1.0525474313986132	39.1453143	-84.364127405997	387	Mariemont, OH, United States of America
1.051651449496552	45.4275204	-122.7024808	388	Lake Oswego, OR, United States of America
1.0507585336203942	42.3427122	-71.3758272580667	389	Wayland, MA, United States of America
1.04986866543683	39.58766005	-105.131386772782	390	Chatfield, CO, United States of America
1.0489818267688218	42.5344789	-83.2629869	391	Marian, MI, United States of America
1.0480979995938764	40.1155415	-83.0558302	392	Worthington Kilbourne, OH, United States of America
1.0472171660423406	38.9917767	-77.1480345	393	Holton-Arms School, MD, United States of America
1.0463393083957206	39.0491051	-77.5094513630933	394	Stone Bridge, VA, United States of America
1.045464409085023	40.2536054	-75.6394776	395	Pottstown, PA, United States of America
1.0445924506891189	43.3141667	-73.6505555	396	Glens Falls, NY, United States of America
1.0437234159331301	41.461004	-73.5077322	397	New Fairfield, CT, United States of America
1.0428572876868365	38.9995542	-77.1874797	398	Holy Child, MD, United States of America
1.0419940489631043	40.6456522	-74.3501630118898	399	Westfield, NJ, United States of America
1.0411336829163373	42.2251225	-70.8776890401925	400	Hingham, MA, United States of America
1.0402761728409455	33.5632975	-117.719640959703	401	Aliso Niguel, CA, United States of America
1.0394215021698368	41.7344469	-70.4597584352984	402	Sandwich, MA, United States of America
1.038569654472928	42.6103375	-73.8566187238381	403	Bethlehem, NY, United States of America
1.037720613455674	40.0078006	-75.2792733854084	404	Lower Merion, PA, United States of America
1.0368743629576187	42.30258735	-71.2792295320111	405	Wellesley HS, MA, United States of America
1.036030886950963	38.8402362	-77.275978	406	W.T. Woodson, VA, United States of America
1.035190169539152	42.2192249	-71.3231061	407	Dover-Sherborn, MA, United States of America
1.0343521949554835	40.30530905	-75.1377394613682	408	Central Bucks West, PA, United States of America
1.033516947561728	40.99453015	-73.7932680034856	409	Scarsdale, NY, United States of America
1.032684411846774	37.9379802	-122.5241421	410	Redwood, CA, United States of America
1.0318545724252866	28.46982865	-81.4771177276121	411	Dr. Phillips, FL, United States of America
1.0310274140363842	42.86101715	-71.4983801433623	412	Merrimack, NH, United States of America
1.0302029215423338	39.9796447	-75.5653868	413	West Chester East, PA, United States of America
1.0293810799272602	41.13619355	-73.6901373968044	414	Byram Hills, NY, United States of America
1.028561874295876	39.0721718	-76.6830553	415	Arundel, MD, United States of America
1.0277452898722221	41.7876875	-87.9338967063461	416	Hinsdale Central, IL, United States of America
1.0269313119984314	37.82299505	-122.233012819263	417	Piedmont, CA, United States of America
1.026119926133501	42.0739637	-72.6450505172579	418	Agawam, MA, United States of America
1.0253111178520864	33.5422403	-117.669711871491	419	Capistrano Valley, CA, United States of America
1.0245048728433064	40.2773649	-74.2100164	420	Colts Neck, NJ, United States of America
1.023701176909565	39.21605815	-76.9267008656082	421	River Hill, MD, United States of America
1.0229000159653892	42.3457322	-71.2085588532235	422	Newton North, MA, United States of America
1.0221013760362796	34.0751245	-84.2561252	423	Alpharetta, GA, United States of America
1.0213052432575762	41.7920214	-70.9829723	424	Apponequet, MA, United States of America
1.0205116038733384	42.1718935	-71.0673706073117	425	Tower Hill School, DE, United States of America
1.019720444235239	41.5026696	-81.5630091897385	426	Cleveland Heights, OH, United States of America
1.0189317508014728	38.7337864	-120.812561368256	427	El Dorado, CA, United States of America
1.0181455101356771	42.7960149	-71.323235305154	428	Windham, NH, United States of America
1.0173617089058677	40.6536111	-73.6727777	429	Lynbrook, NY, United States of America
1.0165803338833859	35.0882733	-80.849798	430	Charlotte Catholic, NC, United States of America
1.0158013719418602	43.0580668	-77.2461122	431	Palmyra-Macedon, NY, United States of America
1.0150248100561798	40.72266825	-73.4932508353811	432	Island Trees, NY, United States of America
1.0142506353014829	39.3934504	-76.6747359074678	433	Park School, MD, United States of America
1.0134788348521533	41.3652189	-73.7569963204998	434	Mahopac, NY, United States of America
1.0127093959808329	40.3874836	-105.1027589	435	Thompson Valley, CO, United States of America
1.011942306057446	39.8569672	-74.717725	436	Seneca, NJ, United States of America
1.0104151230147982	28.58374845	-81.3201033014906	438	Winter Park, FL, United States of America
1.0096550051131694	39.37786295	-77.4478304048451	439	Tuscarora, MD, United States of America
1.008897186592866	39.7177037	-75.6887331	440	St. Mark's, DE, United States of America
1.0081416552959825	39.4057672	-76.5621990790781	441	Loch Raven, MD, United States of America
1.0073883991562793	42.7481398	-70.8980369	442	Governor's Academy, MA, United States of America
1.0066374061982868	41.022448	-74.2314433	443	Indian Hills, NJ, United States of America
1.005888664536419	40.7586111	-73.5263888	444	Hicksville, NY, United States of America
1.005142162374099	43.3219444	-76.411111	445	Fulton, NY, United States of America
1.0043978880028939	42.0728919	-71.3323046456334	446	King Philip, MA, United States of America
1.0036558298016598	34.195283	-118.1825727	447	St. Francis, CA, United States of America
1.0029159762356983	40.697377	-73.3650873	448	Lindenhurst, NY, United States of America
1.0021783158559212	42.23256415	-70.8092798421583	449	Cohasset, MA, United States of America
1.001442837298028	38.3559376	-76.4391318888112	450	Patuxent, MD, United States of America
1.000709529281689	40.7351019	-73.6879081	451	New Hyde Park, NY, United States of America
0.9999783806097414	38.3319331	-122.321364743446	452	Justin-Siena, CA, United States of America
0.9992493801673938	41.14856015	-73.2637279923243	453	Fairfield Ludlowe, CT, United States of America
0.9985225169214405	42.9369906	-71.5197142621467	454	Bedford, NH, United States of America
0.9977977799194829	43.4504806	-76.5246399	455	Oswego, NY, United States of America
0.9970751582891633	41.31216985	-72.7119570639331	456	Guilford, CT, United States of America
0.9963546412374054	38.619346	-76.6088590312023	457	Huntingtown, MD, United States of America
0.9956362180496631	39.5926005	-77.133038	458	Francis Scott Key, MD, United States of America
0.9949198780891814	42.13498935	-71.2484151099013	459	Walpole, MA, United States of America
0.9942056107962616	42.12968015	-71.043622816625	460	Avon, CT, United States of America
0.9934934056875384	37.6749304	-121.7885649	461	Granada, CA, United States of America
0.9927832523552621	42.7181633	-87.7865300658802	462	St. Catherine's, VA, United States of America
0.992075140466594	39.52953035	-76.3468870410099	463	Bel Air, MD, United States of America
0.9913690597629033	43.6021105	-116.2695638	464	Bishop Kelly, ID, United States of America
0.9906650000590785	41.0612032	-74.0091422261254	465	Pearl River, NY, United States of America
0.9899629512428412	34.06421515	-84.5131368565291	466	Kell, GA, United States of America
0.9892629032740735	39.6042071	-105.075487596242	467	Columbine, CO, United States of America
0.9885648461841463	39.057609	-76.9358079	468	Calverton School, MD, United States of America
0.9878687700752614	40.7858249	-74.5104276	469	Villa Walsh Academy, NJ, United States of America
0.9871746651197977	32.9573985	-117.224896678294	470	Torrey Pines, CA, United States of America
0.9857923297056684	42.2001203	-70.7681266828954	472	Scituate, MA, United States of America
0.9851040799368712	41.1371829	-73.324846	473	Greens Farms Academy, CT, United States of America
0.9844177626999772	40.57369705	-111.888123053518	474	Jordan, UT, United States of America
0.9837333685087108	41.0906081	-74.1589766828131	475	Mahwah, NJ, United States of America
0.9830508879432075	28.4977722	-81.5061208	476	Olympia, FL, United States of America
0.9823703116494098	41.833491	-71.3980237	477	Moses Brown School, RI, United States of America
0.9816916303384714	41.3126651	-73.7140545837215	478	Somers, NY, United States of America
0.9810148347861675	32.83405585	-117.272892092514	479	La Jolla HS, CA, United States of America
0.9803399158323111	29.2666253	-82.1144588	480	Pine Crest, FL, United States of America
0.9796668643801756	42.6647282	-77.0613847	481	Penn Yan Academy, NY, United States of America
0.9789956713959257	33.654452	-117.651716780682	482	Mission Viejo, CA, United States of America
0.9783263279080512	40.85865445	-74.7141422729439	483	Mt. Olive, NJ, United States of America
0.9776588250068116	42.9096911	-73.8951486	484	Burnt Hills-Ballston Lk, NY, United States of America
0.9769931538436818	40.2678599	-80.1182008244671	485	Peters Township, PA, United States of America
0.9763293056308076	40.7304267	-74.1863283	486	Montgomery, NJ, United States of America
0.9756672716404658	33.6796569	-112.007860010165	487	Pinnacle, AZ, United States of America
0.9750070432045301	39.0293096	-77.1979298634907	488	Bullis School, MD, United States of America
0.9743486117139433	39.3506949	-84.3062308427546	489	Mason, OH, United States of America
0.9736919686181942	33.63697335	-117.687751613223	490	El Toro, CA, United States of America
0.9730371054248018	33.6527261	-117.823602836746	491	University HS, CA, United States of America
0.9723840136988042	38.9459444	-76.9138626	492	Elizabeth Seton, MD, United States of America
0.9717326850622522	42.7667257	-78.8314216	493	Frontier, NY, United States of America
0.9710831111937102	28.52816935	-81.146428740795	494	Timber Creek, FL, United States of America
0.9704352838277611	40.986957	-74.9664125203994	495	Blair Academy, NJ, United States of America
0.9697891947545167	40.71472	-73.7066699	496	Floral Park Memorial, NY, United States of America
0.9691448358191346	42.2644674	-87.8400694	497	Lake Forest, IL, United States of America
0.9685021989213374	40.6593503	-80.0170742539153	498	Pine-Richland, PA, United States of America
0.9678612760149409	41.5931836	-70.9775741819829	499	Dartmouth, MA, United States of America
0.9672220591073839	42.49203215	-70.8687295336433	500	Marblehead, MA, United States of America
0.9665845402592659	33.6542672	-117.6505386	501	Trabuco Hills, CA, United States of America
0.9659487115838863	41.9598186	-72.7920404	502	Granby Memorial, CT, United States of America
0.9653145652467922	40.77110715	-74.409128994311	503	Madison, NJ, United States of America
0.9646820934653281	40.0667778	-75.2046222	504	Springside School, PA, United States of America
0.9640512885081922	40.534497	-75.3989016159337	505	Southern Lehigh, PA, United States of America
0.9634221426949965	42.7128687	-71.1711695	506	Central Catholic, MA, United States of America
0.9627946483958305	43.1745123	-76.1038116	507	Cicero-North Syracuse, NY, United States of America
0.9621687980308335	39.6103807	-76.8610887	508	North Carroll, MD, United States of America
0.9615445840697654	41.41706305	-73.4701842617439	509	Danbury, CT, United States of America
0.9609219990315869	40.2401673	-77.0615260049836	510	Cumberland Valley, PA, United States of America
0.960301035484042	42.2813889	-83.70264300000001	511	Ann Arbor Huron, MI, United States of America
0.9584478001857569	34.0788283	-83.8791807	514	Mill Creek, GA, United States of America
0.9578332492394905	32.96609835	-117.150068753275	515	Westview, CA, United States of America
0.9572202833400261	43.0730556	-73.7994443	516	Saratoga Springs, NY, United States of America
0.9566088953392851	42.9301763	-78.6705741506962	517	Lancaster, NY, United States of America
0.9559990781351718	42.5477	-83.2617999	518	Detroit Country Day, MI, United States of America
0.9553908246711877	42.109038	-72.3551919	519	Wilbraham & Monson, MA, United States of America
0.9547841279360529	41.92600185	-73.9969744875625	520	Kingston, NY, United States of America
0.9541789809633284	40.1717754	-75.2273981	521	Wissahickon, PA, United States of America
0.9535753768310452	42.64004545	-70.8823535437509	522	Pingree School, MA, United States of America
0.9529733086613364	33.6626794	-84.4422323	523	Woodward Academy, GA, United States of America
0.9523727696200704	41.9453707	-73.4390102	524	Hotchkiss School, CT, United States of America
0.9517737529164919	42.5453697	-83.2332713	525	Birmingham United, MI, United States of America
0.9511762518028638	33.96717165	-84.6832395881206	526	Harrison, GA, United States of America
0.9505802595741141	38.9306667	-77.0705331	527	National Cathedral, DC, United States of America
0.9499857695674843	40.5245332	-79.8884632352712	528	Shady Side Academy, PA, United States of America
0.949392775162185	40.0876107	-75.1593422	529	Cheltenham, PA, United States of America
0.9488012697790509	44.6651766	-93.2575018	530	Lakeville North, MN, United States of America
0.9482112468802026	42.9342355	-75.8583355	531	Cazenovia, NY, United States of America
0.9476226999687093	29.9411193	-90.113531	532	Ursuline Academy, DE, United States of America
0.9470356225882564	42.2568317	-71.0693283	533	Milton Academy, MA, United States of America
0.9464500083228158	42.64597699999999	-73.787032	534	Albany Academy SG, NY, United States of America
0.94586585079632	36.1245025	-86.8399999	535	Ensworth, TN, United States of America
0.9452831436723389	41.2486155	-81.4337259388139	536	Western Reserve Acad, OH, United States of America
0.9447018806537596	32.9947515	-117.065010408639	537	Rancho Bernardo, CA, United States of America
0.9441220554824695	41.7509327	-72.8676002	538	Farmington, CT, United States of America
0.9435436619390449	38.6434621	-75.4427296	539	Sussex Tech, DE, United States of America
0.942966693842438	40.7260317	-73.534962913278	540	Levittown Division, NY, United States of America
0.9423911450496704	33.6403254	-117.8097451	541	Hilltop, CA, United States of America
0.9412442809922672	40.8853769	-74.5084895	543	Morris Knolls, NJ, United States of America
0.9406729536292994	40.9378396	-73.8305366	544	Bronxville, NY, United States of America
0.9401030213729132	40.0096702	-86.0860624418424	545	Guerin Catholic, IN, United States of America
0.9395344782659737	35.7457025	-78.8382514629026	546	Apex, NC, United States of America
0.9389673183876327	40.8650992	-73.5951263	547	Friends Academy, NY, United States of America
0.9384015358530432	42.895364	-71.317286	548	Pinkerton Academy, NH, United States of America
0.9378371248130754	42.68439675	-84.456141	549	Okemos, MI, United States of America
0.9372740794540346	41.2545384	-73.9345831	550	Hendrick Hudson, NY, United States of America
0.9367123939973829	43.107274	-77.4932241	551	East Rochester, NY, United States of America
0.9361520626994636	40.208505	-75.096709653418	552	Archbishop Wood, PA, United States of America
0.9355930798512274	42.2574341	-89.049966	553	Rockford, MI, United States of America
0.9350354397779618	39.14681235	-77.0187069262227	554	Sherwood, MD, United States of America
0.934479136839023	42.3024378	-71.7446637922589	555	Shrewsbury, MA, United States of America
0.9339241654275707	40.6906581	-74.1062534	556	Marist, GA, United States of America
0.9333705199703054	47.74830545	-121.98180455	557	Holy Innocents, GA, United States of America
0.9328181949272074	40.8937113	-74.3596403005618	558	Montville Township, NJ, United States of America
0.9322671847912789	37.7694191	-121.903712313442	559	Dougherty Valley, CA, United States of America
0.9317174840882891	37.6807634	-121.7613419	560	Livermore, CA, United States of America
0.93116908737652	42.7336276	-71.5945673344011	561	Hollis-Brookline, NH, United States of America
0.9306219892465174	38.7863077	-77.2402379	562	West Springfield, VA, United States of America
0.9300761843208409	40.3746091	-80.051505429267	563	Mt. Lebanon, PA, United States of America
0.9295316672538194	40.2621002	-75.1630703100395	564	Central Bucks South, PA, United States of America
0.9289884327313066	43.6507561	-116.336902104469	565	Centennial, ID, United States of America
0.92844647547044	29.7413401	-95.4263288	566	Lamar, TX, United States of America
0.9279057902194013	27.1702922	-80.2482741403478	567	Martin County, FL, United States of America
0.9273663717571812	39.7351651	-76.4650036	568	Kennard-Dale, PA, United States of America
0.9268282148933428	41.4787051	-73.3893213484487	569	Brookfield, CT, United States of America
0.9262913144677901	39.1564004	-77.7267317	570	Woodgrove, VA, United States of America
0.9257556653505385	41.7992663	-72.7523177	571	Northwest Catholic, CT, United States of America
0.9252212624414854	40.8270431	-73.4259544	572	Walt Whitman, NY, United States of America
0.9246881006701855	34.0484502	-84.2085954	573	Chattahoochee, GA, United States of America
0.9241561749956257	43.4605202	-76.2347075	574	Mexico, NY, United States of America
0.9236254804060043	33.5810597	-117.612627259073	575	Tesoro, CA, United States of America
0.9230960119185112	41.2102192	-73.3782612998835	576	Weston, CT, United States of America
0.9225677645791095	40.1120981	-75.131461	577	Abington HS, PA, United States of America
0.9220407334623206	41.0250849	-76.8421853	578	North Hills, PA, United States of America
0.9215149136710099	41.2961798	-73.3369952714363	579	Joel Barlow, CT, United States of America
0.9209903003361761	38.8390484	-94.6555959191079	580	Blue Valley, KS, United States of America
0.9204668886167399	42.1067937	-70.73867489739	581	Marshfield, MA, United States of America
0.9199446736993373	47.7322685	-122.327603170859	582	Lakeside School, WA, United States of America
0.9194236507981127	30.11235675	-81.3947506148237	583	Ponte Vedra, FL, United States of America
0.9189038151545166	39.6299727	-104.880273	584	Cherry Creek V2, CO, United States of America
0.9183851620371011	47.613601	-122.0317461	585	Lake Sammamish, WA, United States of America
0.9173513845893344	43.1745123	-76.1038116	587	Syracuse, NY, United States of America
0.9168362509298076	42.0984089	-75.9193626	588	Binghamton, NY, United States of America
0.9163222811377173	42.58331775	-70.9318685193334	589	Danvers, MA, United States of America
0.9158094706141602	40.7928793	-80.0758425	590	Seneca Valley, PA, United States of America
0.9152978147861597	40.21924075	-75.4565339561885	591	Perkiomen Valley, PA, United States of America
0.9147873091064767	43.05923205	-70.7652538490579	592	Portsmouth, NH, United States of America
0.9142779490534222	43.0822349	-76.0276318	593	East Syracuse-Minoa, NY, United States of America
0.9137697301306701	27.839398	-82.76071069999999	594	Park Vista, FL, United States of America
0.9132626478670727	40.8464571	-74.5667697159893	595	Randolph, NJ, United States of America
0.9127566978164775	33.6806697	-88.328648	596	Caledonia, MI, United States of America
0.9122518755575468	40.5609008	-80.2031147	597	Quaker Valley, PA, United States of America
0.9117481766935772	41.04974435	-74.0500456243336	598	Pascack Valley, NJ, United States of America
0.9112455968523202	41.0703745	-73.8426344	599	Hackley School, NY, United States of America
0.9107441316858086	44.88253175	-93.3766693407895	600	Edina, MN, United States of America
0.910243776870178	39.12927185	-84.4595157330493	601	Summit CDS, OH, United States of America
0.9097445281054967	42.7387379	-71.4739405136301	602	Bishop Guertin, NH, United States of America
0.9087493316478759	41.6970445	-73.8943944	604	Arlington, NY, United States of America
0.9082533754731869	40.3788886	-80.102497	605	Chartiers Valley, PA, United States of America
0.9077585083856112	43.0241781	-78.7366604	606	Williamsville North, NY, United States of America
0.9072647262023227	34.0224378	-84.1929192568569	607	John's Creek, GA, United States of America
0.906772024763417	40.00194605	-76.3514715545761	608	Penn Manor, PA, United States of America
0.9062803999317486	41.000931	-73.8079107	609	Edgemont, NY, United States of America
0.9057898475927693	42.65144585	-71.540995750282	610	Groton-Dunstable, MA, United States of America
0.9053003636543675	38.8453267	-77.6301131	611	Battlefield, VA, United States of America
0.9048119440467098	34.0070442	-84.290479	612	Centennial, GA, United States of America
0.904324584722084	39.0439925	-77.172990652889	613	Winston Churchill, MD, United States of America
0.9038382816547417	41.1915033	-81.4970808294655	614	Walsh Jesuit, OH, United States of America
0.9033530308407447	43.34845565	-71.9043769497198	615	Kearsarge Regional, NH, United States of America
0.9028688282978112	42.503405	-70.94947499999999	616	Peabody Veterans Mem., MA, United States of America
0.9023856700651639	39.5087851	-76.3237152	617	Patterson Mill, MD, United States of America
0.9019035522033791	40.0806311	-74.530649	618	New Egypt, NJ, United States of America
0.9014224707942374	41.1600953	-73.85958	619	Ossining, NY, United States of America
0.9009424219405751	39.66221925	-77.7150684041645	620	North Hagerstown, MD, United States of America
0.9004634017661378	40.1759388	-75.3976812	621	Methacton, PA, United States of America
0.8999854064154346	42.5931184	-71.5865252434644	622	Groton School, MA, United States of America
0.8995084320535938	42.62164145	-71.3738803797843	623	Chelmsford, MA, United States of America
0.8990324748662195	42.08901895	-87.8536262033248	624	Glenbrook South, IL, United States of America
0.89855753105925	32.95819065	-117.188980703657	625	Canyon Crest Academy, CA, United States of America
0.8980835968588161	41.4736582	-81.8509704	626	Rocky River, OH, United States of America
0.897610668511104	39.2853875	-76.0921701	627	Kent County, MD, United States of America
0.8971387422822138	40.1198	-75.5215999	628	Phoenixville, PA, United States of America
0.8966678144580242	41.8912631	-72.7959463000224	629	Westminster School, CT, United States of America
0.8961978813440569	36.31582455	-86.6697923497109	630	Pope John Paul II, TN, United States of America
0.8957289392653398	41.1318755	-73.9558166381885	631	Clarkstown South, NY, United States of America
0.8952609845662753	38.8255028	-77.0943289	632	Episcopal, VA, United States of America
0.8947940136105066	42.9567369	-77.0978034	633	Midlakes, NY, United States of America
0.8938630084788474	43.0453937	-76.4728887089275	635	Jordan-Elbridge, NY, United States of America
0.8933989671252707	40.5170362	-74.8518362	636	Hunterdon Central, NJ, United States of America
0.89293589515936	37.4358242	-122.155244766475	637	Palo Alto, CA, United States of America
0.8924737890390141	45.562432	-122.902156543943	638	Liberty, OR, United States of America
0.8920126452405993	44.90942995	-93.5112004871135	639	Minnetonka, MN, United States of America
0.8915524602588264	40.0064442	-74.9962900207472	640	Cinnaminson, NJ, United States of America
0.8910932306066252	39.2219995	-84.4328259739583	641	Mt. Notre Dame, OH, United States of America
0.8906349528150217	45.3630189	-122.617653745817	642	West Linn, OR, United States of America
0.8901776234330172	38.90277075	-77.1407848998753	643	Yorktown, VA, United States of America
0.889721239027467	32.967446	-117.1204329	644	Mt. Carmel, CA, United States of America
0.8892657961829593	40.3202045	-75.8691436	645	Exeter Township, PA, United States of America
0.8888112915016981	37.9490271	-121.96917861422	646	Clayton Valley, CA, United States of America
0.8883577216033833	41.4637303	-72.5621416	647	Haddam-Killingworth, CT, United States of America
0.8879050831250963	41.0402978	-73.8604483	648	Irvington, NY, United States of America
0.8874533727211813	38.305889	-85.5822108083886	649	Kentucky Country Day, KY, United States of America
0.8870025870631313	42.3941445	-71.1656459292873	650	Belmont, MA, United States of America
0.8865527228394748	41.74752635	-71.3206242536853	651	Barrington, RI, United States of America
0.8861037767556614	39.9348351	-75.0307263	652	Cherry Hill East, NJ, United States of America
0.8856557455339505	26.1078646	-80.1797686	653	St. Thomas Aquinas, FL, United States of America
0.8852086259132991	42.29073305	-71.2885931740557	654	Dana Hall School, MA, United States of America
0.8847624146492515	42.1613143	-72.1318127132379	655	Tantasqua, MA, United States of America
0.8843171085138305	40.7263338	-73.3246519782362	656	North Babylon, NY, United States of America
0.8834291987986977	40.6675087	-111.496909696483	658	Park City, UT, United States of America
0.8829865888444476	39.8894	-75.3336999	659	Ridley, PA, United States of America
0.8825448712695343	29.7155077	-95.458552	660	Episcopal, TX, United States of America
0.882104042926758	29.9411193	-90.113531	661	Ursuline Academy, MA, United States of America
0.8816641006847588	40.7306507	-73.220733	662	Islip, NY, United States of America
0.8812250414279105	38.6660476	-121.250584091091	663	Bella Vista, CA, United States of America
0.8807868620562217	40.176766	-75.6563054	664	Owen J. Roberts, PA, United States of America
0.880349559485231	41.42655975	-81.3791952538465	665	Chagrin Falls, OH, United States of America
0.8799131306459077	40.7633333	-73.3341666	666	Deer Park, NY, United States of America
0.879477572484551	38.9364776	-77.1554318515203	667	Potomac School, VA, United States of America
0.8790428819626894	40.5348199	-75.5051837	668	Emmaus, PA, United States of America
0.8786090560569849	40.6539913	-73.601795	669	Freeport, NY, United States of America
0.8781760917591322	42.26099845	-83.7536588134033	670	Ann Arbor Pioneer, MI, United States of America
0.8777439860757636	45.029077	-92.84736199999999	671	Stillwater, MN, United States of America
0.8773127360283514	40.8412107	-74.2473689	672	Verona, NJ, United States of America
0.8768823386531134	41.0620413	-73.5320672	673	Stamford, CT, United States of America
0.8764527910009178	40.7423293	-75.2984382	674	Nazareth Area HS, PA, United States of America
0.876024090137189	40.7364215	-80.3016846	675	Brighton, MI, United States of America
0.875596233141814	39.3262047	-77.3407907	676	Urbana, MD, United States of America
0.8747430391474358	41.5131082	-81.5003991	678	Hawken School, OH, United States of America
0.874317696379693	34.01401665	-84.0859955919056	679	Peachtree Ridge, GA, United States of America
0.8738931859426433	40.9562092	-74.1212537	680	Glen Rock, NJ, United States of America
0.8734695049871152	40.6317576	-74.1512122	681	Lake Shore, NY, United States of America
0.8726246201934424	40.6386744	-75.5491527302499	683	Parkland, PA, United States of America
0.8722034107261951	36.160441	-85.5730149	684	Briarcrest, TN, United States of America
0.8717830194820887	27.2425075	-80.2672565464231	685	Jensen Beach, FL, United States of America
0.8713634436806686	34.1484162	-84.1710764	686	South Forsyth, GA, United States of America
0.8709446805549641	41.29351425	-72.619382907253	687	Daniel Hand, CT, United States of America
0.8705267273514024	33.6788923	-117.806863871358	688	Woodbridge, CA, United States of America
0.8701095813297267	42.46059	-83.6516063	689	South Lyon United, MI, United States of America
0.8696932397629105	37.9837505	-117.023278447941	690	Ralston Valley, CO, United States of America
0.8692776999370759	41.3359272	-73.8740251	691	Putnam Valley, NY, United States of America
0.8688629591514105	28.9305943	-81.3132991660557	692	University HS, FL, United States of America
0.8684490147180868	40.8551528	-73.3359557	693	Elwood-John Glenn, NY, United States of America
0.8680358639621799	42.2280476	-71.0042797484757	694	Archbishop Williams, MA, United States of America
0.8676235042215878	39.5921289	-104.6864756	695	Cherokee Trail, CO, United States of America
0.8672119328469513	31.2673967	-85.3810444	696	Northview, GA, United States of America
0.8668011472015751	36.8176306	-119.769933700359	697	Hoover, CA, United States of America
0.8663911446613489	38.9386375	-77.0751267	698	Sidwell Friends, DC, United States of America
0.8659819226146698	43.0300663	-76.2021481	699	Westhill, NY, United States of America
0.8655734784623643	39.2918276	-76.4195268843231	700	Chesapeake, MD, United States of America
0.8647589135058683	43.1597317	-77.6065239	702	St. Joseph's, IN, United States of America
0.8643527875647912	39.78752305	-76.9584326332789	703	South Western, PA, United States of America
0.8639474292441639	40.54474099999999	-80.189606	704	Sewickley Academy, PA, United States of America
0.8635428360058209	39.4745548	-77.3610315	705	Walkersville, MD, United States of America
0.863139005323574	39.4133502	-76.9531704	706	Liberty, MD, United States of America
0.8627359346831398	40.51527035	-79.9744164496882	707	Shaler Area, PA, United States of America
0.8623336215820657	42.41865575	-71.161906560951	708	Arlington HS, MA, United States of America
0.8619320635296577	40.8638204	-72.9242514481796	709	Longwood, NY, United States of America
0.8615312580469097	47.57189185	-122.219308569378	710	Mercer Island, WA, United States of America
0.8611312026664316	33.77951045	-118.419564342899	711	Palos Verdes, CA, United States of America
0.8607318949323782	42.81248695	-70.8866003968382	712	Newburyport, MA, United States of America
0.8599355126374718	34.436327	-119.6158079	714	Valley Club, CA, United States of America
0.8595384332220267	42.5457596	-72.6060204	715	Deerfield Academy, MA, United States of America
0.8591420917436846	35.88433595	-78.630475269275	716	Ravenscroft School, NC, United States of America
0.8587464858032856	41.6001022	-71.2708822	717	Portsmouth Abbey, RI, United States of America
0.8579574709952694	38.5542882	-76.5824572	719	Calvert, MD, United States of America
0.8575640573847257	39.94757525	-75.3481673121681	720	Cardinal O'Hara, PA, United States of America
0.8571713698261384	36.8766111	-76.0292664	721	Cape Henry Collegiate, VA, United States of America
0.8567794059753429	41.86156725	-69.9688825086343	722	Nauset Regional, MA, United States of America
0.856388163498976	39.04038565	-82.6431277260064	723	Jackson, OH, United States of America
0.855997640074412	37.90827145	-122.009606797085	724	Northgate, CA, United States of America
0.8556078333896981	33.1636224	-117.3281231	725	Carlsbad, CA, United States of America
0.8552187411434908	33.5936347	-117.7031075	726	Laguna Hills, CA, United States of America
0.8548303610449928	44.92515635	-93.1581473250044	727	Cretin-Derham Hall, MN, United States of America
0.8544426908138895	42.2046584	-71.0181333503979	728	Braintree, MA, United States of America
0.8540557281802884	42.4500922	-71.6328455	729	Nashoba Regional, MA, United States of America
0.8536694708846556	40.2766445	-76.6411504076183	730	Hershey, PA, United States of America
0.8532839166777548	39.9620087	-82.9482362	731	Columbus Academy, OH, United States of America
0.8528990633205872	35.9607794	-79.0289107808845	732	East Chapel Hill, NC, United States of America
0.8525149085843297	33.3422525	-84.5176227	733	Starr's Mill, GA, United States of America
0.8521314502502759	41.85420385	-87.999739915291	734	Montini Catholic, IL, United States of America
0.8517486861097763	33.58863425	-111.8109526	735	Desert Mountain, AZ, United States of America
0.8513666139641782	45.4750373	-122.7571329	736	Oregon Episcopal, OR, United States of America
0.8509852316247682	42.454775	-76.4970466746796	737	Ithaca, NY, United States of America
0.8506045369127133	40.19777	-83.0987625	738	Olentangy Liberty, OH, United States of America
0.8502245276590025	40.33355715	-80.0418396636526	739	Bethel Park, PA, United States of America
0.8498452017043904	39.4786229	-80.1571623	740	Fairmont Senior, WV, United States of America
0.8494665568993389	38.2014433	-90.3928988	741	St. Pius X, GA, United States of America
0.8490885911039614	42.1278526	-76.022423	742	Maine-Endwell, NY, United States of America
0.8487113021879664	26.83867685	-80.0629051589044	743	Benjamin School, FL, United States of America
0.8483346880306012	43.02066805	-76.0460217822718	744	Jamesville-DeWitt, NY, United States of America
0.8479587465205967	37.7207918	-121.923864577741	745	Dublin, CA, United States of America
0.8475834755561126	39.9828955	-74.1954193	746	Toms River North, NJ, United States of America
0.8472088730446821	39.6347099	-104.9602586	747	St. Mary's Acad, CO, United States of America
0.8468349369031583	41.1204767	-73.9913528	748	Albertus Magnus, NY, United States of America
0.8464616650576597	43.8897803	-92.8364760807336	749	Hayfield, VA, United States of America
0.846089055443517	42.58186135	-70.765760044743	750	Manchester-Essex, MA, United States of America
0.8457171060052204	40.65247245	-74.4752436654308	751	Watchung Hills, NJ, United States of America
0.8453458146963657	41.2537054	-74.3884876	752	Warwick, NY, United States of America
0.8449751794796029	33.874266	-118.389538927327	753	Mira Costa, CA, United States of America
0.8446051983265834	39.9558379	-76.7115367	754	York Catholic, PA, United States of America
0.8442358692179095	40.2131617	-74.9760675	755	Council Rock South, PA, United States of America
0.8434991591004499	34.4047169	-119.4798433	757	Cate School, CA, United States of America
0.8431317740971592	40.4066646	-74.2722247197172	758	Old Bridge, NJ, United States of America
0.8427650331491037	40.09067845	-83.0291908390627	759	Thomas Worthington, OH, United States of America
0.8423989342808741	33.89850095	-117.789789996843	760	Yorba Linda, CA, United States of America
0.8420334755257091	40.028738	-75.350141	761	Agnes Irwin, PA, United States of America
0.8416686549254461	37.9839293	-122.5726207	762	Sir Francis Drake, CA, United States of America
0.8413044705304723	38.8168084	-77.3047724155691	763	Robinson Secondary, VA, United States of America
0.8409409203996766	42.05519195	-71.2507257418385	764	Foxborough, MA, United States of America
0.8405780026004008	40.2555149	-74.7434722	765	Notre Dame, NJ, United States of America
0.8402157152083923	42.96228	-78.7903109	766	Amherst, NY, United States of America
0.839854056307756	42.1473471	-72.7537507	767	Westfield HS, MA, United States of America
0.8394930239909086	41.2560052	-81.4139387452058	768	Hudson, OH, United States of America
0.8391326163585301	38.0755077	-78.5005554	769	Albemarle, VA, United States of America
0.838772831519518	40.20386035	-83.0202232516368	770	Olentangy, OH, United States of America
0.8384136675909412	41.7362325	-72.7509292757843	771	Conard, CT, United States of America
0.8380551226979946	32.882378	-117.2226967	772	Preuss School, CA, United States of America
0.8376971949739526	32.8857964	-79.7592112	773	Wando, SC, United States of America
0.837339882560124	40.8172222	-73.5502777	774	Long Island Lutheran, NY, United States of America
0.8369831836058086	44.92023825	-74.9028695974428	775	Massena, NY, United States of America
0.8362716187125945	38.9322606	-77.3394452245973	777	South Lakes, VA, United States of America
0.8359167491118428	33.6247392	-111.956991250131	778	Horizon, AZ, United States of America
0.835562485646811	40.3329584	-76.0012834601072	779	Wilson, PA, United States of America
0.8352088265060847	39.9190019	-75.1746228	780	Baldwin School, PA, United States of America
0.8348557698859757	40.7206583	-74.5654945832302	781	Bernards, NJ, United States of America
0.8345033139904796	41.1745396	-73.7576326	782	Horace Greeley, NY, United States of America
0.8338001972274766	41.3416587	-72.9138478062865	784	Hamden Hall CDS, CT, United States of America
0.833449532806	36.7407825	-119.7826442	785	Cathedral Catholic, CA, United States of America
0.8330994620011146	40.35005915	-74.0405577275094	786	Red Bank Regional, NJ, United States of America
0.8327499830546038	39.9705991	-85.91720839999999	787	Fishers-HSE, IN, United States of America
0.8324010942156849	40.0957563	-75.1320941561454	788	Jenkintown, PA, United States of America
0.8320527937409677	42.564178	-70.8790279	789	Beverly, MA, United States of America
0.8317050798944129	33.70578875	-117.960559232452	790	Fountain Valley, CO, United States of America
0.831011405178155	38.7746612	-77.0733941349212	792	West Potomac, VA, United States of America
0.8306654408727723	33.32614265	-111.926568869609	793	Corona Del Sol, AZ, United States of America
0.8303200563241148	29.7155077	-95.458552	794	Episcopal, TX, United States of America
0.8299752498323043	42.3667625	-71.3031131	795	Weston, MA, United States of America
0.8296310197045775	44.7422383	-93.2299596996104	796	Apple Valley, MN, United States of America
0.8292873642552459	41.05535205	-74.6239956149296	797	Sparta, NJ, United States of America
0.8289442818056586	38.8802258	-77.4064865	798	Chantilly, VA, United States of America
0.8286017706841641	41.2636925	-75.8976968	799	Wyoming Seminary, PA, United States of America
0.8282598292260716	33.8475975	-118.3836327	800	Redondo Union, CA, United States of America
0.8279184557736137	30.07917105	-81.5620338977917	801	Creekside, FL, United States of America
0.8275776486759097	39.3023292	-76.6013556	802	St. James School, MD, United States of America
0.8272374062889276	34.1508386	-118.7487007	803	Agoura, CA, United States of America
0.8268977269754475	42.5878816	-83.1799472965292	804	Troy, MI, United States of America
0.8265586091050249	40.591955	-80.0758425	805	North Allegheny, PA, United States of America
0.8262200510539538	38.6119121	-77.3642193	806	Forest Park, VA, United States of America
0.8258820512052322	42.73905575	-83.3919863584974	807	Clarkston, MI, United States of America
0.825544607948524	40.7287118	-73.5559599	808	East Meadow, NY, United States of America
0.8252077196801245	39.85490755	-75.1618107078676	809	West Deptford, NJ, United States of America
0.824871384802925	40.3874658	-75.2747359	810	Pennridge, PA, United States of America
0.8245356017263774	41.84104335	-71.4470948823164	811	La Salle Academy, RI, United States of America
0.8242003688664586	37.7857428	-77.5341419	812	Patrick Henry, VA, United States of America
0.8238656846456365	41.81131265	-87.8802093682677	813	Lyons Township, IL, United States of America
0.8235315474928354	42.9422798	-78.8575353	814	Nichols School, NY, United States of America
0.8228649081390677	42.148391	-71.5340113644995	816	Milford, MA, United States of America
0.8225324028279225	43.4372976	-71.8239692	817	Proctor Academy, NH, United States of America
0.8222004383643741	43.015598	-76.2257126	818	Onondaga, NY, United States of America
0.8218690132091165	38.04730895	-78.7052442724124	819	Western Albemarle, VA, United States of America
0.8215381258290989	33.4778047	-117.7000608	820	Dana Hills, CA, United States of America
0.8212077746974903	42.192683	-75.8548479	821	Chenango Forks, NY, United States of America
0.8208779582936475	42.6283244	-70.8482769	822	Hamilton-Wenham, MA, United States of America
0.8202199236174318	40.54900865	-111.860916705025	824	Alta, UT, United States of America
0.8195640097578326	29.9411193	-90.113531	826	Ursuline Academy, OH, United States of America
0.8192368443974812	41.6430893	-87.7169938	827	Aspen, CO, United States of America
0.8189102047691735	36.0880556	-115.2469443	828	Durango, CO, United States of America
0.8185840893946815	39.7385784	-75.5554784	829	Tatnall School, DE, United States of America
0.8182584968017096	39.0770529	-77.1833137	830	Wootton, MD, United States of America
0.8179334255238655	41.5637057	-73.4134543	831	New Milford, CT, United States of America
0.8176088741006273	43.69874465	-72.2832153186343	832	Hanover, NH, United States of America
0.8172848410773146	34.04719825	-118.531581872966	833	Palisades Charter, CA, United States of America
0.8169613250050571	40.58511	-79.9529561911123	834	Hampton Township, PA, United States of America
0.8166383244407662	40.7548218	-73.4829018	835	Bethpage, NY, United States of America
0.8163158379471024	34.1805605	-118.7631463	836	Oak Park, CA, United States of America
0.8159938640924472	39.0740038	-75.5467345950757	837	Polytech, DE, United States of America
0.8156724014508737	39.1419343	-84.6019838138419	838	Mercy, MI, United States of America
0.815031004131544	40.6743513	-73.5643147	840	Calhoun, NY, United States of America
0.8147110666301254	43.2036938	-77.954331	841	Brockport, NY, United States of America
0.8143916346944071	44.0145017	-76.0199266	842	General Brown, NY, United States of America
0.8140727069264809	29.93199045	-90.0782046431306	843	Trinity Episcopal, VA, United States of America
0.8137542819339558	41.8573153	-73.619571	844	Millbrook School, NY, United States of America
0.8134363583299309	42.9104522	-76.5507374	845	Auburn, NY, United States of America
0.8131189347329659	39.11336105	-77.0176391342249	846	Blake, MD, United States of America
0.8128020097670541	45.02008	-93.4171235	847	Robbinsdale Armstrong, MN, United States of America
0.8124855820615942	34.1998926	-77.8930413	848	Hoggard, NC, United States of America
0.8121696502513629	39.74417505	-105.21164608271	849	Golden, CO, United States of America
0.811854212976488	32.7990229	-117.052100345347	850	Patrick Henry, CA, United States of America
0.8115392688824198	38.96248	-77.0550499	851	St. John's College, DC, United States of America
0.8109108548449615	44.45460625	-73.177851500599	853	South Burlington, VT, United States of America
0.8105973822188467	43.6217006	-116.203137418841	854	Boise, ID, United States of America
0.810284397408036	43.7634039	-71.7006307	855	Plymouth Regional, NH, United States of America
0.8099718990841944	33.86995985	-117.802131572952	856	Esperanza, CA, United States of America
0.8096598859241503	39.8745176	-74.8974412277105	857	Cherokee, NJ, United States of America
0.8093483566098691	41.0490834	-73.9540163	858	Tappan Zee, NY, United States of America
0.8090373098284281	40.1685781	-74.06110989999999	859	Wall Township, NJ, United States of America
0.80872674427199	45.1819674	-93.3262077	860	Coon Rapids, MN, United States of America
0.8084166586377779	40.9744503	-73.6807819	861	Rye CDS, NY, United States of America
0.8077979219500725	42.53901515	-70.9153564128205	863	Bishop Fenwick, MA, United States of America
0.8074892683160976	26.3654342	-80.1168694213134	864	Boca Raton, FL, United States of America
0.8071810894433363	40.82316305	-74.2131656036377	865	Montclair HS, NJ, United States of America
0.8068733840539343	40.3556641	-79.9778633453109	866	Baldwin HS, PA, United States of America
0.8065661508749463	43.1198484	-77.30797609999999	867	Gananda, NY, United States of America
0.8062593886383139	33.7766049	-118.3608712	868	Chadwick School, CA, United States of America
0.8059530960808386	40.6125065	-74.025795092714	869	Poly Prep CDS, NY, United States of America
0.8056472719441595	40.09126335	-76.4140231496244	870	Hempfield, PA, United States of America
0.805341914974728	40.0060548	-83.2013689	871	Hilliard Bradley, OH, United States of America
0.8050370239237843	35.0135171	-80.9637618	872	Fort Mill, SC, United States of America
0.8047325975473345	38.8598759	-77.2862969757435	873	Fairfax, VA, United States of America
0.8044286346061256	42.5670657	-83.26455039999999	874	Bloomfield Hills Lahser, MI, United States of America
0.8041251338656229	39.963545	-82.9301092770923	875	Bexley, OH, United States of America
0.8038220940959863	33.1433095	-117.14101546847	876	Mission Hills, CA, United States of America
0.8035195140720469	40.4542356	-79.9175509	877	Ellis School, PA, United States of America
0.8032173925732853	40.9487097	-73.7970772	878	Ursuline School, NY, United States of America
0.8029157283838063	41.8900781	-87.7896087905373	879	Oak Park-River Forest, IL, United States of America
0.8026145202923188	40.7926392	-73.6395699524749	880	Roslyn, NY, United States of America
0.8023137670921112	36.062915	-80.387554	881	West Forsyth, GA, United States of America
0.8020134675810294	43.4871929	-112.067550410828	882	Skyline, MI, United States of America
0.8017136205614551	41.70066025	-72.7448484028985	883	Newington, CT, United States of America
0.8014142248402831	42.47982085	-71.4583269841174	884	Acton-Boxborough, MA, United States of America
0.8011152792288987	40.7798145	-77.8581816915552	885	State College Area, PA, United States of America
0.8008167825431568	42.1169295	-76.2728687	886	Owego Free Academy, NY, United States of America
0.8005187336033593	40.0972222	-75.3761952	887	Upper Merion Area, PA, United States of America
0.8002211312342338	33.43977215	-117.617113337868	888	San Clemente, CA, United States of America
0.7999239742649114	42.978817	-70.94957	889	Phillips Exeter Acad, NH, United States of America
0.7996272615289064	40.5781549	-74.6120968	890	Somerville, NJ, United States of America
0.7990351641126888	40.5925865	-74.6343546	892	Bridgewater-Raritan, NJ, United States of America
0.798739777121226	39.1185163	-75.5410111845064	893	Caesar Rodney, DE, United States of America
0.7984448297405375	42.2281665	-72.5854986808637	894	South Hadley, MA, United States of America
0.7981503208257331	39.18430775	-84.3471879582988	895	Indian Hill, OH, United States of America
0.7978562492361789	38.6856736	-76.6521845	896	Northern, MD, United States of America
0.7969766470760982	38.25061775	-85.6741703882352	899	Sacred Heart Acad, KY, United States of America
0.7966843134656224	38.5357397	-121.4630097	900	Christian Brothers, CA, United States of America
0.7963924115403617	35.087502	-85.3371554891129	901	Baylor School, TN, United States of America
0.7961009401847947	34.4658141	-119.181409740631	902	Thacher School, CA, United States of America
0.7958098982875149	41.22317135	-73.0642826854589	903	Lauralton Hall, CT, United States of America
0.7955192847412114	39.5478902	-76.0960615	904	Havre De Grace, MD, United States of America
0.7952290984426493	45.3194764	-122.563604712602	905	Oregon City, OR, United States of America
0.7946500031960734	37.8905884	-122.527528299012	907	Tamalpais, CA, United States of America
0.7943610920617941	43.5461828	-72.2581459	908	Kimball Union Academy, NH, United States of America
0.794072603802688	41.0205668	-73.7354869324799	909	White Plains, NY, United States of America
0.7937845373356097	29.9411193	-90.113531	910	Ursuline Academy, MO, United States of America
0.7934968915813746	39.8520207	-86.0808139369425	911	Cathedral, IN, United States of America
0.79320966546474	39.1440553	-76.5287636156677	912	Northeast, MD, United States of America
0.7929228579143865	33.50419249999999	-117.6507716	913	St. Margaret's, CA, United States of America
0.7926364678628988	40.51887905	-79.869531965929	914	Fox Chapel Area, PA, United States of America
0.7923504942467486	34.9943175	-80.8192263	915	Marvin Ridge, NC, United States of America
0.7920649360062745	42.83943505	-78.7465028066232	916	West Seneca West, NY, United States of America
0.791779792085665	39.9865936	-74.9434686	917	Moorestown Friends, NJ, United States of America
0.7914950614329398	39.8364559	-75.0259795	918	Sterling, NJ, United States of America
0.7909268357422692	42.9663311	-78.7316535	920	Williamsville South, NY, United States of America
0.7906433386193579	47.52245525	-122.028659288438	921	Issaquah, WA, United States of America
0.7903602505943632	26.9286989	-80.1039985064829	922	Jupiter HS, FL, United States of America
0.7900775706341925	42.6042511	-72.9223195	923	Oakmont Regional, MA, United States of America
0.7897952977094773	40.2454028	-75.6340730637132	924	Hill School, PA, United States of America
0.7895134307945575	39.23904165	-76.4410946526604	925	Sparrows Point, MD, United States of America
0.7892319688674613	42.5804438	-83.2265961	926	Sacred Heart Acad, MI, United States of America
0.78895091090989	44.9460214	-93.2056438288615	927	Minnehaha Academy, MN, United States of America
0.7886702559072001	39.0801946	-108.5630125963	928	Grand Junction, CO, United States of America
0.7883900028483865	41.70641645	-88.1994376638285	929	Neuqua Valley, IL, United States of America
0.7881101507260655	42.1913486	-71.2152722347482	930	Norwood, MA, United States of America
0.7878306985364579	35.17046485	-80.8338539523201	931	Myers Park, NC, United States of America
0.7875516452793718	39.2985688	-76.9032763673401	932	Chapelgate Christian, MD, United States of America
0.7872729899581875	43.6460715	-70.2696659	933	Waynflete, ME, United States of America
0.7869947315798386	42.0297007	-71.2036696483533	934	Mansfield, MA, United States of America
0.7867168691547971	42.71289565	-73.6609937877844	935	Emma Willard, NY, United States of America
0.7864394016970577	40.3288746	-74.8019628981452	936	Hopewell Valley, NJ, United States of America
0.786162328224119	39.279871	-74.5676966469687	937	Ocean City, NJ, United States of America
0.7858856477569696	38.8220478	-77.2075747	938	Annandale, VA, United States of America
0.7856093593200716	41.2642229	-73.19269	939	Trumbull, CT, United States of America
0.7853334619413432	43.2795169	-73.6545617	940	South Glens Falls, NY, United States of America
0.7850579546521452	40.38081865	-75.4901555582069	941	Upper Perkiomen, PA, United States of America
0.7847828364872622	42.4835553	-71.1442989996007	942	Woburn Memorial, MA, United States of America
0.7845081064848898	41.5875946	-73.4142877	943	Canterbury School, CT, United States of America
0.7842337636866168	42.67885735	-83.1555788752675	944	Rochester HS, MI, United States of America
0.7836862358856027	37.6199203	-77.6051845	946	Godwin, VA, United States of America
0.78341304898287	26.304503	-80.26945700000002	947	Stoneman Douglas, FL, United States of America
0.7831402454842238	42.6977761	-71.4084483972303	948	Tyngsborough, MA, United States of America
0.7828678244479911	41.1923182	-73.4954005	949	St. Luke's School, CT, United States of America
0.7825957849358015	40.610508	-73.9476668316718	950	James Madison, NY, United States of America
0.7823241260125717	41.1217847	-73.3896352521464	951	Norwalk, CT, United States of America
0.7820528467464899	39.9792137	-75.3852785	952	Marple Newtown, PA, United States of America
0.7817819462090019	41.6696714	-83.63143439999999	953	Ottawa Hills Club, OH, United States of America
0.781511423474795	32.85778395	-116.968316209234	954	Santana, CA, United States of America
0.7812412776217853	41.500441	-73.1611704843752	955	Pomperaug, CT, United States of America
0.7809715077311009	39.02506835	-77.1301048813096	956	Walter Johnson, MD, United States of America
0.7807021128870689	39.18460485	-84.3283274997595	957	Cincinnati CDS, OH, United States of America
0.7804330921772001	42.34663135	-83.4990074478016	958	Plymouth, MI, United States of America
0.7801644446921753	42.4983635	-71.585210192312	959	Bromfield School, MA, United States of America
0.7798961695258297	40.1867565	-74.1773812	960	Howell, NJ, United States of America
0.7796282657751405	42.56106895	-71.2739867812867	961	Billerica Memorial, MA, United States of America
0.7793607325402118	42.30434105	-70.9205541980416	962	Hull, MA, United States of America
0.7790935689242597	40.7650833	-80.4023987	963	Blackhawk, PA, United States of America
0.7788267740336002	39.14233995	-77.4176930480543	964	Poolesville, MD, United States of America
0.7785603469776341	30.3082969	-81.4014734	965	Fletcher, FL, United States of America
0.7782942868688327	38.7174282	-77.2385395	966	South County, VA, United States of America
0.778028592822725	38.2476254	-76.4877313	967	Great Mills, MD, United States of America
0.7777632639578843	39.1109809	-77.5796447	968	Loudoun County, VA, United States of America
0.7774982993959129	39.7419532	-75.5547268	969	Wilmington Friends, DE, United States of America
0.7772336982614307	33.5010072	-117.116343774146	970	Temecula Valley, CA, United States of America
0.7769694596820604	40.1071378	-83.1311268	971	Dublin Coffman, OH, United States of America
0.7767055827884138	37.4386148	-122.15171359625	972	Castilleja, CA, United States of America
0.7764420667140801	42.1664578	-71.1483234893135	973	Canton, MA, United States of America
0.7761789105956112	33.36447425	-84.810937503313	974	Newnan, GA, United States of America
0.7759161135725088	44.00693375	-73.1639788874456	975	Middlebury Union, VT, United States of America
0.7756536747872119	41.6156339	-72.8611198766516	976	Southington, CT, United States of America
0.775129868514397	41.3172398	-72.9738311644653	978	Hopkins School, CT, United States of America
0.7746074849749227	39.2051654	-76.8099697101601	980	Long Reach, MD, United States of America
0.7743468246171218	38.28316345	-85.6247002689348	981	Ballard, KY, United States of America
0.7740865174127111	40.6753793	-73.5429044	982	Mepham, NY, United States of America
0.7738265625243269	38.7628566	-77.4484807	983	Osbourn Park, VA, United States of America
0.7733077063603477	40.0492307	-83.0171283	985	Bishop Watterson, OH, United States of America
0.7730488034241499	40.9320429	-74.1251427	986	Fair Lawn, NJ, United States of America
0.7727902494827488	39.6946252	-105.144934545025	987	Green Mountain, CO, United States of America
0.7725320437128309	41.9091188	-72.4624743003138	988	Ellington, CT, United States of America
0.7722741852938557	42.23458535	-85.6001752761843	989	Portage Northern, MI, United States of America
0.7720166734080435	43.9864256	-75.6459341	990	Carthage, NY, United States of America
0.7717595072403636	43.2302373	-70.8034011	991	Berwick Academy, ME, United States of America
0.7715026859785225	39.1128787	-84.578402822955	992	Seton School, OH, United States of America
0.7712462088129505	36.3156103	-87.71752	993	Houston, TN, United States of America
0.7709900749367922	39.6044443	-105.149490952787	994	Dakota Ridge, CO, United States of America
0.770734283545893	42.9103667	-71.9438602299582	995	Con-Val Regional, NH, United States of America
0.7704788338387873	38.81851229999999	-77.1687535	996	Thomas Jefferson S&T, VA, United States of America
0.7702237250166886	42.0975869	-76.0482546597201	997	Union-Endicott, NY, United States of America
0.7699689562834748	41.5109271	-74.0137513	998	Mt. St. Mary's Acad, NY, United States of America
0.76971452684568	37.5457699	-122.3166361	999	Serra, CA, United States of America
0.7694604359124804	40.629039	-74.089096	1000	Staten Island Academy, NY, United States of America
0.7692066826956846	39.4164352	-77.4262906	1001	Frederick, MD, United States of America
0.7687001862716272	43.5909173	-70.2292137	1003	Cape Elizabeth, ME, United States of America
0.768447441501039	41.3956092	-81.3064955	1004	Kenston, OH, United States of America
0.7681950313201779	42.7442605	-84.2981032	1005	Williamston-Haslett, MI, United States of America
0.767942954953841	38.04445945	-84.5135419175313	1006	Collegiate, KY, United States of America
0.7676912116293905	39.4328802	-77.2474825	1007	Linganore, MD, United States of America
0.767439800576741	39.7614801	-75.2902098	1008	Kingsway, NJ, United States of America
0.7671887210283498	41.28772765	-72.8004366413514	1009	Branford, CT, United States of America
0.7669379722192059	42.7804214	-71.2116715	1010	Salem, NH, United States of America
0.7666875533868184	45.4497535	-122.808024240352	1011	Southridge, OR, United States of America
0.7664374637712069	45.4771686	-122.691128922746	1012	Wilson, OR, United States of America
0.7661877026148892	40.00314475	-74.7824482001629	1013	Rancocas Valley, NJ, United States of America
0.7659382691628724	33.34623175	-111.766494829613	1014	Gilbert, AZ, United States of America
0.7654403823641458	40.9814819	-73.7374425336433	1016	Harrison, NY, United States of America
0.7649437973844471	37.612607	-122.4279914	1018	Peninsula, CA, United States of America
0.7646959912153881	39.1162188	-77.2538713	1019	Quince Orchard, MD, United States of America
0.764448508272336	40.741389	-73.6577776	1020	Mineola, NY, United States of America
0.7642013478174219	37.58311705	-122.347650763452	1021	Burlingame, CA, United States of America
0.7639545091151823	39.4496863	-75.6924834048931	1022	Middletown, DE, United States of America
0.7637079914325479	39.140745	-77.7005860443286	1023	Loudoun Valley, VA, United States of America
0.7634617940388351	47.9188526	-122.100645089847	1024	Snohomish, WA, United States of America
0.7632159162057338	40.6978603	-75.1914849	1025	Phillipsburg, NJ, United States of America
0.7629703572072993	42.9205822	-83.63065429999999	1026	Grand Blanc, MI, United States of America
0.7627251163199412	43.187562	-77.6397246	1027	Aquinas Institute, NY, United States of America
0.7622355859958064	41.9442435	-70.6519151	1029	Plymouth North, MA, United States of America
0.761991295123533	40.1718757	-82.979057652378	1030	Olentangy Orange, OH, United States of America
0.761747319491323	32.6382191	-82.7676383	1031	Lovett, GA, United States of America
0.7615036583872112	34.836476	-87.6780838	1032	Buckingham, MA, United States of America
0.7612603111015285	42.4923058	-71.2842134090795	1033	Bedford Public, MA, United States of America
0.7607745551581948	40.3351571	-80.0706422	1035	Upper St. Clair, PA, United States of America
0.7605321450925983	32.8413139	-117.278217989881	1036	Bishop's School, CA, United States of America
0.7602900460295205	40.3626029	-74.6898825	1037	Princeton Day School, NJ, United States of America
0.7600482572706287	40.5105501	-80.22028019999999	1038	Moon Area Club, PA, United States of America
0.759806778119828	45.0126499	-93.1504880276096	1039	Roseville Area, MN, United States of America
0.7595656078832538	43.5916176	-70.3371097	1040	Scarborough, ME, United States of America
0.7593247458692617	39.912591	-75.0776346	1041	Collingswood, NJ, United States of America
0.7590841913884175	40.93082355	-74.2305578215728	1042	Wayne Valley, NJ, United States of America
0.7588439437534905	43.6531914	-72.2498886	1043	Lebanon, NH, United States of America
0.7586040022794412	42.7427179	-84.47933585	1044	East Lansing, MI, United States of America
0.7583643662834149	42.6259545	-83.51553439999999	1045	White Lake Lakeland, MI, United States of America
0.7581250350847304	38.7344473	-77.80186	1046	Highland School, VA, United States of America
0.7578860080048729	45.0601286	-92.94379599999999	1047	Mahtomedi, MN, United States of America
0.7576472843674841	34.8622058	-85.8347410061685	1048	Stevenson, IL, United States of America
0.7574088634983532	37.40242385	-122.133943593513	1049	Gunn, CA, United States of America
0.7571707447254087	42.6469864	-73.5729405710115	1050	Averill Park, NY, United States of America
0.7569329273787089	40.7526008	-73.6104057	1051	Carle Place, NY, United States of America
0.7566954107904333	40.88935525	-73.9063664840425	1052	Fieldston School, NY, United States of America
0.7564581942948747	43.1857998	-77.7821076	1053	Spencerport, NY, United States of America
0.7562212772284287	44.8176792	-93.3312902	1054	Bloomington Jefferson, MN, United States of America
0.7555123159991057	33.62418925	-117.911108535691	1057	Newport Harbor, CA, United States of America
0.7552765900548488	40.3382193	-74.6846029	1058	Hun School, NJ, United States of America
0.7550411602529429	40.76538245	-73.9330317683768	1059	Long Island City, NY, United States of America
0.7548060259422281	40.6114905	-111.827044233995	1060	Brighton, UT, United States of America
0.7545711864735883	24.9938852	-80.5368649	1061	Coral Shores, FL, United States of America
0.7543366411999435	33.6869855	-111.8945891	1062	Pinnacle Club, AZ, United States of America
0.7541023894762413	39.44309765	-77.04142025	1063	South Carroll, MD, United States of America
0.7538684306594492	38.9684958	-104.847213	1064	Colorado Academy, CO, United States of America
0.7536347641085456	39.763616	-105.104473374666	1065	Wheat Ridge, CO, United States of America
0.7534013891845116	43.7405766	-70.2728682	1066	Falmouth, ME, United States of America
0.7531683052503242	39.5913883	-104.747298695684	1067	Grandview, CO, United States of America
0.7529355116709465	40.7648233	-73.6626294	1068	Herricks, NY, United States of America
0.7527030078133204	28.73563115	-81.3366099738316	1069	Lake Mary, FL, United States of America
0.752470793046359	41.47356475	-81.5698558703001	1070	Shaker Heights, OH, United States of America
0.7522388667409381	27.9236498	-82.5028791	1071	H.B. Plant Club, FL, United States of America
0.7520072282698882	38.63929895	-90.3973897578826	1072	Ladue Horton Watkins, MO, United States of America
0.7517758770079866	39.62472305	-79.9573685735105	1073	Morgantown, WV, United States of America
0.7513140336204278	40.8670432	-73.527346	1075	St. Dominic's, NY, United States of America
0.7510835402539902	39.192098	-76.6375082395843	1076	North County, MD, United States of America
0.7508533316151247	39.586908	-105.00365	1077	Heritage-Littleton, CO, United States of America
0.7506234070882277	43.2306344	-71.7189656	1078	Hopkinton, NH, United States of America
0.7503937660595944	42.496422	-71.0513563	1079	Wakefield Memorial, MA, United States of America
0.7501644079174139	41.8420428	-72.5548099	1080	South Windsor, CT, United States of America
0.7499353320517607	42.9718784	-78.6316321027381	1081	Clarence, NY, United States of America
0.7497065378545863	39.39468125	-77.3109763790769	1082	Oakdale, MD, United States of America
0.7494780247197128	40.9058094	-74.4901858	1083	Morris Catholic, NJ, United States of America
0.7492497920428252	41.70903195	-70.7679425178418	1084	Tabor Academy, MA, United States of America
0.7490218392214631	42.6377369	-84.5758553666614	1085	Holt, MI, United States of America
0.7487941656550148	39.5126661	-76.9021081	1086	Gerstell Academy, MD, United States of America
0.7483396538936066	41.69447865	-81.3370222469011	1088	Mentor, OH, United States of America
0.7481128145065957	35.2529156	-81.1881337	1089	Ashley, NC, United States of America
0.7478862519903828	39.9090931	-82.7336286	1090	Pickerington North, OH, United States of America
0.7476599657534851	42.10394145	-73.2378787493542	1091	Southfield School, MA, United States of America
0.7472082197607209	40.8633977	-79.9181111	1093	Butler Area, PA, United States of America
0.7469827588308824	42.39280695	-82.9040665061426	1094	Grosse Pointe South, MI, United States of America
0.7467575718324013	41.37832815	-73.393955376357	1095	Bethel, CT, United States of America
0.7465326581827452	37.7221877	-122.449000526358	1096	Lick-Wilmerding, CA, United States of America
0.7463080173011508	34.1159315	-84.564932	1097	Etowah, GA, United States of America
0.7460836486086168	35.95685825	-86.7654797381004	1098	Ravenwood, TN, United States of America
0.7458595515278964	41.9848186	-72.6506461	1099	Suffield Academy, CT, United States of America
0.7456357254834909	42.20554775	-71.4450314626025	1100	Holliston, MA, United States of America
0.7454121699016433	42.442884	-71.2332039805502	1101	Lexington HS, MA, United States of America
0.74518888421033	40.429517	-79.6690070705011	1102	Franklin Regional, PA, United States of America
0.7449658678392559	34.10645645	-84.1385882441725	1103	Lambert, GA, United States of America
0.7447431202198456	44.6506379	-93.2048131	1104	Farmington, MN, United States of America
0.7445206407852382	42.937945	-70.8380649	1105	Winnacunnet, NH, United States of America
0.7442984289702803	39.2688522	-76.6662459	1106	Seton Keough, MD, United States of America
0.7440764842115186	41.3268887	-81.6442883	1107	Brecksville-Broadview, OH, United States of America
0.7438548059471937	33.7037709	-117.780568271624	1108	Irvine, CA, United States of America
0.7436333936172339	41.964821	-71.447559	1109	Cumberland, RI, United States of America
0.7434122466632478	38.9702209	-77.2338456724456	1110	Madeira School, VA, United States of America
0.7431913645285184	41.0176809	-73.8708606	1111	Dobbs Ferry, NY, United States of America
0.7429707466579967	41.7114427	-87.7140522308264	1112	Mother McAuley, IL, United States of America
0.7427503924982938	28.681386	-81.3461791	1113	Lyman, FL, United States of America
0.7425303014976768	40.1556504	-76.3146795	1114	Warwick, PA, United States of America
0.7423104731060604	45.1501121	-93.3553595	1115	Champlin Park, MN, United States of America
0.7418716019576906	39.71276005	-74.258010495425	1117	Southern Regional, NJ, United States of America
0.741652558108951	39.9559945	-74.1946860979362	1118	Toms River South, NJ, United States of America
0.7414337746852263	40.2417733	-75.2687859	1119	Lansdale Catholic, PA, United States of America
0.7412152511445768	39.9935265	-75.5471528	1120	Charter School, DE, United States of America
0.740996986946674	34.0852058	-84.0706396	1121	North Gwinnett, GA, United States of America
0.7407789815527933	45.5188593	-122.689574989586	1122	Lincoln, OR, United States of America
0.7405612344258077	38.6439676	-90.41745189999999	1123	Villa Duchesne, MO, United States of America
0.7396928178998642	38.39507815	-85.5844571061266	1127	North Oldham, KY, United States of America
0.7394763541059508	40.2789706	-79.37681649999999	1128	Greater Latrobe, PA, United States of America
0.7392601453893853	28.1895298	-82.3267632	1129	Wesley Chapel HS Club, FL, United States of America
0.7390441912240566	42.35158615	-71.8744573491523	1130	Wachusett, MA, United States of America
0.7388284910854013	41.78434375	-88.0946170997029	1131	Benet Academy, IL, United States of America
0.7386130444504012	42.41570395	-71.1505745287741	1132	Arlington Catholic, MA, United States of America
0.7381829096069719	39.3986441	-75.0193118	1134	Millville, NJ, United States of America
0.7379682203601697	42.9666738	-71.4344026	1135	Manchester Memorial, NH, United States of America
0.7377537825402648	33.4682153	-84.6661807	1136	Northgate, GA, United States of America
0.737325659121098	41.74752635	-71.3206242536853	1138	Barrington, IL, United States of America
0.7371119724955781	42.43709245	-82.8892243741671	1139	Grosse Pointe North, MI, United States of America
0.7366853468582567	41.5877778	-73.9174999	1141	Wappingers, NY, United States of America
0.7364724068291626	33.8719	-83.9236999	1142	Grayson, GA, United States of America
0.7362597146507219	33.99974805	-84.6217313952747	1143	Kennesaw Mountain, GA, United States of America
0.7360472698179861	42.9217329	-76.7980105	1144	Mynderse Academy, NY, United States of America
0.7358350718274755	33.537093	-82.1010637	1145	Lakeside-Evans, GA, United States of America
0.7356231201771737	38.9140926	-77.53507119999999	1146	Freedom-South Riding, VA, United States of America
0.7354114143665221	43.5758801	-71.1883902	1147	Kingswood Regional, NH, United States of America
0.7351999538964152	39.9611755	-82.99879419999999	1148	Columbus SG, OH, United States of America
0.7349887382691938	41.8794737	-88.0609005	1149	Glenbard West, IL, United States of America
0.7347777669886404	36.873678	-76.19358799999999	1150	Norfolk Academy, VA, United States of America
0.7345670395599728	39.122609	-76.6282995	1151	Old Mill, MD, United States of America
0.7343565554898408	41.0595462	-74.282460100723	1152	Lakeland Regional, NJ, United States of America
0.7341463142863186	40.7248242	-74.0729192	1153	Mt. St. Dominic Acad, NJ, United States of America
0.733726558518495	41.8436493	-72.6557921107456	1155	Windsor, CT, United States of America
0.7333077683493996	40.09126335	-76.4140231496244	1157	Hempfield, PA, United States of America
