weight	latitude	longitude	rank	hs_name
7.51945378026559	39.2992019	-76.8396083059577	1	Mt. Hebron, MD, United States of America
5.9819998201101185	39.98793695	-74.9438015956539	2	Moorestown, NJ, United States of America
5.232825833326387	38.8178183	-77.1011477	3	Sts. Stephen's & Agnes, VA, United States of America
4.75889910271296	38.8720282	-76.8957652	4	St. Paul's SG, MD, United States of America
4.421057799529659	43.01362385	-75.9619659916267	5	Fayetteville-Manlius, NY, United States of America
4.162903863546375	40.0399648	-75.360608025	6	Radnor, PA, United States of America
3.9564341424901213	40.0462209	-75.3535211	7	Archbishop Carroll, PA, United States of America
3.785877858716706	39.1462195	-76.6852462	8	Severn School, MD, United States of America
3.6415499053657103	39.2688522	-76.6662459	9	Seton Keough, MD, United States of America
3.5171127763150825	39.9306677	-75.32018780000001	10	Springfield (DelCo), PA, United States of America
3.4082128387342285	39.4148265	-76.5786483	11	Notre Dame Prep, MD, United States of America
3.3117419018154495	40.0570949	-75.567083	12	Great Valley, PA, United States of America
3.225410444488128	39.5617737	-76.3302368	13	C. Milton Wright, MD, United States of America
3.147487705924498	39.6303721	-104.879335	14	Cherry Creek HS, CO, United States of America
3.0766364339818812	41.8395666	-72.6401410835967	15	Loomis Chaffee School, CT, United States of America
3.0118039596490895	41.038436	-73.626072	16	Greenwich Academy, CT, United States of America
2.9521481629564637	41.9453707	-73.4390102	17	Hotchkiss School, CT, United States of America
2.8969858071326935	42.9514554	-76.420768	18	Skaneateles, NY, United States of America
2.845755644188063	38.9751788	-76.4886206155201	19	St. Mary's, MD, United States of America
2.7979915310392007	40.8782306	-73.3421004166701	20	Northport, NY, United States of America
2.7533024862805373	39.9796447	-75.5653868	21	West Chester East, PA, United States of America
2.711357657614997	38.9217797	-76.5599615	22	South River, MD, United States of America
2.6718748271859836	39.3573289	-76.63561990000001	23	Roland Park CDS, MD, United States of America
2.6346115076740895	41.2045404	-73.4328986	24	Wilton, CT, United States of America
2.5993579637498168	40.7076001	-73.4440122	25	Farmingdale, NY, United States of America
2.5659316836744748	39.3562213	-76.6272672680563	26	Friends School, MD, United States of America
2.534172956572371	39.4250375	-76.991008	27	Century, MD, United States of America
2.5039413022330104	39.8496978	-74.9670539897655	28	Eastern, NJ, United States of America
2.4751125650758006	39.03994495	-76.4534831848471	29	Broadneck, MD, United States of America
2.447576530482218	43.1481445	-76.2158114319789	30	Liverpool, NY, United States of America
2.4212349556135164	40.79288105	-73.7045040358531	31	Manhasset, NY, United States of America
2.395999931818377	39.07779085	-76.5605181555464	32	Severna Park, MD, United States of America
2.3717925143457963	38.90944	-77.0694399	33	Georgetown Visitation, DC, United States of America
2.348541569081928	40.2454028	-75.6340730637132	34	Hill School, PA, United States of America
2.3046579024942484	42.6647282	-77.0613847	36	Penn Yan Academy, NY, United States of America
2.2839138874102334	41.2789753	-73.8584444	37	Lakeland-Panas, NY, United States of America
2.263902438803085	41.0850166	-73.4906280751206	38	Darien, CT, United States of America
2.244579405660245	43.1236224	-77.5663994	39	Brighton, NY, United States of America
2.225904344178967	40.7330556	-73.6530555	40	Garden City, NY, United States of America
2.207840122948313	39.3905794	-76.6002762716028	41	Towson HS, MD, United States of America
2.1903525786492937	40.04778665	-75.4537537294326	42	Conestoga, PA, United States of America
2.156983937141008	43.0397885	-76.2657614	44	West Genesee, NY, United States of America
2.141046820946736	42.0554269	-72.5607093	45	Longmeadow, MA, United States of America
2.1255739050528186	40.8745436	-74.2690363	46	West Essex, NJ, United States of America
2.1105420097431895	39.8559543	-74.7761224	47	Shawnee, NJ, United States of America
2.09592957487529	39.6754963	-76.4010768878517	48	North Harford, MD, United States of America
2.081716515758496	42.21701835	-71.2161230047884	49	Westwood, MA, United States of America
2.0678840945018746	38.9306667	-77.0705331	50	National Cathedral, DC, United States of America
2.054414804898234	42.6103375	-73.8566187238381	51	Bethlehem, NY, United States of America
2.04129226918573	40.1372446	-75.21528769999999	52	Germantown Academy, PA, United States of America
2.028501145259191	39.4281283	-76.6875369031863	53	Maryvale Prep, MD, United States of America
2.01602704309839	39.36443	-76.62987	54	Bryn Mawr, MD, United States of America
2.003856449345829	39.8834425	-75.7196607	55	Unionville, PA, United States of America
1.9919766591071613	38.9731554	-76.5674712347829	56	Annapolis, MD, United States of America
1.9803757141673255	40.2939665	-74.7290554	57	Lawrenceville School, NJ, United States of America
1.957965929380183	39.46068935	-76.612585140643	59	Dulaney, MD, United States of America
1.947136426780887	38.9917767	-77.1480345	60	Holton-Arms School, MD, United States of America
1.9365443552093458	40.7316667	-73.2544443	61	Bay Shore, NY, United States of America
1.9261807429332733	39.1245335	-76.64682719999999	62	Archbishop Spalding, MD, United States of America
1.9160370950058134	43.107274	-77.4932241	63	East Rochester, NY, United States of America
1.9061053608358167	40.01684785	-83.0546924783809	64	Upper Arlington, OH, United States of America
1.8963779044313773	38.8402362	-77.275978	65	W.T. Woodson, VA, United States of America
1.8868474770588919	41.13353025	-74.1100881791337	66	Suffern, NY, United States of America
1.8775071920882587	42.4998317	-71.3684304807641	67	Middlesex School, MA, United States of America
1.8683505018196964	40.00544155	-75.4228891134414	68	Episcopal Academy, PA, United States of America
1.8593711761094778	40.8564874	-73.4242871	69	Huntington, NY, United States of America
1.8505632826311114	39.2750246	-77.0033637273565	70	Glenelg HS, MD, United States of America
1.8419211686254582	39.44309765	-77.04142025	71	South Carroll, MD, United States of America
1.8334394440082604	39.25959465	-76.7292521365685	72	Catonsville, MD, United States of America
1.8251129657168235	39.5391652	-76.3330235	73	John Carroll School, MD, United States of America
1.816936823189364	41.8912631	-72.7959463000224	74	Westminster School, CT, United States of America
1.808906324880992	40.02106335	-74.9533997445549	75	Holy Cross, NJ, United States of America
1.8010169857295912	42.14802660000001	-77.1106719	76	Corning East, NY, United States of America
1.793264515493172	38.8787187	-77.2820454957048	77	Oakton, VA, United States of America
1.7856448078876563	43.158679	-76.3327099	78	Baldwinsville, NY, United States of America
1.7781539304606802	41.1187079	-73.3148382	79	Greens Farms Academy, NE, United States of America
1.7707881151429337	39.8945915	-75.3719465493986	80	Strath Haven, PA, United States of America
1.7635437494238613	43.7594256	-71.6744516	81	Holderness School, NH, United States of America
1.7564173681033282	39.59912935	-76.6596023713956	82	Hereford, MD, United States of America
1.749405645575139	42.420573	-71.1279179	83	Brooks School, MA, United States of America
1.7425053886021782	40.7107507	-74.3672938	84	Oak Knoll School, NJ, United States of America
1.7357135295464026	28.6823458	-81.4226193225388	85	Lake Brantley, FL, United States of America
1.729027120020081	38.96819065	-104.84612191246	86	Air Academy, CO, United States of America
1.722443324927508	42.31885485	-71.403216109992	87	Framingham, MA, United States of America
1.7095727708812882	40.89520265	-74.4273233602014	89	Mountain Lakes, NJ, United States of America
1.7032808594906133	43.05792515	-77.6063444861447	90	Rush-Henrietta, NY, United States of America
1.6970812480566027	39.3262047	-77.3407907	91	Urbana, MD, United States of America
1.690971590386931	45.3074236	-122.747698	92	West Linn-Wilsonville, OR, United States of America
1.679013169248136	39.25355915	-76.8702477135574	94	Centennial, MD, United States of America
1.6731601195969859	41.6039856	-73.1239992	95	Taft School, CT, United States of America
1.6673884441942295	39.6493139	-105.0561646	96	Kent Denver, CO, United States of America
1.6616961815665559	39.21605815	-76.9267008656082	97	River Hill, MD, United States of America
1.6560814371210548	42.45600145	-71.1341662183926	98	Winchester, MA, United States of America
1.650542380210023	40.75271605	-73.1837394883089	99	East Islip, NY, United States of America
1.645077241352745	39.26689425	-84.3520989953498	100	Sycamore, OH, United States of America
1.6396843096043783	39.122609	-76.6282995	101	Old Mill, MD, United States of America
1.6343619300627878	39.14155015	-77.0457855235145	102	Good Counsel, MD, United States of America
1.6291085015048208	38.5542882	-76.5824572	103	Calvert, MD, United States of America
1.6239224741441143	27.62859005	-80.4035754155209	104	Vero Beach, FL, United States of America
1.6188023475030962	39.8894	-75.3336999	105	Ridley, PA, United States of America
1.6137466683923223	42.5223171	-71.0542193	106	Montrose School, MA, United States of America
1.6087540289907953	40.8650992	-73.5951263	107	Friends Academy, NY, United States of America
1.6038230650213192	41.7362325	-72.7509292757843	108	Conard, CT, United States of America
1.5989524540153517	38.9386375	-77.0751267	109	Sidwell Friends, DC, United States of America
1.5941409136621967	43.1745123	-76.1038116	110	Cicero-North Syracuse, NY, United States of America
1.5893872002377059	45.5279622	-122.821174188664	111	Sunset, OR, United States of America
1.5846901071079813	39.5220529	-76.4131134	112	Fallston, MD, United States of America
1.5800484633038712	28.6377762	-81.2733999	113	Lake Howell, FL, United States of America
1.5754611321623102	26.65013385	-80.2660799656345	114	Wellington, FL, United States of America
1.5709270100308177	41.55623195	-71.4485952335191	115	North Kingstown, RI, United States of America
1.566445025031694	38.7556716	-76.0654963	116	Easton, MD, United States of America
1.562014135882681	40.0667778	-75.2046222	117	Springside School, PA, United States of America
1.5576333307710422	39.4133502	-76.9531704	118	Liberty, MD, United States of America
1.5533016262782189	32.83405585	-117.272892092514	119	La Jolla, CA, United States of America
1.5490180663523836	42.2644674	-87.8400694	120	Lake Forest, IL, United States of America
1.5447817213263788	40.028738	-75.350141	121	Agnes Irwin, PA, United States of America
1.5405916869786789	39.2787182	-76.6108001	122	Southern, MD, United States of America
1.5364470836351585	47.62487910000001	-122.5210008	123	Bainbridge Island A, WA, United States of America
1.5323470553095735	38.885289	-77.4645284	124	Westfield, VA, United States of America
1.5282907688807894	39.39829565	-76.7724035842073	125	McDonogh School, MD, United States of America
1.5242774133049135	41.04018275	-73.6133129328867	126	Greenwich HS, CT, United States of America
1.520306198860577	30.63259635	-87.0453117621274	127	Milton, GA, United States of America
1.516376356425726	41.8573153	-73.619571	128	Millbrook School, NY, United States of America
1.5124871367843755	39.0376119	-76.053277	129	Queen Anne's County, MD, United States of America
1.5086378099618594	39.3672791	-76.5895879	130	Mercy, MD, United States of America
1.5048276645871967	42.2081552	-71.0058807	131	Thayer Academy, MA, United States of America
1.5010560072812704	41.2560052	-81.4139387452058	132	Hudson, OH, United States of America
1.4973221620695891	45.5188593	-122.689574989586	133	Lincoln, OR, United States of America
1.493625469818464	40.01169005	-75.7178930752684	134	Downingtown West, PA, United States of America
1.4899652876935023	42.0475245	-70.6793292488759	135	Duxbury, MA, United States of America
1.4863409886393792	39.2918276	-76.4195268843231	136	Chesapeake, MD, United States of America
1.4791976074373816	42.08292405	-87.7600667611925	138	Loyola Academy, IL, United States of America
1.4756773456706151	40.196	-75.2433999	139	Gwynedd-Mercy Academy, PA, United States of America
1.472190606830314	39.6103807	-76.8610887	140	North Carroll, MD, United States of America
1.4687368356315196	39.01490625	-77.0351496865924	141	Holy Cross, MD, United States of America
1.4653154898420475	39.6295559	-104.8009153	142	Smoky Hill, CO, United States of America
1.4619260398863223	26.3835793	-80.1455623	143	St. Andrew's, FL, United States of America
1.4585679684639046	37.2777997	-79.9384281	144	St. Andrew's, DE, United States of America
1.4552407701820766	38.8802258	-77.4064865	145	Chantilly, VA, United States of America
1.451943951201873	28.73563115	-81.3366099738316	146	Lake Mary, FL, United States of America
1.4486770288969713	43.2004366	-71.551175	147	Concord, NH, United States of America
1.442230997910028	41.48156625	-81.5416774277777	149	Hathaway Brown, OH, United States of America
1.4390509771378568	40.8384331	-73.6312389	150	North Shore, NY, United States of America
1.43589902826011	41.7009328	-72.5934232	151	Glastonbury, CT, United States of America
1.4327747200102012	40.97768845	-74.10647155	152	Ridgewood, NJ, United States of America
1.429677630528631	39.0293096	-77.1979298634907	153	Bullis School, MD, United States of America
1.4266073470979062	40.7306507	-73.220733	154	West Islip, NY, United States of America
1.4235634658866005	40.09965205	-75.2701401888487	155	Plymouth Whitemarsh, PA, United States of America
1.4205455917021734	39.6513889	-105.0366666	156	Mullen, CO, United States of America
1.4175533377522007	42.11058775	-72.4445531639882	157	Minnechaug, MA, United States of America
1.4145863254136777	41.292594	-73.8029119	158	Yorktown, NY, United States of America
1.41164418401007	42.8256495	-71.5801458	159	Souhegan, NH, United States of America
1.4087265505958095	39.9828955	-74.1954193	160	Toms River North, NJ, United States of America
1.4058330697479389	40.5925865	-74.6343546	161	Bridgewater-Raritan, NJ, United States of America
1.4029633933646244	39.4189054	-76.7753229756711	162	Garrison Forest, MD, United States of America
1.3972940970269903	42.895364	-71.317286	164	Pinkerton Academy, NH, United States of America
1.3944938157521563	39.2827324	-77.2094462410655	165	Damascus, MD, United States of America
1.3917160159418493	38.9684958	-104.847213	166	Colorado Academy, CO, United States of America
1.3889603832999342	39.3934504	-76.6747359074678	167	Park School, MD, United States of America
1.3862266097725748	39.3896693	-104.856866	168	Douglas County, CO, United States of America
1.3808234381011841	40.6894488	-73.5132704684335	170	Wantagh, NY, United States of America
1.37815345364367	41.5026696	-81.5630091897385	171	Cleveland Heights, OH, United States of America
1.375504155377669	41.0490834	-73.9540163	172	Tappan Zee, NY, United States of America
1.3728752641549526	40.8289878	-73.4834562	173	Syosset, NY, United States of America
1.3702665061799608	28.5416151	-81.5669931081997	174	West Orange, FL, United States of America
1.3676776128771055	39.9169129	-75.4207639	175	Penn Charter, PA, United States of America
1.3651083207621033	42.28696755	-71.2316980574263	176	Needham, MA, United States of America
1.3625583713171845	42.0728919	-71.3323046456334	177	King Philip, MA, United States of America
1.3600275108700532	41.74752635	-71.3206242536853	178	Barrington, RI, United States of America
1.3575154904764533	40.741389	-73.6577776	179	Mineola, NY, United States of America
1.3525469970326869	41.47356475	-81.5698558703001	181	Shaker Heights, OH, United States of America
1.3500900487253586	40.7777808	-74.5912517090318	182	Mendham, NJ, United States of America
1.3476509897456845	42.3990754	-71.4001700040642	183	Lincoln-Sudbury, MA, United States of America
1.3452295931458815	40.0416337	-75.660066940317	184	Downingtown East, PA, United States of America
1.3428256360706659	39.9678804	-75.5991665	185	West Chester Henderson, PA, United States of America
1.3404388996618097	40.916255	-73.0744567809568	186	Ward Melville, NY, United States of America
1.3380691689654227	39.9214361	-74.8554318	187	Lenape, NJ, United States of America
1.3357162328418646	41.06517885	-73.6923029199058	188	Convent-Sacred Heart, CT, United States of America
1.3333798838782052	40.3382193	-74.6846029	189	Hun School, NJ, United States of America
1.331059918303145	40.09067845	-83.0291908390627	190	Thomas Worthington, OH, United States of America
1.328756135904313	40.81222	-73.3894399	191	St. Anthony's, NY, United States of America
1.326468339947862	42.30258735	-71.2792295320111	192	Wellesley HS, MA, United States of America
1.3241963371002945	42.503405	-70.94947499999999	193	Peabody Veterans Mem., MA, United States of America
1.3219399373524328	40.8098887	-74.7285183	194	West Morris Central, NJ, United States of America
1.319698953945478	43.218001	-77.5983669	195	Irondequoit, NY, United States of America
1.3174732032990761	42.260537	-71.1847489	196	Noble & Greenough, MA, United States of America
1.315262504941341	39.8745176	-74.8974412277105	197	Cherokee, NJ, United States of America
1.3130666814407557	40.6369444	-73.6299999	198	Oceanside, NY, United States of America
1.3108855583399113	39.9620087	-82.9482362	199	Columbus Academy, OH, United States of America
1.3087189640910044	33.8426044	-84.431873	200	Westminster School, GA, United States of America
1.3065667299930546	41.833491	-71.3980237	201	Moses Brown School, RI, United States of America
1.3044286901307787	42.2649238	-72.6742172426393	202	Williston Northampton, MA, United States of America
1.3023046813150727	39.57143665	-76.9768013304972	203	Winters Mill, MD, United States of America
1.3001945430250526	36.0672263	-86.9655213	204	Harpeth Hall, TN, United States of America
1.298098117351603	27.6000901	-80.33890439999999	205	St. Edward's, FL, United States of America
1.2960152489423897	42.75259725	-71.5127662824502	206	Nashua, NH, United States of America
1.2939457849482896	43.0453937	-76.4728887089275	207	Jordan-Elbridge, NY, United States of America
1.2918895749711967	42.47982085	-71.4583269841174	208	Acton-Boxborough, MA, United States of America
1.2898464710131614	43.7992465	-70.1850494	209	North Yarmouth Academy, ME, United States of America
1.287816327426821	39.5414903	-76.9924814	210	Westminster, MD, United States of America
1.2857990008670863	40.6855452	-73.4937671507594	211	Seaford, NY, United States of America
1.2837943502440428	45.39734995	-122.692798822972	212	Lakeridge, OR, United States of America
1.2818022366770354	39.4057672	-76.5621990790781	213	Loch Raven, MD, United States of America
1.2798225234498959	42.2132092	-71.5267901996232	214	Hopkinton, MA, United States of America
1.2778550759672818	39.02506835	-77.1301048813096	215	Walter Johnson, MD, United States of America
1.2758997617120966	38.0522017	-78.476847	216	Charlottesville, VA, United States of America
1.273956450203956	42.09447385	-87.7198764776642	217	New Trier, IL, United States of America
1.27010532344872	40.68851595	-73.9024133515835	219	Holy Trinity, NY, United States of America
1.2681972570646776	42.3282822	-71.6074425509687	220	Algonquin, MA, United States of America
1.2663006910775774	41.5931836	-70.9775741819829	221	Dartmouth, MA, United States of America
1.2644155046021794	40.8603759	-73.2890049	222	Commack, NY, United States of America
1.2625415785611152	43.0730556	-73.7994443	223	Saratoga Springs, NY, United States of America
1.2606787956498888	40.2953597	-74.0226274	224	Shore Regional, NJ, United States of America
1.2588270403027086	41.12858455	-73.489421231771	225	New Canaan, CT, United States of America
1.2569861986591244	42.3427122	-71.3758272580667	226	Wayland, MA, United States of America
1.2551561585314495	42.56106895	-71.2739867812867	227	Billerica, MA, United States of America
1.2533368093729476	40.6936985	-74.5471314	228	Ridge, NJ, United States of America
1.2515280422467578	40.9525987	-72.9253804	229	Rocky Point, NY, United States of America
1.2497297497955444	38.9364776	-77.1554318515203	230	Potomac School, VA, United States of America
1.2479418262118442	38.8255028	-77.0943289	231	Episcopal, VA, United States of America
1.2461641672090995	41.70903195	-70.7679425178418	232	Tabor Academy, MA, United States of America
1.2443966699933522	41.0878289	-74.0013349	233	Nanuet, NY, United States of America
1.2426392332355858	42.1621643	-76.8240741	234	Horseheads, NY, United States of America
1.2408917570446931	26.27435675	-80.2209597386007	235	Coral Springs, FL, United States of America
1.239154142941057	40.8366091	-73.1014158157605	236	Sachem, NY, United States of America
1.2374262938307268	47.6361834	-122.513506528154	237	Kitsap, WA, United States of America
1.2357081139801709	39.0721718	-76.6830553	238	Arundel, MD, United States of America
1.2339995089915972	40.1155415	-83.0558302	239	Worthington Kilbourne, OH, United States of America
1.2306106525436555	41.3172398	-72.9738311644653	241	Hopkins School, CT, United States of America
1.228930218752858	40.6125065	-74.025795092714	242	Poly Prep CDS, NY, United States of America
1.227258995115535	42.15464885	-70.8401319665693	243	Norwell, MA, United States of America
1.2255968935610764	38.8093982	-77.0812583	244	Bishop Ireton, VA, United States of America
1.2239438272175585	39.1896909	-76.8812352685969	245	Atholton, MD, United States of America
1.2222997103906137	38.981785	-77.1275023330957	246	Walt Whitman, MD, United States of America
1.2206644585427615	41.4900972	-72.9064913	247	Cheshire, CT, United States of America
1.2190379882731817	40.2536054	-75.6394776	248	Pottstown, PA, United States of America
1.2174202172979212	42.32390075	-72.6523225634159	249	Northampton, MA, United States of America
1.2158110644305242	40.94151859999999	-72.8672934	250	Shoreham-Wading River, NY, United States of America
1.2142104495630732	39.14233995	-77.4176930480543	251	Poolesville, MD, United States of America
1.212618293647634	39.1669079	-76.8604564350845	252	Hammond, MD, United States of America
1.2110345186780878	40.7199362	-74.3645897018701	253	Kent Place School, NJ, United States of America
1.2094590476723497	40.77110715	-74.409128994311	254	Madison, NJ, United States of America
1.2078918046549563	40.7902778	-73.9713888	255	Trinity School, NY, United States of America
1.2063327146400171	38.9995542	-77.1874797	256	Holy Child, MD, United States of America
1.2047817036145214	40.2955189	-75.353050273046	257	Souderton Area, PA, United States of America
1.2032386985219867	39.39169255	-76.4655725464706	258	Perry Hall, MD, United States of America
1.2017036272464494	38.8598759	-77.2862969757435	259	Fairfax, VA, United States of America
1.200176418596779	39.1453143	-84.364127405997	260	Mariemont, OH, United States of America
1.1986570022913163	32.6382191	-82.7676383	261	Lovett, GA, United States of America
1.1971453089428243	42.6999184	-71.1163794	262	North Andover, MA, United States of America
1.1956412700437424	39.0491051	-77.5094513630933	263	Stone Bridge, VA, United States of America
1.1941448179517395	39.5617737	-76.3302368	264	Milton, MA, United States of America
1.1926558858755603	42.0739637	-72.6450505172579	265	Agawam, MA, United States of America
1.1911744078611533	33.34623175	-111.766494829613	266	Gilbert, AZ, United States of America
1.1897003187780752	40.3746091	-80.051505429267	267	Mount Lebanon, PA, United States of America
1.1853217458885745	40.26378655	-74.5221782963702	270	Peddie School, NJ, United States of America
1.183876577237752	34.836476	-87.6780838	271	Buckingham, MA, United States of America
1.182438483762981	39.9611755	-82.99879419999999	272	Columbus SG, OH, United States of America
1.1795832812391003	39.9190019	-75.1746228	274	Baldwin School, PA, United States of America
1.178166053466356	39.52953035	-76.3468870410099	275	Bel Air, MD, United States of America
1.1767556633994232	40.30530905	-75.1377394613682	276	Central Bucks West, PA, United States of America
1.1753520534527975	42.9723104	-70.9564454	277	Exeter Area HS, NH, United States of America
1.1739551667315928	44.0145017	-76.0199266	278	General Brown, NY, United States of America
1.17256494702081	39.216984	-76.8727114957514	279	Wilde Lake, MD, United States of America
1.171181338774808	40.1071378	-83.1311268	280	Dublin Coffman, OH, United States of America
1.1698042871069814	40.331132	-75.6299489	281	Boyertown Area, PA, United States of America
1.168433737779625	40.027319	-75.565855	282	Villa Maria Academy, PA, United States of America
1.1670696371939957	39.25445545	-76.9586040620501	283	Glenelg Country School, MD, United States of America
1.1657119323805587	39.741585	-104.9559827	284	Denver East, CO, United States of America
1.164360570989417	40.4267825	-79.6685916	285	Franklin Regional, MD, United States of America
1.163015501280918	40.7356567	-74.2657026	286	Columbia, NJ, United States of America
1.1616766721164367	28.6733304	-81.2183982	287	Oviedo, FL, United States of America
1.1603440329493298	40.6200347	-74.5677171	288	Pingry School, NJ, United States of America
1.159017533816053	42.5457596	-72.6060204	289	Deerfield Academy, MA, United States of America
1.1576971253274488	43.0410394	-76.0978925	290	Henninger-Nottingham, NY, United States of America
1.156382758660186	40.05130755	-83.1562758270621	291	Hilliard Davidson, OH, United States of America
1.1550743855483612	40.6692701	-73.9787498	292	John Jay, NY, United States of America
1.1537719582752521	37.36882005	-121.838274997207	293	Foothill, CA, United States of America
1.1498998823896753	40.83005379999999	-73.6795819	296	Port Washington, NY, United States of America
1.1486207720074542	38.8022995	-77.2718110517746	297	Lake Braddock, VA, United States of America
1.1473473768396913	41.6292623	-73.310673	298	The Gunnery, CT, United States of America
1.1448175542963306	39.74417505	-105.21164608271	300	Golden, CO, United States of America
1.1435610392266586	42.6887514	-70.8518328	301	Ipswich, MA, United States of America
1.1423100639691526	42.3457322	-71.2085588532235	302	Newton North, MA, United States of America
1.1410645858766986	40.6678787	-73.4531796	303	Massapequa, NY, United States of America
1.1398245627698538	41.5178802	-71.2867163	304	Middletown, RI, United States of America
1.1385899529301995	43.2111919	-71.5570167	305	Bishop Brady, NH, United States of America
1.1373607150938105	43.1542731	-71.5477547	306	Bow, NH, United States of America
1.1361368084448376	42.6982304	-73.9654422842923	307	Guilderland, NY, United States of America
1.134918192609201	40.6676022	-73.6051284	308	Baldwin, NY, United States of America
1.1337048276483936	39.586908	-105.00365	309	Heritage-Littleton, CO, United States of America
1.1324966740533913	38.9282293	-77.0600432	310	Maret School, DC, United States of America
1.1312936927386648	42.6999184	-71.1163794	311	Andover, MA, United States of America
1.1300958450362972	42.3667625	-71.3031131	312	Weston, MA, United States of America
1.1289030926902017	29.9423267	-95.6527252569066	313	Cy-Fair, TX, United States of America
1.1277153978504344	44.00693375	-73.1639788874456	314	Middlebury Union, VT, United States of America
1.126532723067606	41.5578911	-70.6253182	315	Falmouth Academy, MA, United States of America
1.1253550312873881	27.7581049	-80.5154661762105	316	Sebastian River, FL, United States of America
1.124182285845111	38.2701269	-76.6113486	317	Leonardtown, MD, United States of America
1.1218514892322136	42.442884	-71.2332039805502	319	Lexington HS, MA, United States of America
1.1206933666331858	38.7863077	-77.2402379	320	West Springfield, VA, United States of America
1.1195400475050998	38.2746352	-122.0307997	321	Fairfield, CT, United States of America
1.1183914970536586	40.0315006	-75.0337826	322	St. Hubert's, PA, United States of America
1.117247680843654	41.2961798	-73.3369952714363	323	Joel Barlow, CT, United States of America
1.116108564794162	40.0873662	-74.6852532763563	324	Northern Burlington, NJ, United States of America
1.1149741151738184	41.87159675	-72.821883157628	325	Simsbury, CT, United States of America
1.113844298596171	40.88166555	-73.2438755673074	326	Kings Park, NY, United States of America
1.1127190820151067	38.95024725	-104.772659180584	327	Rampart, CO, United States of America
1.111598432720356	39.7421068	-75.0766802	328	Washington Township, NJ, United States of America
1.110482318333066	38.96248	-77.0550499	329	St. John's College, DC, United States of America
1.1093707068014498	40.5170362	-74.8518362	330	Hunterdon Central, NJ, United States of America
1.1082635663965015	43.8897803	-92.8364760807336	331	Hayfield, VA, United States of America
1.1071608657077832	39.2260365	-76.812067243631	332	Howard, MD, United States of America
1.106062573639279	41.7946687	-72.7508648321022	333	Hall, CT, United States of America
1.1049686594053139	29.9411193	-90.113531	334	Ursuline Academy, OH, United States of America
1.1038790925265376	41.6111735	-71.2508454150901	335	Portsmouth HS, RI, United States of America
1.1027938428259758	41.0703745	-73.8426344	336	Hackley School, NY, United States of America
1.1017128804251386	42.454775	-76.4970466746796	337	Ithaca, NY, United States of America
1.1006361757401932	39.047498	-77.031526	338	St. Andrew's, DC, United States of America
1.0995636994781983	40.6998227	-73.4748467	339	Plainedge, NY, United States of America
1.0984954226333936	38.7266318	-77.0927207	340	Mt. Vernon, VA, United States of America
1.0974313164835516	39.5829291	-104.962775007037	341	Arapahoe, CO, United States of America
1.0963713525863825	41.28772765	-72.8004366413514	342	Branford, CT, United States of America
1.0953155027759987	41.7508392	-99.297326	343	Kent School, CT, United States of America
1.09426373915943	42.1473471	-72.7537507	344	Westfield, MA, United States of America
1.0932160341131978	39.3254345	-76.4724602454706	345	Eastern Technical, MD, United States of America
1.0921723602799362	39.9232086	-75.4314683	346	Penncrest, PA, United States of America
1.0911326905650707	40.7208073	-74.370989196874	347	Summit, NJ, United States of America
1.0900969981335435	41.29351425	-72.619382907253	348	Daniel Hand, CT, United States of America
1.089065256406592	33.970744	-84.216646	349	Wesleyan, GA, United States of America
1.0880374390585736	41.84104335	-71.4470948823164	350	La Salle Academy, RI, United States of America
1.0859934734436651	42.9084609	-77.27235259999999	352	Canandaigua Academy, NY, United States of America
1.0849772737632004	39.140745	-77.7005860443286	353	Loudoun Valley, VA, United States of America
1.0839648956285017	41.8420428	-72.5548099	354	South Windsor, CT, United States of America
1.0829563139335823	40.8633333	-73.2430555	355	Smithtown, NY, United States of America
1.0819515038075167	39.912591	-75.0776346	356	Collingswood, NJ, United States of America
1.0809504406115868	38.3418227	-75.1906972	357	Stephen Decatur, MD, United States of America
1.0799530999364713	43.1478404	-77.537776	358	Our Lady of Mercy, NY, United States of America
1.0789594575994759	43.1369037	-77.4701760374478	359	Penfield, NY, United States of America
1.0779694896418048	40.7317463	-74.4007444	360	Chatham, NJ, United States of America
1.0769831723258734	42.3024378	-71.7446637922589	361	Shrewsbury, MA, United States of America
1.076000482132658	41.4098714	-73.2715494078504	362	Newtown, CT, United States of America
1.0750213957590895	39.4222105	-76.2861595	363	Edgewood, MD, United States of America
1.0740458901154786	42.9422798	-78.8575353	364	Nichols School, NY, United States of America
1.0730739423229845	40.8371414	-81.9463039	365	Wooster, OH, United States of America
1.072105529711118	43.3964738	-70.548664	366	Kennebunk, ME, United States of America
1.0701792203743343	42.1718935	-71.0673706073117	368	Tower Hill School, DE, United States of America
1.069221279328227	38.9491885	-77.1665079	369	Langley, VA, United States of America
1.0682667848156195	42.7268624	-78.8298435	370	Hamburg, NY, United States of America
1.0673157151715753	39.14681235	-77.0187069262227	371	Sherwood, MD, United States of America
1.0663680489252685	33.6626794	-84.4422323	372	Woodward Academy, GA, United States of America
1.0654237647977285	42.3938659	-71.2296977001954	373	Waltham, MA, United States of America
1.0644828416996184	40.4964701	-74.6557896	374	Hillsborough, NJ, United States of America
1.063545258729042	39.0439925	-77.172990652889	375	Churchill, MD, United States of America
1.062610995169383	40.7350984	-73.0940003	376	Sayville, NY, United States of America
1.0616800304871767	40.82316305	-74.2131656036377	377	Montclair HS, NJ, United States of America
1.060752344330009	41.3487213	-73.1941493264072	378	Masuk, CT, United States of America
1.0598279165244462	42.1278526	-76.022423	379	Maine-Endwell, NY, United States of America
1.0589067270739936	40.3481711	-74.0656232	380	Red Bank Catholic, NJ, United States of America
1.0579887561570833	43.9864256	-75.6459341	381	Carthage, NY, United States of America
1.05707398412509	40.2555149	-74.7434722	382	Notre Dame, NJ, United States of America
1.0561623915003728	39.63929185	-77.40846815563	383	Catoctin, MD, United States of America
1.0552539589743462	35.9444845	-79.078599237112	384	Chapel Hill, NC, United States of America
1.0543486674055782	40.57369705	-111.888123053518	385	Jordan, UT, United States of America
1.0534464978179112	42.20554775	-71.4450314626025	386	Holliston, MA, United States of America
1.0525474313986132	41.3278708	-73.5303072630782	387	Ridgefield, CT, United States of America
1.051651449496552	42.2251225	-70.8776890401925	388	Hingham, MA, United States of America
1.0507585336203942	41.6001022	-71.2708822	389	Portsmouth Abbey, RI, United States of America
1.04986866543683	43.0300663	-76.2021481	390	Westhill, NY, United States of America
1.0480979995938764	40.0064442	-74.9962900207472	392	Cinnaminson, NJ, United States of America
1.0472171660423406	42.604433	-71.5628435838169	393	Lawrence Academy, MA, United States of America
1.0463393083957206	39.387761	-76.5381125839706	394	Parkville, MD, United States of America
1.045464409085023	42.1913486	-71.2152722347482	395	Norwood, MA, United States of America
1.0445924506891189	41.8321384	-71.3834241139669	396	Lincoln School, RI, United States of America
1.0437234159331301	41.2144444	-74.016111	397	North Rockland, NY, United States of America
1.0428572876868365	38.9864508	-77.089104	398	Bethesda-Chevy Chase, MD, United States of America
1.0419940489631043	40.1819269	-74.0236889	399	St. Rose, NJ, United States of America
1.0411336829163373	43.0822349	-76.0276318	400	East Syracuse-Minoa, NY, United States of America
1.0402761728409455	40.6673246	-73.6209621	401	South Side, NY, United States of America
1.0394215021698368	45.53887975	-122.627105486497	402	Grant, OR, United States of America
1.038569654472928	42.96228	-78.7903109	403	Amherst, NY, United States of America
1.037720613455674	28.58374845	-81.3201033014906	404	Winter Park, FL, United States of America
1.0368743629576187	43.69874465	-72.2832153186343	405	Hanover, NH, United States of America
1.036030886950963	41.461004	-73.5077322	406	New Fairfield, CT, United States of America
1.035190169539152	40.0806311	-74.530649	407	New Egypt, NJ, United States of America
1.0343521949554835	38.720068	-77.8147212	408	Fauquier, VA, United States of America
1.033516947561728	40.905315	-73.0124669	409	Comsewogue, NY, United States of America
1.032684411846774	33.57609025	-111.932588487677	410	Chaparral, AZ, United States of America
1.0318545724252866	37.8018525	-79.42277680000001	411	Rockbridge County, VA, United States of America
1.0310274140363842	39.192098	-76.6375082395843	412	North County, MD, United States of America
1.0302029215423338	39.11336105	-77.0176391342249	413	Blake, MD, United States of America
1.0293810799272602	42.5931184	-71.5865252434644	414	Groton School, MA, United States of America
1.028561874295876	42.5699445	-70.8470722	415	Waring School, MA, United States of America
1.0277452898722221	40.1004231	-75.2070644	416	Springfield (MontCo), PA, United States of America
1.0269313119984314	43.6460715	-70.2696659	417	Waynflete, ME, United States of America
1.026119926133501	40.032911	-75.1725330255426	418	Germantown Friends, PA, United States of America
1.0253111178520864	39.9837231	-75.3010194	419	Haverford HS, PA, United States of America
1.0245048728433064	42.9922222	-76.3433332	420	Marcellus, NY, United States of America
1.023701176909565	45.3194764	-122.563604712602	421	Oregon City, OR, United States of America
1.0229000159653892	40.8638204	-72.9242514481796	422	Longwood, NY, United States of America
1.0221013760362796	35.9607794	-79.0289107808845	423	East Chapel Hill, NC, United States of America
1.0213052432575762	41.6588267	-71.4219228	424	Rocky Hill School, RI, United States of America
1.0205116038733384	32.9947515	-117.065010408639	425	Rancho Bernardo, CA, United States of America
1.019720444235239	42.1850346	-71.297188	426	Medfield, MA, United States of America
1.0189317508014728	40.6536111	-73.6727777	427	Lynbrook, NY, United States of America
1.0181455101356771	40.8423218	-74.2962596	428	Caldwell, NJ, United States of America
1.0173617089058677	42.7736705	-78.730585	429	Orchard Park, NY, United States of America
1.0165803338833859	38.685118	-76.6535734	430	Northern-Calvert, MD, United States of America
1.0158013719418602	34.0484502	-84.2085954	431	Chattahoochee, GA, United States of America
1.0150248100561798	41.3764363	-72.1039277	432	Williams School, CT, United States of America
1.0142506353014829	41.42655975	-81.3791952538465	433	Chagrin Falls, OH, United States of America
1.0134788348521533	39.938818	-75.0522364	434	Camden Catholic, NJ, United States of America
1.0127093959808329	39.0227062	-77.4906800773258	435	Broad Run, VA, United States of America
1.011942306057446	42.3131531	-71.1861651	436	Newton South, MA, United States of America
1.0104151230147982	37.5796741	-77.586755	438	Collegiate School, VA, United States of America
1.0096550051131694	41.0384302	-74.1434769	439	Northern Highlands, NJ, United States of America
1.008897186592866	40.7149336	-73.5817628272131	440	Kellenberg, NY, United States of America
1.0081416552959825	40.1970949	-75.163972524242	441	Hatboro-Horsham, PA, United States of America
1.0073883991562793	38.824317	-77.4105839413102	442	Centreville, VA, United States of America
1.0066374061982868	39.37750795	-76.6986228639169	443	Pikesville, MD, United States of America
1.005888664536419	41.82877585	-71.39734356005	444	Wheeler School, RI, United States of America
1.005142162374099	41.18989029999999	-81.9266602	445	Medina Club, OH, United States of America
1.0043978880028939	38.8220478	-77.2075747	446	Annandale, VA, United States of America
1.0036558298016598	39.0770529	-77.1833137	447	Wootton, MD, United States of America
1.0029159762356983	38.781458	-77.133376	448	Thomas Alva Edison, VA, United States of America
1.0021783158559212	38.9500972	-77.0778084	449	Wilson, DC, United States of America
1.001442837298028	35.80551335	-78.8668352256792	450	Green Hope, NC, United States of America
1.000709529281689	41.7876875	-87.9338967063461	451	Hinsdale Central, IL, United States of America
0.9999783806097414	45.562432	-122.902156543943	452	Liberty, OR, United States of America
0.9992493801673938	40.1219539	-83.0989496709546	453	Dublin Scioto, OH, United States of America
0.9985225169214405	38.22197055	-85.7576153827687	454	Manual, KY, United States of America
0.9977977799194829	40.7263338	-73.3246519782362	455	North Babylon, NY, United States of America
0.9970751582891633	39.9348351	-75.0307263	456	Cherry Hill West, NJ, United States of America
0.9963546412374054	41.5325984	-72.6750943	457	Mercy, CT, United States of America
0.9949198780891814	37.2954121	-80.0792075	459	Salem, VA, United States of America
0.9942056107962616	41.5131082	-81.5003991	460	Hawken School, OH, United States of America
0.9934934056875384	40.8684557	-73.3586549	461	Harborfields, NY, United States of America
0.9927832523552621	40.2665153	-74.0309938	462	Ocean Township, NJ, United States of America
0.992075140466594	38.1567981	-79.0775294	463	Robert E. Lee, VA, United States of America
0.9913690597629033	39.98391	-75.261518	464	Friends Central, PA, United States of America
0.9906650000590785	42.7359829	-78.6241745	465	East Aurora, NY, United States of America
0.9892629032740735	39.5162219	-76.1713421	467	Aberdeen, MD, United States of America
0.9885648461841463	38.8445157	-83.5549164	468	Laurel School, OH, United States of America
0.9871746651197977	43.0437803	-76.17362829999999	470	Corcoran-Fowler, NY, United States of America
0.9864825215596655	43.4504806	-76.5246399	471	Oswego, NY, United States of America
0.9857923297056684	42.12968015	-71.043622816625	472	Avon, CT, United States of America
0.9851040799368712	38.3598484	-76.7057973	473	Chopticon, MD, United States of America
0.9844177626999772	29.431633	-94.7070519	474	Albermarle, VA, United States of America
0.9837333685087108	42.2281665	-72.5854986808637	475	South Hadley, MA, United States of America
0.9830508879432075	39.4464902	-77.5341542	476	Middletown, MD, United States of America
0.9823703116494098	39.424135	-76.7935208051165	477	Owings Mills, MD, United States of America
0.9816916303384714	38.0469516	-78.7066091	478	Western Albermarle, VA, United States of America
0.9810148347861675	39.4745548	-77.3610315	479	Walkersville, MD, United States of America
0.9803399158323111	41.31216985	-72.7119570639331	480	Guilford, CT, United States of America
0.9789956713959257	41.5637057	-73.4134543	482	New Milford, CT, United States of America
0.9783263279080512	39.6946252	-105.144934545025	483	Green Mountain, CO, United States of America
0.9776588250068116	42.39280695	-82.9040665061426	484	Grosse Pointe South, MI, United States of America
0.9763293056308076	40.03750465	-83.1679043786193	486	Hilliard Darby, OH, United States of America
0.9756672716404658	42.4355935	-71.1930303	487	Lexington Christian, MA, United States of America
0.9750070432045301	42.0297007	-71.2036696483533	488	Mansfield, MA, United States of America
0.9743486117139433	39.2853875	-76.0921701	489	Kent County, MD, United States of America
0.9730371054248018	47.5719538	-122.2181026	491	Mercer Island A, WA, United States of America
0.9723840136988042	43.5823751	-71.2074454	492	Brewster Academy, NH, United States of America
0.9717326850622522	33.6247392	-111.956991250131	493	Horizon, AZ, United States of America
0.9710831111937102	38.3495624	-75.5732569	494	Parkside, MD, United States of America
0.9697891947545167	40.4066646	-74.2722247197172	496	Old Bridge, NJ, United States of America
0.9691448358191346	43.7978568	-70.2569943	497	Greely, ME, United States of America
0.9685021989213374	39.55653195	-76.6264409347813	498	Oldfields School, MD, United States of America
0.9678612760149409	40.5643433	-111.945799675422	499	Bingham, UT, United States of America
0.9672220591073839	39.01825375	-77.0113706	500	Montgomery Blair, MD, United States of America
0.9665845402592659	42.5070435	-71.3203159501964	501	Concord-Carlisle, MA, United States of America
0.9659487115838863	40.7025073	-73.3447958	502	West Babylon, NY, United States of America
0.9646820934653281	42.1664578	-71.1483234893135	504	Canton, MA, United States of America
0.9640512885081922	38.98734195	-77.3742492762203	505	Herndon, VA, United States of America
0.9634221426949965	42.978817	-70.94957	506	Phillips Exeter Acad., NH, United States of America
0.9627946483958305	43.7939687	-70.1947715	507	Yarmouth, ME, United States of America
0.9621687980308335	41.8862089	-71.9647958	508	Pomfret School, CT, United States of America
0.9615445840697654	40.9714188	-73.717788	509	Webster Thomas, NY, United States of America
0.9609219990315869	44.4861515	-72.9619426	510	Mt. Mansfield Union, VT, United States of America
0.960301035484042	32.99885645	-117.025898955243	511	Poway, CA, United States of America
0.959681686043245	38.92345715	-77.1847740245733	512	McLean, VA, United States of America
0.959063943373272	41.36890625	-72.2127679540828	513	East Lyme, CT, United States of America
0.9584478001857569	39.9792137	-75.3852785	514	Marple Newtown, PA, United States of America
0.9578332492394905	40.1281743	-74.0490478	515	Manasquan, NJ, United States of America
0.9572202833400261	40.8932178	-73.8987301904777	516	Horace Mann School, NY, United States of America
0.9566088953392851	39.18430775	-84.3471879582988	517	Indian Hill, OH, United States of America
0.9559990781351718	39.1751066	-77.2644277	518	Seneca Valley, MD, United States of America
0.9553908246711877	41.492082	-71.2736004116648	519	St. George's School, RI, United States of America
0.9547841279360529	39.2051654	-76.8099697101601	520	Long Reach, MD, United States of America
0.9541789809633284	40.7306507	-73.220733	521	Islip, NY, United States of America
0.9535753768310452	39.3986441	-75.0193118	522	Millville, NJ, United States of America
0.9529733086613364	35.0928686	-89.8553645	523	Hutchison School, TN, United States of America
0.9523727696200704	40.88935525	-73.9063664840425	524	Fieldston School, NY, United States of America
0.9517737529164919	41.26265445	-73.1628616128312	525	St. Joseph, CT, United States of America
0.9511762518028638	39.23904165	-76.4410946526604	526	Sparrows Point, MD, United States of America
0.9505802595741141	47.7322685	-122.327603170859	527	Lakeside School, WA, United States of America
0.9499857695674843	41.7386585	-70.59267419999999	528	Bourne, MA, United States of America
0.949392775162185	28.58795735	-81.3906581888158	529	Bishop Moore, FL, United States of America
0.9482112468802026	40.0303415	-83.0637968	531	Wellington School, OH, United States of America
0.9476226999687093	41.3189871	-72.3273047	532	Lyme-Old Lyme, CT, United States of America
0.9464500083228158	42.6268105	-70.9756707	534	Masconomet, MA, United States of America
0.94586585079632	40.3578709	-74.6554332	535	Princeton HS, NJ, United States of America
0.9441220554824695	39.6044443	-105.149490952787	538	Dakota Ridge, CO, United States of America
0.9435436619390449	41.9767633	-72.4606399	539	Somers, CT, United States of America
0.942966693842438	40.986957	-74.9664125203994	540	Blair Academy, NJ, United States of America
0.9418170094555296	40.3692196	-74.0015620226967	542	Rumson-Fair Haven, NJ, United States of America
0.9412442809922672	39.1593174	-76.6171568021696	543	Glen Burnie, MD, United States of America
0.9406729536292994	41.2731229	-83.3253014289054	544	Lakota, OH, United States of America
0.9401030213729132	41.1073506	-73.9312991	545	Nyack, NY, United States of America
0.9395344782659737	39.4143512	-76.35151479999999	546	Joppatowne, MD, United States of America
0.9389673183876327	42.564178	-70.8790279	547	Beverly, MA, United States of America
0.9384015358530432	39.0577192	-77.0064633	548	Springbrook, MD, United States of America
0.9378371248130754	35.9388505	-86.8786366	549	Franklin Classical, TN, United States of America
0.9372740794540346	37.5723455	-77.5211403	550	St. Catherine's School, VA, United States of America
0.9367123939973829	37.90488835	-122.097365786881	551	Acalanes, CA, United States of America
0.9361520626994636	39.07929905	-77.1467903497805	552	Richard Montgomery, MD, United States of America
0.9355930798512274	38.7572962	-75.1494885	553	Cape Henlopen, DE, United States of America
0.9350354397779618	39.9484428	-75.5377049	554	Westtown School, PA, United States of America
0.9333705199703054	41.3359304	-72.8003762	557	North Branford, CT, United States of America
0.9322671847912789	42.9301763	-78.6705741506962	559	Lancaster, NY, United States of America
0.9317174840882891	39.1162188	-77.2538713	560	Quince Orchard, MD, United States of America
0.93116908737652	41.5536246	-73.0265939	561	Sacred Heart, CT, United States of America
0.9306219892465174	40.54474099999999	-80.189606	562	Sewickley Academy, PA, United States of America
0.9300761843208409	40.7738993	-73.945842	563	Chapin School, NY, United States of America
0.9295316672538194	42.0952646	-71.4114805	564	Franklin, MA, United States of America
0.9289884327313066	40.781681	-73.603674	565	Holy Child, NY, United States of America
0.92844647547044	40.3626029	-74.6898825	566	Princeton Day School, NJ, United States of America
0.9279057902194013	39.3250339	-76.4621232698719	567	Kenwood, MD, United States of America
0.9273663717571812	41.357597	-73.0076051	568	Amity, CT, United States of America
0.9268282148933428	40.1070586	-74.3448699	569	Jackson Memorial, NJ, United States of America
0.9262913144677901	39.6347099	-104.9602586	570	St. Mary's Academy, CO, United States of America
0.9257556653505385	39.1109809	-77.5796447	571	Loudoun County, VA, United States of America
0.9252212624414854	38.7746612	-77.0733941349212	572	West Potomac, VA, United States of America
0.9246881006701855	40.176766	-75.6563054	573	Owen J. Roberts, PA, United States of America
0.9241561749956257	39.5913883	-104.747298695684	574	Grandview, CO, United States of America
0.9236254804060043	38.7628566	-77.4484807	575	Osbourn Park, VA, United States of America
0.9230960119185112	39.5926005	-77.133038	576	Francis Scott Key, MD, United States of America
0.9220407334623206	38.81851229999999	-77.1687535	578	Thomas Jefferson S&T, VA, United States of America
0.9215149136710099	39.81577685	-75.8151762647722	579	Avon Grove, PA, United States of America
0.9199446736993373	38.990733	-76.3092282020402	582	Kent Island, MD, United States of America
0.9194236507981127	38.89596485	-77.2790801769934	583	James Madison, VA, United States of America
0.9189038151545166	38.9301752	-76.4958195	584	Key School, MD, United States of America
0.9183851620371011	42.2568317	-71.0693283	585	Milton Academy, MA, United States of America
0.9178676867413208	43.2563779	-70.8757261	586	Somersworth Club, NH, United States of America
0.9173513845893344	40.8443902	-72.7493995	587	Eastport-South Manor, NY, United States of America
0.9168362509298076	43.0384225	-77.1085815	588	Newark, NY, United States of America
0.9163222811377173	33.98980905	-84.4400399453192	589	Walton, GA, United States of America
0.9158094706141602	40.2640217	-75.6206345	590	Pottsgrove, PA, United States of America
0.9152978147861597	40.20386035	-83.0202232516368	591	Olentangy, OH, United States of America
0.9147873091064767	43.95810705	-75.9113279893039	592	Watertown, NY, United States of America
0.9142779490534222	39.1528837	-76.9123196327725	593	Reservoir, MD, United States of America
0.9137697301306701	40.7586111	-73.5263888	594	Hicksville, NY, United States of America
0.9132626478670727	42.420374	-71.1094972	595	Medford, MA, United States of America
0.9127566978164775	43.6531914	-72.2498886	596	Lebanon, NH, United States of America
0.9122518755575468	43.1478404	-77.537776	597	Our Lady of Mercy, NY, United States of America
0.9117481766935772	32.6917186	-117.1817001	598	Coronado, CA, United States of America
0.9112455968523202	41.6881574	-71.2697709	599	Mt. Hope, RI, United States of America
0.9107441316858086	36.155372	-79.9533469	600	Northwest Guilford, NC, United States of America
0.910243776870178	38.6119121	-77.3642193	601	Forest Park, VA, United States of America
0.9097445281054967	41.92600185	-73.9969744875625	602	Kingston, NY, United States of America
0.9092463811155909	42.0975869	-76.0482546597201	603	Union-Endicott, NY, United States of America
0.9087493316478759	38.2476254	-76.4877313	604	Great Mills, MD, United States of America
0.9082533754731869	41.2642229	-73.19269	605	Trumbull, CT, United States of America
0.9077585083856112	39.1837177	-77.2149823	606	Watkins Mill, MD, United States of America
0.9072647262023227	40.8904651	-72.3751562	607	Southampton, NY, United States of America
0.906772024763417	42.7360516	-73.7473709231484	608	Shaker, NY, United States of America
0.9062803999317486	32.90785625	-96.82859235	609	Hockaday School, TX, United States of America
0.9053003636543675	39.2219995	-84.4328259739583	611	Mt. Notre Dame, OH, United States of America
0.9048119440467098	38.9152	-77.0058999	612	Hyde Charter School, DC, United States of America
0.904324584722084	42.64004545	-70.8823535437509	613	Pingree School, MA, United States of America
0.9038382816547417	37.9989843	-78.489271	614	Monticello, VA, United States of America
0.9033530308407447	40.1120981	-75.131461	615	Abington HS, PA, United States of America
0.9028688282978112	41.0612032	-74.0091422261254	616	Pearl River, NY, United States of America
0.9023856700651639	40.7995447	-74.2059787	617	Glen Ridge, NJ, United States of America
0.9019035522033791	42.1112449	-87.8321866	618	Glenbrook North, IL, United States of America
0.9014224707942374	40.7853765	-73.3717866	619	Half Hollow Hills, NY, United States of America
0.9009424219405751	40.35005915	-74.0405577275094	620	Red Bank Regional, NJ, United States of America
0.9004634017661378	36.0834689	-79.8150319	621	Grimsley, NC, United States of America
0.8999854064154346	39.9348351	-75.0307263	622	Cherry Hill East, NJ, United States of America
0.8995084320535938	34.0070442	-84.290479	623	Centennial, GA, United States of America
0.8990324748662195	40.7527937	-74.184769	624	Newark Academy, NJ, United States of America
0.8980835968588161	39.71276005	-74.258010495425	626	Southern Regional, NJ, United States of America
0.897610668511104	41.4787051	-73.3893213484487	627	Brookfield, CT, United States of America
0.8971387422822138	40.8937113	-74.3596403005618	628	Montville Township, NJ, United States of America
0.8966678144580242	45.4275204	-122.7024808	629	Lake Oswego, OR, United States of America
0.8961978813440569	39.057609	-76.9358079	630	Calverton School, MD, United States of America
0.8957289392653398	40.8464571	-74.5667697159893	631	Randolph, NJ, United States of America
0.8952609845662753	38.9459444	-76.9138626	632	Elizabeth Seton, MD, United States of America
0.8947940136105066	42.41865575	-71.161906560951	633	Arlington, MA, United States of America
0.8943280227807867	39.1440553	-76.5287636156677	634	Northeast, MD, United States of America
0.8938630084788474	41.93722085	-71.4505749393112	635	Lincoln HS, RI, United States of America
0.8933989671252707	43.3219444	-76.411111	636	Fulton, NY, United States of America
0.89293589515936	40.207331	-74.9846126	637	Villa Joseph Marie, PA, United States of America
0.8924737890390141	43.5758801	-71.1883902	638	Kingswood Regional, NH, United States of America
0.8920126452405993	42.8192309	-73.8897254296259	639	Niskayuna, NY, United States of America
0.8915524602588264	43.5461828	-72.2581459	640	Kimball Union Academy, NH, United States of America
0.8910932306066252	40.7842649	-74.3201451	641	Livingston, NJ, United States of America
0.8906349528150217	40.6456522	-74.3501630118898	642	Westfield, NJ, United States of America
0.8901776234330172	40.580602	-74.6178548	643	Immaculata, NJ, United States of America
0.889721239027467	43.21148875	-75.4167069968766	644	Rome Free Academy, NY, United States of America
0.8892657961829593	38.905904	-77.2123123	645	George C. Marshall, VA, United States of America
0.8888112915016981	40.1900811	-75.52644	646	Spring-Ford, PA, United States of America
0.8883577216033833	35.95685825	-86.7654797381004	647	Ravenwood, TN, United States of America
0.8879050831250963	43.0828198	-77.415935872457	648	Fairport, NY, United States of America
0.8874533727211813	40.721776	-73.512543526369	649	Levittown, NY, United States of America
0.8870025870631313	44.8279271	-93.27688150000002	650	Kennedy, MN, United States of America
0.8865527228394748	39.26674145	-76.5159004753028	651	Dundalk, MD, United States of America
0.8861037767556614	39.1517951	-77.279719711941	652	Northwest, MD, United States of America
0.8852086259132991	33.29576255	-112.01671306988	654	Desert Vista, AZ, United States of America
0.8847624146492515	41.3956092	-81.3064955	655	Kenston, OH, United States of America
0.8843171085138305	39.0102877	-77.7539619	656	Foxcroft School, VA, United States of America
0.8838727042954282	42.9718784	-78.6316321027381	657	Clarence, NY, United States of America
0.8834291987986977	42.3402554	-71.1068437461818	658	Winsor School, MA, United States of America
0.8829865888444476	41.4420644	-73.6034463154583	659	Brewster, NY, United States of America
0.8825448712695343	42.496301	-71.0506772719111	660	Wakefield, MA, United States of America
0.882104042926758	39.130639	-77.1188168	661	Magruder, MD, United States of America
0.8816641006847588	40.1685781	-74.06110989999999	662	Wall Township, NJ, United States of America
0.8812250414279105	42.32680475	-71.1626587198846	663	Brimmer & May School, MA, United States of America
0.8807868620562217	40.9213438	-72.7248928	664	Middle Country, NY, United States of America
0.880349559485231	35.9394422	-86.8773030254043	665	Franklin HS, TN, United States of America
0.8799131306459077	28.70418265	-81.2654721962129	666	Winter Springs, FL, United States of America
0.879477572484551	33.51514085	-111.99827748769	667	Phoenix Country Day, AZ, United States of America
0.8790428819626894	39.34718585	-76.6426755461871	668	Western, MD, United States of America
0.8786090560569849	42.833984	-78.728937	669	West Seneca East, NY, United States of America
0.8781760917591322	40.2313336	-74.9448065	670	Council Rock North, PA, United States of America
0.8777439860757636	34.1484162	-84.1710764	671	South Forsyth, GA, United States of America
0.8773127360283514	42.9879381	-77.4141449	672	Victor, NY, United States of America
0.8768823386531134	40.5885116	-73.6578609	673	Long Beach, NY, United States of America
0.8764527910009178	41.2586123	-72.9586495949349	674	West Haven, CT, United States of America
0.876024090137189	42.5878816	-83.1799472965292	675	Troy, MI, United States of America
0.875596233141814	42.924502	-78.874758	676	Buffalo Seminary, NY, United States of America
0.8751692171090508	40.697377	-73.3650873	677	Lindenhurst, NY, United States of America
0.8747430391474358	40.86669015	-73.4567175492754	678	Cold Spring Harbor, NY, United States of America
0.874317696379693	45.51260305	-122.6815038	679	St. Mary's Academy, OR, United States of America
0.8738931859426433	46.5864939	-123.1115045	680	Curtis, WA, United States of America
0.8734695049871152	41.74752635	-71.3206242536853	681	Barrington, IL, United States of America
0.8730466506778559	34.0628767	-84.3815932	682	Roswell, GA, United States of America
0.8722034107261951	44.3445624	-73.1099672	684	Champlain Valley Union, VT, United States of America
0.8717830194820887	39.1224257	-76.7379944557421	685	Meade, MD, United States of America
0.8709446805549641	41.6156339	-72.8611198766516	687	Southington, CT, United States of America
0.8705267273514024	40.1717754	-75.2273981	688	Wissahickon, PA, United States of America
0.8701095813297267	39.4328802	-77.2474825	689	Linganore, MD, United States of America
0.8696932397629105	39.06943565	-84.3488692635515	690	Anderson, OH, United States of America
0.8692776999370759	42.04624425	-87.7021812492043	691	Evanston Township, IL, United States of America
0.8684490147180868	40.0957563	-75.1320941561454	693	Jenkintown, PA, United States of America
0.8680358639621799	43.0604242	-77.5189882	694	Pittsford, NY, United States of America
0.8672119328469513	42.3941445	-71.1656459292873	696	Belmont, MA, United States of America
0.8668011472015751	47.6362835	-122.5220442	697	Bainbridge Island B, WA, United States of America
0.8663911446613489	42.91786405	-78.8733964517492	698	Nardin Academy, NY, United States of America
0.8655734784623643	39.3023292	-76.6013556	700	St. James School, MD, United States of America
0.8651658096176115	39.7052005	-104.913697625	701	George Washington, CO, United States of America
0.8647589135058683	40.15536415	-75.1087911849992	702	Upper Moreland, PA, United States of America
0.8643527875647912	41.2893432	-72.39548409999999	703	Old Saybrook, CT, United States of America
0.8639474292441639	40.7526008	-73.6104057	704	Carle Place, NY, United States of America
0.863139005323574	43.5909173	-70.2292137	706	Cape Elizabeth, ME, United States of America
0.8627359346831398	44.8546856	-93.4707859	707	Eden Prairie, MN, United States of America
0.8623336215820657	41.2016403	-81.616902	708	Revere Club, OH, United States of America
0.8619320635296577	35.1108421	-80.76364819999999	709	Providence, NC, United States of America
0.8615312580469097	39.3468784	-76.64410099999999	710	Polytechnic, MD, United States of America
0.8611312026664316	43.02066805	-76.0460217822718	711	Jamesville-DeWitt, NY, United States of America
0.8607318949323782	37.8404819	-122.1460765	712	Miramonte, CA, United States of America
0.8603333324003796	42.9104522	-76.5507374	713	Auburn, NY, United States of America
0.8599355126374718	42.5344789	-83.2629869	714	Marian, MI, United States of America
0.8595384332220267	40.82248745	-73.2023491812515	715	Hauppauge, NY, United States of America
0.8591420917436846	39.08725395	-76.9474213409913	716	Paint Branch, MD, United States of America
0.8587464858032856	42.2001203	-70.7681266828954	717	Scituate, MA, United States of America
0.8583516130128012	39.6590058	-77.5747101	718	Smithsburg, MD, United States of America
0.8579574709952694	42.8692408	-71.3793387200395	719	Londonderry, NH, United States of America
0.8575640573847257	39.965279	-74.1429089	720	Toms River East, NJ, United States of America
0.8571713698261384	40.9731712	-73.6865301	721	Rye HS, NY, United States of America
0.8567794059753429	41.1318755	-73.9558166381885	722	Clarkstown South, NY, United States of America
0.855997640074412	39.04038565	-82.6431277260064	724	Jackson, OH, United States of America
0.8556078333896981	40.9967714	-74.1920109743855	725	Ramapo, NJ, United States of America
0.8552187411434908	40.01301425	-74.9433318195386	726	Delran, NJ, United States of America
0.8548303610449928	41.1617242	-80.6595201	727	Liberty, OH, United States of America
0.8544426908138895	35.76804555	-78.7107724983252	728	Athens Drive, NC, United States of America
0.8540557281802884	38.98659845	-104.76336228353	729	Pine Creek, CO, United States of America
0.8532839166777548	40.5934382	-73.9862499	731	LaFayette, NY, United States of America
0.8528990633205872	42.49203215	-70.8687295336433	732	Marblehead, MA, United States of America
0.8525149085843297	42.8619583	-73.8000404	733	Shenendehowa, NY, United States of America
0.8521314502502759	41.1915033	-81.4970808294655	734	Walsh Jesuit, OH, United States of America
0.8517486861097763	40.0078006	-75.2792733854084	735	Lower Merion, PA, United States of America
0.8513666139641782	26.3654342	-80.1168694213134	736	Boca Raton, FL, United States of America
0.8509852316247682	40.6978603	-75.1914849	737	Phillipsburg, NJ, United States of America
0.8506045369127133	42.7964724	-76.1140658	738	Tully, NY, United States of America
0.8498452017043904	37.8671231	-122.271353388549	740	Berkeley, CA, United States of America
0.8494665568993389	40.6991667	-73.3252777	741	Babylon, NY, United States of America
0.8490885911039614	40.6753793	-73.5429044	742	Mepham, NY, United States of America
0.8487113021879664	42.1166823	-73.4146878	743	Berkshire School, MA, United States of America
0.8483346880306012	41.41706305	-73.4701842617439	744	Danbury, CT, United States of America
0.8479587465205967	41.0163671	-74.5519242440094	745	Jefferson Township, NJ, United States of America
0.8475834755561126	38.3559376	-76.4391318888112	746	Patuxent, MD, United States of America
0.8472088730446821	43.6217496	-70.2686591	747	South Portland, ME, United States of America
0.8468349369031583	40.6849378	-111.822897438099	748	Olympus, UT, United States of America
0.8464616650576597	33.1603397	-96.6975391	749	St. Andrew's Episcopal, TX, United States of America
0.846089055443517	40.0841673	-82.8148762461311	750	New Albany, OH, United States of America
0.8457171060052204	40.7287118	-73.5559599	751	East Meadow, NY, United States of America
0.8453458146963657	34.3187653	-79.8811743	752	Darlington, GA, United States of America
0.8449751794796029	30.3328019	-97.7009416	753	St. John's, TX, United States of America
0.8446051983265834	42.937945	-70.8380649	754	Winnacunnet, NH, United States of America
0.8442358692179095	41.3416587	-72.9138478062865	755	Hamden Hall CDS, CT, United States of America
0.8438671901430821	33.30888235	-111.843761622495	756	Chandler, AZ, United States of America
0.8434991591004499	42.29073305	-71.2885931740557	757	Dana Hall School, MA, United States of America
0.8431317740971592	41.2236533	-86.4252849	758	Culver Academy, IN, United States of America
0.8427650331491037	28.4977722	-81.5061208	759	Olympia, FL, United States of America
0.8423989342808741	40.7724724	-73.9454724	760	Brearley School, NY, United States of America
0.8420334755257091	42.8669444	-76.9874999	761	Geneva, NY, United States of America
0.8416686549254461	41.4270465	-71.4728343	762	Narragansett, RI, United States of America
0.8413044705304723	39.24666965	-76.6531004915059	763	Lansdowne, MD, United States of America
0.8409409203996766	39.8670558	-75.5032557	764	Garnet Valley, PA, United States of America
0.8405780026004008	42.10169215	-72.5402416664425	765	Cathedral, MA, United States of America
0.839854056307756	44.45460625	-73.177851500599	767	South Burlington, VT, United States of America
0.8394930239909086	40.9411788	-73.7435731	768	Mamaroneck, NY, United States of America
0.8391326163585301	29.47862575	-81.2095519920948	769	Flagler, FL, United States of America
0.838772831519518	45.50472695	-122.914472251832	770	Century, OR, United States of America
0.8384136675909412	40.9343048	-72.9901065	771	Miller Place, NY, United States of America
0.8380551226979946	28.41542165	-81.4120365441699	772	Freedom, FL, United States of America
0.8376971949739526	40.6539913	-73.601795	773	Freeport, NY, United States of America
0.837339882560124	41.36778095	-72.922737875568	774	Hamden, CT, United States of America
0.8366270962682503	40.7648233	-73.6626294	776	Herricks, NY, United States of America
0.8362716187125945	42.8358333	-73.9733332	777	Scotia-Glenville, NY, United States of America
0.835562485646811	40.674588	-73.563822	779	S.H. Calhoun, NY, United States of America
0.8345033139904796	28.5189072	-81.3660096211856	782	Boone, FL, United States of America
0.8341514570312343	29.2666253	-82.1144588	783	Pine Crest, FL, United States of America
0.8338001972274766	40.374194	-74.5634606	784	South Brunswick, NJ, United States of America
0.833449532806	42.66838615	-72.4851050486311	785	Northfield-Mt. Hermon, MA, United States of America
0.8330994620011146	39.4341991	-77.4070793633524	786	Thomas Johnson, MD, United States of America
0.8327499830546038	39.9865936	-74.9434686	787	Moorestown Friends, NJ, United States of America
0.8324010942156849	39.3207851	-76.4481303	788	Mt. Carmel, MD, United States of America
0.8320527937409677	42.2273694	-87.9505554	789	Vernon Hills, IL, United States of America
0.8317050798944129	40.7816605	-73.4587311	790	Plainview J.F.K., NY, United States of America
0.8313579509472938	39.339125	-82.1008619	791	Troy Athens, MI, United States of America
0.831011405178155	41.0920025	-80.7386893	792	Fitch, CT, United States of America
0.8306654408727723	40.21924075	-75.4565339561885	793	Perkiomen Valley, PA, United States of America
0.8303200563241148	34.04375225	-84.4739029975894	794	Lassiter, GA, United States of America
0.8299752498323043	40.8092798	-72.9874046182782	795	Patchogue-Medford, NY, United States of America
0.8296310197045775	40.3874658	-75.2747359	796	Pennridge, PA, United States of America
0.8292873642552459	38.5952295	-90.6375145525004	797	Lafayette, MO, United States of America
0.8289442818056586	40.7548218	-73.4829018	798	Bethpage, NY, United States of America
0.8282598292260716	43.0028191	-83.7054775	800	Powers Catholic, MI, United States of America
0.8279184557736137	39.05239845	-77.3911530529428	801	Potomac Falls, VA, United States of America
0.8275776486759097	39.1185163	-75.5410111845064	802	Caesar Rodney, DE, United States of America
0.8272374062889276	26.9286989	-80.1039985064829	803	Jupiter, FL, United States of America
0.8268977269754475	42.64597699999999	-73.787032	804	Albany Academy SG, NY, United States of America
0.8265586091050249	41.3651178	-71.8582280585694	805	Stonington, CT, United States of America
0.8262200510539538	39.5478902	-76.0960615	806	Havre De Grace, MD, United States of America
0.8258820512052322	39.20057605	-84.5531241933948	807	McAuley, OH, United States of America
0.825544607948524	40.1867565	-74.1773812	808	Howell, NJ, United States of America
0.8252077196801245	39.209257	-76.8412956018329	809	Oakland Mills, MD, United States of America
0.824871384802925	38.87004485	-77.3197705621424	810	Flint Hill School, VA, United States of America
0.8245356017263774	42.08901895	-87.8536262033248	811	Glenbrook South, IL, United States of America
0.8242003688664586	36.0823583	-79.908091	812	Western Guilford, NC, United States of America
0.8238656846456365	41.7234328	-72.8284322	813	Miss Porter's School, CT, United States of America
0.8235315474928354	39.8267587	-77.8986091	814	Mercersburg Academy, PA, United States of America
0.8231979558434012	34.6978087	-111.9791294	815	South Eastern, AZ, United States of America
0.8228649081390677	42.23256415	-70.8092798421583	816	Cohasset, MA, United States of America
0.8225324028279225	40.0110964	-74.8862004544104	817	Willingboro, NJ, United States of America
0.8222004383643741	42.5775266	-71.46351589999999	818	Westford Academy, MA, United States of America
0.8218690132091165	37.4531768	-122.191665178136	819	Menlo School, CA, United States of America
0.8215381258290989	42.70833985	-73.8092678245316	820	Colonie, NY, United States of America
0.8212077746974903	40.71472	-73.7066699	821	Floral Park Memorial, NY, United States of America
0.8208779582936475	38.5564132	-121.7505312	822	Davis, CA, United States of America
0.8205486751030828	38.8964794	-77.1913123	823	George Mason, VA, United States of America
0.8202199236174318	38.96025065	-104.735774937718	824	Liberty, CO, United States of America
0.8198917023344201	43.1959141	-71.5747948	825	St. Paul's School, NH, United States of America
0.8195640097578326	41.958221	-71.8661979	826	Marianapolis, CT, United States of America
0.8192368443974812	39.279871	-74.5676966469687	827	Ocean City, NJ, United States of America
0.8185840893946815	40.5245332	-79.8884632352712	829	Shady Side Academy, PA, United States of America
0.8182584968017096	40.208505	-75.096709653418	830	Archbishop Wood, PA, United States of America
0.8179334255238655	47.9188526	-122.100645089847	831	Snohomish, WA, United States of America
0.8176088741006273	43.9418969	-69.9622229416776	832	Mt. Ararat, ME, United States of America
0.8172848410773146	41.3513889	-73.9755555	833	James I. O'Neill, NY, United States of America
0.8169613250050571	33.96717165	-84.6832395881206	834	Harrison, GA, United States of America
0.8166383244407662	42.9342355	-75.8583355	835	Cazenovia, NY, United States of America
0.8163158379471024	38.90277075	-77.1407848998753	836	Yorktown, VA, United States of America
0.8159938640924472	39.1945565	-75.5635364	837	A.I. duPont, DE, United States of America
0.8156724014508737	43.4372976	-71.8239692	838	Proctor Academy, NH, United States of America
0.815351448602117	40.9494152	-73.8854372	839	Sacred Heart, NY, United States of America
0.815031004131544	26.6969573	-80.050566	840	Palm Beach Day, FL, United States of America
0.8147110666301254	40.86177815	-74.640792943145	841	Roxbury, NJ, United States of America
0.8143916346944071	29.44639715	-98.5634038782195	842	Memorial, TX, United States of America
0.8140727069264809	41.53704905	-72.0811945403935	843	Norwich Free Academy, CT, United States of America
0.8137542819339558	41.3652189	-73.7569963204998	844	Mahopac, NY, United States of America
0.8134363583299309	42.12179065	-72.641446243102	845	West Springfield, MA, United States of America
0.8131189347329659	39.2985688	-76.9032763673401	846	Chapelgate Christian, MD, United States of America
0.8128020097670541	40.88895955	-73.5918714747227	847	Locust Valley, NY, United States of America
0.8124855820615942	43.3141667	-73.6505555	848	Glens Falls, NY, United States of America
0.8121696502513629	40.9685405	-74.2372872145518	849	Wayne Hills, NJ, United States of America
0.8115392688824198	39.83026075	-75.5254993297501	851	Concord, DE, United States of America
0.8112248166199058	37.0067413	-76.4270206251955	852	Heritage, VA, United States of America
0.8109108548449615	47.613601	-122.0317461	853	Lake Sammamish, WA, United States of America
0.8105973822188467	42.4831602	-76.8777003	854	Seneca Club, NY, United States of America
0.810284397408036	39.6042071	-105.075487596242	855	Columbine, CO, United States of America
0.8099718990841944	39.26617475	-76.4879137649509	856	Patapsco, MD, United States of America
0.8096598859241503	27.8486606	-82.8188156176486	857	Seminole, FL, United States of America
0.8090373098284281	30.6626908	-88.1669465	859	St. Luke's, CT, United States of America
0.80872674427199	33.58863425	-111.8109526	860	Desert Mountain, AZ, United States of America
0.8084166586377779	40.8698213	-73.5845702	861	Portledge School, NY, United States of America
0.8081070516280496	39.2367211	-94.5697657511594	862	Oak Park, IL, United States of America
0.8077979219500725	39.763616	-105.104473374666	863	Wheat Ridge, CO, United States of America
0.8074892683160976	42.6259385	-73.6913855456407	864	Columbia, NY, United States of America
0.8071810894433363	32.9573985	-117.224896678294	865	Torrey Pines, CA, United States of America
0.8068733840539343	42.46444690000001	-83.36019	866	Farmington United, MI, United States of America
0.8065661508749463	41.8436493	-72.6557921107456	867	Windsor, CT, United States of America
0.8062593886383139	43.6537249	-116.4119974	868	Rocky Mountain, UT, United States of America
0.8059530960808386	40.6541589	-111.890331277904	869	Murray, UT, United States of America
0.8056472719441595	39.1352285	-77.1941391	870	Gaithersburg, MD, United States of America
0.805341914974728	42.6469864	-73.5729405710115	871	Averill Park, NY, United States of America
0.8050370239237843	28.3818096	-81.3795723741235	872	Cypress Creek, FL, United States of America
0.8044286346061256	40.7364215	-80.3016846	874	Brighton, MI, United States of America
0.8038220940959863	44.9462589	-93.2107121	876	Cooper, MN, United States of America
0.8032173925732853	38.9702209	-77.2338456724456	878	Madeira School, VA, United States of America
0.8029157283838063	40.872098	-72.514843	879	St. John's @ P. H., MD, United States of America
0.8026145202923188	29.9411193	-90.113531	880	Ursuline Academy, MO, United States of America
0.8023137670921112	40.7742897	-111.9003988	881	West, UT, United States of America
0.8020134675810294	39.80218175	-75.4541827133886	882	Archmere Academy, DE, United States of America
0.8017136205614551	33.65422815	-117.8901391	883	Monte Vista, CA, United States of America
0.8014142248402831	36.0161725	-86.8152778	884	Brentwood HS, TN, United States of America
0.8011152792288987	42.46067575	-71.3551950221283	885	Concord Academy, MA, United States of America
0.8008167825431568	45.5494788	-122.865007426937	886	Westview, OR, United States of America
0.8005187336033593	38.2014433	-90.3928988	887	St. Pius X, GA, United States of America
0.8002211312342338	40.51887905	-79.869531965929	888	Fox Chapel Area, PA, United States of America
0.7999239742649114	39.1342269	-77.0263598	889	Sandy Spring Friends, MD, United States of America
0.7996272615289064	39.9906619	-75.7963349	890	Coatesville Area, PA, United States of America
0.7993309918640937	40.5348199	-75.5051837	891	Emmaus, PA, United States of America
0.7990351641126888	40.0094271	-75.2488642	892	Merion Mercy Academy, PA, United States of America
0.798739777121226	40.2197857	-74.2824682	893	Freehold Township, NJ, United States of America
0.7984448297405375	41.68755549999999	-83.7164415	894	Sylvania Club, OH, United States of America
0.7981503208257331	38.3655508	-75.58072179999999	895	Wicomico (Wi-Hi), MD, United States of America
0.7978562492361789	41.6074567	-83.6619077923613	896	Maumee Valley CDS, OH, United States of America
0.7975626138354773	42.8331151	-78.6050257	897	Iroquois, NY, United States of America
0.7972694134914459	38.5433049	-76.0906990826143	898	Cambridge-S Dorchester, MD, United States of America
0.7969766470760982	38.7651873	-77.5088776454261	899	Stonewall Jackson, VA, United States of America
0.7966843134656224	43.16418295	-73.0778494569867	900	Burr & Burton Academy, VT, United States of America
0.7963924115403617	43.6716363	-70.2958929	901	Deering, ME, United States of America
0.7961009401847947	33.957879	-84.3629818	902	North Springs, GA, United States of America
0.7958098982875149	42.0984089	-75.9193626	903	Binghamton, NY, United States of America
0.7955192847412114	39.5349	-105.0113299	904	ThunderRidge, CO, United States of America
0.7952290984426493	42.505715	-70.910476339482	905	Salem, MA, United States of America
0.7949393382926506	40.208798	-74.9322679	906	George School, PA, United States of America
0.7946500031960734	40.71980355	-74.3143352817316	907	Millburn, NJ, United States of America
0.7943610920617941	43.987282	-72.446617	908	Chelsea, VT, United States of America
0.794072603802688	40.7742653	-72.9223274	909	Bellport, NY, United States of America
0.7937845373356097	40.00314475	-74.7824482001629	910	Rancocas Valley, NJ, United States of America
0.7934968915813746	40.7928793	-80.0758425	911	Seneca Valley, PA, United States of America
0.79320966546474	44.1892542	-72.4937688	912	Spaulding, VT, United States of America
0.7929228579143865	42.86101715	-71.4983801433623	913	Merrimack, NH, United States of America
0.7926364678628988	40.80123595	-74.4861350017255	914	Morristown, NJ, United States of America
0.7923504942467486	43.2745239	-71.5922961	915	Merrimack Valley, NH, United States of America
0.7920649360062745	41.2636925	-75.8976968	916	Wyoming Seminary, PA, United States of America
0.791779792085665	39.800199	-75.5210476	917	Brandywine, DE, United States of America
0.7914950614329398	41.1745396	-73.7576326	918	Horace Greeley, NY, United States of America
0.7912107429999318	43.6133556	-72.5454216	919	Woodstock Union, VT, United States of America
0.7906433386193579	40.3288746	-74.8019628981452	921	Hopewell Valley, NJ, United States of America
0.7903602505943632	41.1917153	-73.6777247905449	922	Fox Lane, NY, United States of America
0.7900775706341925	41.24575245	-74.4892742947106	923	Vernon Township, NJ, United States of America
0.7897952977094773	39.95721475	-75.2844390544217	924	Upper Darby, PA, United States of America
0.7895134307945575	40.7206583	-74.5654945832302	925	Bernards, NJ, United States of America
0.7892319688674613	38.99463295	-76.8695390779589	926	Eleanor Roosevelt, MD, United States of America
0.78895091090989	39.0391377	-77.0668613929837	927	Einstein, MD, United States of America
0.7883900028483865	48.7656655	-122.4282222	929	Forest Ridge, WA, United States of America
0.7881101507260655	42.64748465	-71.311935522624	930	Lowell, MA, United States of America
0.7878306985364579	40.38081865	-75.4901555582069	931	Upper Perkiomen, PA, United States of America
0.7875516452793718	40.8006567	-73.7284646	932	Great Neck South, NY, United States of America
0.7872729899581875	39.7458954	-74.9077306	933	Winslow Township, NJ, United States of America
0.7869947315798386	39.8991973	-75.06049	934	Paul VI, NJ, United States of America
0.7867168691547971	40.5609008	-80.2031147	935	Quaker Valley, PA, United States of America
0.7864394016970577	40.8043899	-74.4480122	936	Morristown-Beard, NJ, United States of America
0.786162328224119	43.618883	-72.9538771159524	937	Rutland, VT, United States of America
0.7853334619413432	42.9205822	-83.63065429999999	940	Grand Blanc, MI, United States of America
0.7850579546521452	42.671514	-73.2410259485104	941	Mt. Greylock Regional, MA, United States of America
0.7847828364872622	36.8766111	-76.0292664	942	Cape Henry Collegiate, VA, United States of America
0.7845081064848898	43.0580668	-77.2461122	943	Palmyra-Macedon, NY, United States of America
0.7842337636866168	30.0792562	-81.4479872685438	944	Allen D. Nease, FL, United States of America
0.783959807137411	43.1409185	-70.9170031	945	Oyster River, NH, United States of America
0.7836862358856027	40.429517	-79.6690070705011	946	Franklin Regional, PA, United States of America
0.78341304898287	41.84815395	-72.8348087218137	947	Ethel Walker School, CT, United States of America
0.7831402454842238	40.29295025	-111.683584346477	948	Orem, UT, United States of America
0.7828678244479911	42.6977761	-71.4084483972303	949	Tyngsborough, MA, United States of America
0.7825957849358015	41.4380195	-71.9956445557092	950	Ledyard, CT, United States of America
0.7823241260125717	42.9567369	-77.0978034	951	Midlakes, NY, United States of America
0.7820528467464899	42.9513738	-77.5866728	952	Honeoye Falls-Lima, NY, United States of America
0.7817819462090019	28.55252425	-81.3019177898824	953	Colonial, FL, United States of America
0.781511423474795	40.7058199	-73.8647893	954	Sacred Heart Acad., NY, United States of America
0.7812412776217853	29.7489974	-95.5104378600697	955	Kinkaid School, TX, United States of America
0.7809715077311009	42.6305334	-76.1893646468257	956	Homer, NY, United States of America
0.7807021128870689	42.35158615	-71.8744573491523	957	Wachusett, MA, United States of America
0.7804330921772001	38.9076863	-77.0862504182407	958	Georgetown Day School, DC, United States of America
0.7801644446921753	39.8851294	-84.1973304	959	South Dayton Club, OH, United States of America
0.7798961695258297	41.16806635	-81.3972775364312	960	Stow Munroe Falls, OH, United States of America
0.7796282657751405	39.9866192	-75.0271104	961	Pennsauken, NJ, United States of America
0.7793607325402118	45.4771686	-122.691128922746	962	Wilson, OR, United States of America
0.7790935689242597	42.1397222	-77.0563888	963	Corning West, NY, United States of America
0.7788267740336002	29.93199045	-90.0782046431306	964	Trinity Episcopal, VA, United States of America
0.7785603469776341	33.8353088	-84.6091808966088	965	South Cobb, GA, United States of America
0.7782942868688327	40.8671451	-111.89563731486	966	Woods Cross, UT, United States of America
0.778028592822725	28.8055482	-81.27062	967	Sanford School, DE, United States of America
0.7777632639578843	36.873678	-76.19358799999999	968	Norfolk Academy, VA, United States of America
0.7774982993959129	40.1337269	-74.768781	969	Pennsbury, PA, United States of America
0.7769694596820604	44.49717	-73.1082482	971	Essex, VT, United States of America
0.7767055827884138	43.0100575	-78.797256	972	Sweet Home, NY, United States of America
0.7761789105956112	43.65898225	-70.2588437354691	974	Portland, ME, United States of America
0.7759161135725088	40.3272222	-74.7938888	975	Pennington School, NJ, United States of America
0.7756536747872119	40.6967728	-74.8835206652834	976	Voorhees, NJ, United States of America
0.7753915933850833	41.76008015	-72.7362497560195	977	Kingswood-Oxford, CT, United States of America
0.7748684993263245	39.4164352	-77.4262906	979	Frederick, MD, United States of America
0.7746074849749227	26.6528423	-80.1782199520725	980	Palm Beach Central, FL, United States of America
0.7740865174127111	28.52816935	-81.146428740795	982	Timber Creek, FL, United States of America
0.7738265625243269	39.7385784	-75.5554784	983	Tatnall School, DE, United States of America
0.7735669591174413	43.0361672	-71.4602374398112	984	Derryfield School, NH, United States of America
0.7733077063603477	42.9098052	-71.9411904	985	ConVal, NH, United States of America
0.7730488034241499	43.2035647	-77.4681161	986	Webster Schroeder, NY, United States of America
0.7727902494827488	41.000931	-73.8079107	987	Edgemont, NY, United States of America
0.7725320437128309	42.7667257	-78.8314216	988	Frontier, NY, United States of America
0.7722741852938557	40.2678599	-80.1182008244671	989	Peters Township, PA, United States of America
0.7720166734080435	44.9218659	-93.3891775	990	Blake School, MN, United States of America
0.7717595072403636	33.6796569	-112.007860010165	991	Pinnacle, AZ, United States of America
0.7715026859785225	39.9559945	-74.1946860979362	992	Toms River South, NJ, United States of America
0.7712462088129505	40.6929529	-73.6612067	993	West Hempstead, NY, United States of America
0.7709900749367922	42.5352731	-71.1098491684049	994	Reading Memorial, MA, United States of America
0.770734283545893	39.7177037	-75.6887331	995	St. Mark's, DE, United States of America
0.7704788338387873	42.0582992	-72.5240620818223	996	East Longmeadow, MA, United States of America
0.7702237250166886	40.6642699	-73.7084644	997	Valley Stream, NY, United States of America
0.7699689562834748	42.2844674	-87.9664641	998	Libertyville, IL, United States of America
0.76971452684568	41.13619355	-73.6901373968044	999	Byram Hills, NY, United States of America
0.7694604359124804	40.04226555	-75.3165399284129	1000	Harriton, PA, United States of America
0.7692066826956846	42.6324478	-71.913257	1001	Cushing Academy, MA, United States of America
0.7689532664097211	32.85778395	-116.968316209234	1002	Santana, CA, United States of America
0.7687001862716272	39.94757525	-75.3481673121681	1003	Cardinal O'Hara, PA, United States of America
0.768447441501039	35.37235225	-80.8356286347098	1004	North Mecklenburg, NC, United States of America
0.7681950313201779	39.8903263	-74.2067326940219	1005	Central Regional, NJ, United States of America
0.767942954953841	41.0859301	-73.4326195	1006	Brien McMahon, CT, United States of America
0.7676912116293905	41.48524875	-81.5621738179522	1007	Beaumont School, OH, United States of America
0.767439800576741	41.4178706	-70.595999	1008	Martha's Vineyard, MA, United States of America
0.7671887210283498	39.34858345	-76.5117020361712	1009	Overlea, MD, United States of America
0.7669379722192059	40.554052	-74.530793	1010	St. Elizabeth, NJ, United States of America
0.7666875533868184	40.99453015	-73.7932680034856	1011	Scarsdale, NY, United States of America
0.7664374637712069	42.43709245	-82.8892243741671	1012	Grosse Pointe North, MI, United States of America
0.7661877026148892	40.9401412	-73.0271798	1013	Mt. Sinai, NY, United States of America
0.7659382691628724	36.1092849	-79.7864417	1014	W.H. Page, NC, United States of America
0.7656891626626405	41.9848186	-72.6506461	1015	Suffield Academy, CT, United States of America
0.7654403823641458	41.5906968	-70.6088633914101	1016	Falmouth HS, MA, United States of America
0.7649437973844471	42.26265965	-71.6162400235663	1018	Westborough, MA, United States of America
0.7646959912153881	47.6946603	-122.070478768851	1019	Overlake School, WA, United States of America
0.764448508272336	41.15466715	-73.3276954327841	1020	Staples, CT, United States of America
0.7642013478174219	39.66221925	-77.7150684041645	1021	North Hagerstown, MD, United States of America
0.7639545091151823	40.4515469	-79.94200459999999	1022	Winchester Thurston, PA, United States of America
0.7634617940388351	39.3161343	-76.5734677	1024	Catholic, MD, United States of America
0.7632159162057338	40.2907167	-111.6412338	1025	Waterford, UT, United States of America
0.7629703572072993	40.9320429	-74.1251427	1026	Fair Lawn, NJ, United States of America
0.7627251163199412	39.8926823	-75.3060413010849	1027	Interboro, PA, United States of America
0.7624801928224139	42.1169295	-76.2728687	1028	Owego Free Academy, NY, United States of America
0.7622355859958064	41.6428867	-81.3972003	1029	Andrews School, OH, United States of America
0.761991295123533	41.6430575	-70.3905719	1030	Cape Cod Academy, MA, United States of America
0.761747319491323	40.800125	-73.73995339999999	1031	Great Neck North, NY, United States of America
0.7615036583872112	42.3845334	-72.5108354524231	1032	Amherst-Pelham, MA, United States of America
0.7612603111015285	40.09471865	-75.121237547184	1033	Abington Friends, PA, United States of America
0.7610172769268918	42.31822705	-71.1656402567055	1034	Beaver CDS, MA, United States of America
0.7607745551581948	40.4525163	-74.4766712	1035	North Brunswick, NJ, United States of America
0.7605321450925983	39.0135703	-77.401118840038	1036	Park View, VA, United States of America
0.7602900460295205	40.0972222	-75.3761952	1037	Upper Merion Area, PA, United States of America
0.759806778119828	43.1414449	-78.9233736	1039	Niagara-Wheatfield, NY, United States of America
0.7595656078832538	41.0205668	-73.7354869324799	1040	White Plains, NY, United States of America
0.7593247458692617	42.2525245	-71.7910001688388	1041	Worcester Academy, MA, United States of America
0.7590841913884175	40.15311415	-75.1997546310871	1042	Upper Dublin, PA, United States of America
0.7588439437534905	42.3235156	-71.3257946	1043	Rivers School, MA, United States of America
0.7586040022794412	38.28316345	-85.6247002689348	1044	Ballard, KY, United States of America
0.7583643662834149	37.66803425	-121.875377099148	1045	Amador Valley, CA, United States of America
0.7581250350847304	38.88788845	-77.1097510491105	1046	Washington-Lee, VA, United States of America
0.7578860080048729	40.88179965	-73.627262143205	1047	Glen Cove, NY, United States of America
0.7576472843674841	40.0247924	-75.3151201	1048	Shipley School, PA, United States of America
0.7574088634983532	40.69667	-73.7186099	1049	Elmont Memorial, NY, United States of America
0.7571707447254087	43.0445708	-75.872947	1050	Chittenango, NY, United States of America
0.7569329273787089	40.01367005	-105.275173512558	1051	Boulder, CO, United States of America
0.7566954107904333	40.0876107	-75.1593422	1052	Cheltenham, PA, United States of America
0.7564581942948747	33.99974805	-84.6217313952747	1053	Kennesaw Mountain, GA, United States of America
0.7562212772284287	42.7804214	-71.2116715	1054	Salem, NH, United States of America
0.7559846589295867	31.2673967	-85.3810444	1055	Northview, GA, United States of America
0.755748338738927	37.776718	-90.4148448	1056	St. Joseph's, MO, United States of America
0.7555123159991057	39.0612199	-77.066089	1057	Wheaton, MD, United States of America
0.7552765900548488	39.7419532	-75.5547268	1058	Wilmington Friends, DE, United States of America
0.7550411602529429	39.3256668	-76.5967642	1059	City College, MD, United States of America
0.7548060259422281	40.72919415	-74.1636541953012	1060	Immaculate Heart, NJ, United States of America
0.7545711864735883	43.0241781	-78.7366604	1061	Williamsville North, NY, United States of America
0.7543366411999435	41.792044	-72.7142607	1062	Watkinson School, CT, United States of America
0.7541023894762413	40.0951105	-75.1487861	1063	Bishop McDevitt, PA, United States of America
0.7538684306594492	41.9817438	-87.7080247	1064	Northside Prep, IL, United States of America
0.7536347641085456	42.1162398	-75.963642	1065	Johnson City, NY, United States of America
0.7534013891845116	37.9837505	-117.023278447941	1066	Ralston Valley, CO, United States of America
0.7531683052503242	38.9322606	-77.3394452245973	1067	South Lakes, VA, United States of America
0.7529355116709465	43.8829869	-69.9877619007994	1068	Brunswick, ME, United States of America
0.7527030078133204	44.88253175	-93.3766693407895	1069	Edina, MN, United States of America
0.752470793046359	41.1204767	-73.9913528	1070	Albertus Magnus, NY, United States of America
0.7522388667409381	40.2131617	-74.9760675	1071	Council Rock South, PA, United States of America
0.7520072282698882	32.480301	-93.74539510000001	1072	C.E. Byrd, TX, United States of America
0.7517758770079866	41.7992663	-72.7523177	1073	Northwest Catholic, CT, United States of America
0.7515448123319507	32.9412363	-97.1341782	1074	Southlake, TX, United States of America
0.7513140336204278	42.618667	-72.8255579	1075	Charlemont Academy, MA, United States of America
0.7510835402539902	47.4069344	-122.0334405	1076	Maple Valley, WA, United States of America
0.7508533316151247	40.4542356	-79.9175509	1077	Ellis School, PA, United States of America
0.7506234070882277	42.9400809	-72.3134192	1078	Keene, NH, United States of America
0.7503937660595944	47.5719538	-122.2181026	1079	Mercer Island B, WA, United States of America
0.7501644079174139	43.6973009	-70.5992224	1080	Bonny Eagle, ME, United States of America
0.7499353320517607	37.9331187	-122.033466625006	1081	Carondelet, CA, United States of America
0.7497065378545863	43.0919557	-88.0145324	1082	Covenant School, VA, United States of America
0.7492497920428252	45.49514285	-122.959207239644	1084	Hillsboro, OR, United States of America
0.7487941656550148	38.80294435	-104.857174793489	1086	Cheyenne Mountain, CO, United States of America
0.7485667707447088	40.70063935	-74.408811561545	1087	New Providence, NJ, United States of America
0.7483396538936066	29.7413401	-95.4263288	1088	Lamar, TX, United States of America
0.7481128145065957	41.7344469	-70.4597584352984	1089	Sandwich, MA, United States of America
0.7478862519903828	47.62607555	-122.304181845243	1090	Holy Names Academy, WA, United States of America
0.7476599657534851	45.4497535	-122.808024240352	1091	Southridge, OR, United States of America
0.7474339552062249	26.70762715	-80.2096795413135	1092	Royal Palm Beach, FL, United States of America
0.7472082197607209	33.6527261	-117.823602836746	1093	University HS, CA, United States of America
0.7469827588308824	40.7304267	-74.1863283	1094	Montgomery, NJ, United States of America
0.7467575718324013	40.6593503	-80.0170742539153	1095	Pine-Richland, PA, United States of America
0.7465326581827452	42.2046584	-71.0181333503979	1096	Braintree, MA, United States of America
0.7463080173011508	42.33332825	-71.1291792846815	1097	Brookline, MA, United States of America
0.7460836486086168	40.7356104	-73.9861587614155	1098	St. John the Baptist, NY, United States of America
0.7458595515278964	39.0867751	-77.1185903	1099	Rockville, MD, United States of America
0.7454121699016433	43.3305685	-73.6924559057056	1101	Queensbury, NY, United States of America
0.74518888421033	37.7857428	-77.5341419	1102	Patrick Henry, VA, United States of America
0.7449658678392559	38.9714997	-76.7427464	1103	Bowie, MD, United States of America
0.7447431202198456	40.6512346	-73.5247601	1104	Kennedy-Bellmore, NY, United States of America
0.7445206407852382	41.1217847	-73.3896352521464	1105	Norwalk, CT, United States of America
0.7442984289702803	37.5457699	-122.3166361	1106	Serra, CA, United States of America
0.7440764842115186	43.17618	-70.88566519999999	1107	Dover Club, NH, United States of America
0.7438548059471937	35.7845807	-78.6036957	1108	W.G. Enloe, NC, United States of America
0.7436333936172339	39.8399135	-75.7082784	1109	Kennett, PA, United States of America
0.7434122466632478	40.9262762	-74.07701	1110	Bergen Tech, NJ, United States of America
0.7431913645285184	35.9685936	-78.9446674	1111	Durham Academy, NC, United States of America
0.7429707466579967	38.9791562	-74.9060696	1112	Lower Cape May, NJ, United States of America
0.7425303014976768	42.2192249	-71.3231061	1114	Dover-Sherborn, MA, United States of America
0.7423104731060604	44.3470128	-69.9581066	1115	Maranacook, ME, United States of America
0.7420909067750009	41.3222999	-74.1343146687086	1116	Monroe-Woodbury, NY, United States of America
0.7418716019576906	41.7509327	-72.8676002	1117	Farmington, CT, United States of America
0.741652558108951	41.5875946	-73.4142877	1118	Canterbury School, CT, United States of America
0.7414337746852263	40.7517694	-111.854776184231	1119	East, UT, United States of America
0.7412152511445768	27.530418	-82.5785518612187	1120	Palmetto, FL, United States of America
0.740996986946674	43.9105642	-69.8311364561996	1121	Hyde-Bath, ME, United States of America
0.7407789815527933	47.60729665	-122.02735935	1122	Eastside Catholic, WA, United States of America
0.7405612344258077	32.2196486	-80.712608	1123	Hilton Head, SC, United States of America
0.7403437450301821	44.406732	-70.7917359	1124	Gould Academy, ME, United States of America
0.7401265128319673	40.69142155	-111.800269838209	1125	Skyline, UT, United States of America
0.7399095372987935	33.5002354	-90.16851980000001	1126	Greenwood, WA, United States of America
0.7396928178998642	32.8413139	-117.278217989881	1127	Bishop's School, CA, United States of America
0.7394763541059508	43.6790831	-70.2934114	1128	Catherine McAuley, ME, United States of America
0.7392601453893853	45.5418615	-122.992444910981	1129	Glencoe, OR, United States of America
0.7390441912240566	42.26099845	-83.7536588134033	1130	Ann Arbor Pioneer, MI, United States of America
0.7386130444504012	37.4534747	-79.1908592	1132	Virginia Episcopal, VA, United States of America
0.7383978507975744	40.903155	-73.8112445	1133	Pelham Memorial, NY, United States of America
0.7381829096069719	40.9295434	-73.7942994	1134	New Rochelle, NY, United States of America
0.7379682203601697	42.18135865	-70.9439389174459	1135	Weymouth, MA, United States of America
0.7377537825402648	41.9370764	-73.3623039	1136	Housatonic Valley, CT, United States of America
0.7375395956318677	38.39507815	-85.5844571061266	1137	Oldham, KY, United States of America
0.737325659121098	42.5019804	-82.9282517	1138	Sacred Heart, MI, United States of America
0.7371119724955781	43.05923205	-70.7652538490579	1139	Portsmouth, NH, United States of America
0.7368985352444274	40.3351571	-80.0706422	1140	Upper Saint Clair, PA, United States of America
0.7366853468582567	43.34845565	-71.9043769497198	1141	Kearsarge Regional, NH, United States of America
0.7364724068291626	44.2446845	-72.5269458	1142	U-32, VT, United States of America
0.7362597146507219	32.7990229	-117.052100345347	1143	Patrick Henry, CA, United States of America
0.7360472698179861	40.93082355	-74.2305578215728	1144	Wayne Valley, NJ, United States of America
0.7358350718274755	39.4039955	-76.6055237	1145	Towson Catholic, MD, United States of America
0.7356231201771737	34.3931105	-118.5907538	1146	R.L. Stevenson, CA, United States of America
0.7354114143665221	39.88573885	-86.1483178534383	1147	Park Tudor School, IN, United States of America
0.7351999538964152	41.110374	-73.533735	1148	King&Low-Heywood Thomas, NE, United States of America
0.7347777669886404	43.1529456	-70.7970103	1150	Marshwood, ME, United States of America
0.7345670395599728	42.08600405	-76.0457894938925	1151	Vestal, NY, United States of America
0.7343565554898408	41.3702456	-73.4953186	1152	Wooster School, CT, United States of America
0.7341463142863186	39.8520207	-86.0808139369425	1153	Cathedral, IN, United States of America
0.7339363154589003	42.4509118	-74.5776495	1154	South Jefferson, NY, United States of America
0.733726558518495	43.5916176	-70.3371097	1155	Scarborough, ME, United States of America
0.7335170429774207	39.0656644	-77.0385885	1156	John F. Kennedy, MD, United States of America
0.7333077683493996	43.1857998	-77.7821076	1157	Spencerport, NY, United States of America
0.7328899398943948	35.9531377	-78.5625650851777	1159	Wakefield Club, NC, United States of America
0.7326813851018281	42.13498935	-71.2484151099013	1160	Walpole, MA, United States of America
0.732473069291139	42.49140985	-71.285394206489	1161	Bedford, MA, United States of America
0.7322649919829916	33.43319685	-111.675144179574	1162	Red Mountain, AZ, United States of America
0.7320571526994225	38.2495489	-85.6767533	1163	Sacred Heart, KY, United States of America
0.7318495509638366	30.19432435	-95.5045786608027	1164	The Woodlands, TX, United States of America
0.7316421863010012	43.1550882	-70.6294967	1165	York, ME, United States of America
0.7314350582370408	42.42714665	-73.2475484739247	1166	Miss Hall's School, NE, United States of America
0.7312281662994333	38.6230905	-90.5342016	1167	Parkway West, MO, United States of America
0.7310215100170038	34.0117433	-84.4981724835743	1168	Sprayberry, GA, United States of America
0.7308150889199198	40.1198	-75.5215999	1169	Phoenixville, PA, United States of America
0.7306089025396866	29.7155077	-95.458552	1170	Episcopal, TX, United States of America
0.7304029504091419	41.03094825	-74.6676976012418	1171	Pope John XXIII, NJ, United States of America
0.7301972320624517	42.88604305	-73.1909009635478	1172	Mt. Anthony Union, VT, United States of America
0.7299917470351038	47.74830545	-121.98180455	1173	Holy Innocents, GA, United States of America
