weight	latitude	longitude	rank	hs_name
7.51945378026559	39.0337763	-77.10964349999999	1	Georgetown Prep, MD, United States of America
7.51945378026559	39.3723638	-76.6361295	1	Boys' Latin, MD, United States of America
5.232825833326387	40.8564874	-73.4242871	3	Huntington, NY, United States of America
4.75889910271296	40.7306507	-73.220733	4	West Islip, NY, United States of America
4.421057799529659	41.0850166	-73.4906280751206	5	Darien, CT, United States of America
4.162903863546375	40.7878631	-74.5290688	6	Delbarton, NJ, United States of America
3.9564341424901213	42.0475245	-70.6793292488759	7	Duxbury, MA, United States of America
3.785877858716706	40.0142	-75.3054999	8	Haverford School, PA, United States of America
3.6415499053657103	40.7330556	-73.6530555	9	Garden City, NY, United States of America
3.5171127763150825	40.86669015	-73.4567175492754	10	Cold Spring Harbor, NY, United States of America
3.5171127763150825	40.2973299	-74.7296048	10	Lawrenceville, NJ, United States of America
3.3117419018154495	41.2743037	-73.6095203	12	John Jay-Cross River, NY, United States of America
3.225410444488128	39.3947049	-76.7769673	13	McDonogh, MD, United States of America
3.147487705924498	39.4036039	-76.6268216	14	Loyola-Blakefield, MD, United States of America
3.0766364339818812	40.74508525	-73.6498182277831	15	Chaminade, NY, United States of America
3.0118039596490895	41.8395666	-72.6401410835967	16	Loomis Chaffee, CT, United States of America
2.9521481629564637	43.02066805	-76.0460217822718	17	Jamesville-DeWitt, NY, United States of America
2.8969858071326935	40.01684785	-83.0546924783809	18	Upper Arlington, OH, United States of America
2.845755644188063	39.3278867	-76.6257547	19	Gilman, MD, United States of America
2.7979915310392007	43.1369037	-77.4701760374478	20	Penfield, NY, United States of America
2.7533024862805373	39.7109363	-76.789975	21	St Paul's, MD, United States of America
2.711357657614997	42.7736705	-78.730585	22	Orchard Park, NY, United States of America
2.6718748271859836	40.024739	-75.5123591	23	Malvern Prep, PA, United States of America
2.6346115076740895	41.9987038	-73.3926196	24	Salisbury School, CT, United States of America
2.5993579637498168	42.5453345	-72.6046808	25	Deerfield, MA, United States of America
2.5659316836744748	43.0397885	-76.2657614	26	West Genesee, NY, United States of America
2.534172956572371	41.2486155	-81.4337259388139	27	Western Reserve Acad, OH, United States of America
2.534172956572371	43.01362385	-75.9619659916267	27	Fayetteville-Manlius, NY, United States of America
2.4751125650758006	40.89520265	-74.4273233602014	29	Mountain Lakes, NJ, United States of America
2.447576530482218	29.7067936	-95.4385142	30	St Mark's, TX, United States of America
2.4212349556135164	42.14802660000001	-77.1106719	31	Corning East, NY, United States of America
2.4212349556135164	42.8192309	-73.8897254296259	31	Niskayuna, NY, United States of America
2.348541569081928	40.79288105	-73.7045040358531	34	Manhasset, NY, United States of America
2.3261827966663255	42.895364	-71.317286	35	Pinkerton, NH, United States of America
2.3261827966663255	40.134324	-83.1774215	35	Dublin Jerome, OH, United States of America
2.2839138874102334	37.8438451	-121.9817492	37	Monte Vista/Danville, CA, United States of America
2.263902438803085	41.71161155	-87.718941275254	38	Brother Rice, MI, United States of America
2.244579405660245	30.3328019	-97.7009416	39	St John's, TX, United States of America
2.244579405660245	39.6303721	-104.879335	39	Cherry Creek, CO, United States of America
2.1903525786492937	40.6673246	-73.6209621	42	South Side, NY, United States of America
2.1734102147762004	40.6678787	-73.4531796	43	Massapequa, NY, United States of America
2.156983937141008	43.0828198	-77.415935872457	44	Fairport, NY, United States of America
2.141046820946736	39.28045695	-76.6874066760513	45	Mount St Joseph, MD, United States of America
2.1255739050528186	41.29341400000001	-72.619822	46	Daniel Hand-Madison, CT, United States of America
2.1105420097431895	32.8495844	-96.8076262022552	47	Highland Park, TX, United States of America
2.09592957487529	39.46068935	-76.612585140643	48	Dulaney, MD, United States of America
2.081716515758496	40.094622	-75.19051	49	LaSalle College HS, PA, United States of America
2.0678840945018746	42.7481398	-70.8980369	50	Governor's Academy, MA, United States of America
2.054414804898234	40.09067845	-83.0291908390627	51	Thomas Worthington, OH, United States of America
2.04129226918573	40.8289878	-73.4834562	52	Syosset, NY, United States of America
2.028501145259191	41.04018275	-73.6133129328867	53	Greenwich, CT, United States of America
2.01602704309839	40.5934382	-73.9862499	54	Lafayette, NY, United States of America
2.003856449345829	40.1155415	-83.0558302	55	Worthington Kilbourne, OH, United States of America
1.9919766591071613	40.6369444	-73.6299999	56	Oceanside, NY, United States of America
1.9803757141673255	42.260537	-71.1847489	57	Noble & Greenough, MA, United States of America
1.9690423469180196	41.7895402	-72.8345009	58	Avon Old Farms, CT, United States of America
1.9690423469180196	42.6647282	-77.0613847	58	Penn Yan, NY, United States of America
1.947136426780887	43.5823751	-71.2074454	60	Brewster Academy, NH, United States of America
1.947136426780887	38.9911172	-77.1270588	60	Landon, MD, United States of America
1.947136426780887	42.30258735	-71.2792295320111	60	Wellesley, MA, United States of America
1.9160370950058134	40.9967714	-74.1920109743855	63	Ramapo, NJ, United States of America
1.9061053608358167	39.741585	-104.9559827	64	Denver East, CO, United States of America
1.8868474770588919	40.7701167	-74.4079338	66	Madison Boro, NJ, United States of America
1.8775071920882587	36.873678	-76.19358799999999	67	Norfolk Academy, VA, United States of America
1.8683505018196964	39.127886	-76.6869129	68	Severn, MD, United States of America
1.8593711761094778	40.3578709	-74.6554332	69	Princeton HS, NJ, United States of America
1.8505632826311114	40.7317463	-74.4007444	70	Chatham, NJ, United States of America
1.8419211686254582	42.65232015	-71.6621127768527	71	Middlesex, MA, United States of America
1.8334394440082604	38.885289	-77.4645284	72	Westfield, VA, United States of America
1.8251129657168235	33.02856685	-96.750721583706	73	Plano, TX, United States of America
1.816936823189364	40.8464571	-74.5667697159893	74	Randolph, NJ, United States of America
1.808906324880992	38.9491885	-77.1665079	75	Langley, VA, United States of America
1.8010169857295912	31.4627676	-97.1214578	76	Robinson, VA, United States of America
1.793264515493172	37.5796741	-77.586755	77	Collegiate School, VA, United States of America
1.7856448078876563	33.07225645	-117.230366116231	78	La Costa Canyon, CA, United States of America
1.7781539304606802	41.2560052	-81.4139387452058	79	Hudson, OH, United States of America
1.7707881151429337	39.98793695	-74.9438015956539	80	Moorestown, NJ, United States of America
1.7635437494238613	32.7801294	-96.8466692	81	Episcopal Dallas, TX, United States of America
1.7564173681033282	41.0859301	-73.4326195	82	Brien McMahon-Norwalk, CT, United States of America
1.749405645575139	33.7668073	-117.7975286	83	Foothill-Tustin, CA, United States of America
1.7425053886021782	34.04375225	-84.4739029975894	84	Lassiter, GA, United States of America
1.7357135295464026	40.1024408	-76.2998167483992	85	Manheim Township, PA, United States of America
1.729027120020081	40.429517	-79.6690070705011	86	Franklin Regional, PA, United States of America
1.722443324927508	37.7480695	-122.4959313	87	Saint Ignatius Prep, CA, United States of America
1.7159594168689976	40.6936985	-74.5471314	88	Ridge, NJ, United States of America
1.7095727708812882	38.8400539	-77.2765857	89	Woodson, VA, United States of America
1.7032808594906133	32.6382191	-82.7676383	90	Lovett, GA, United States of America
1.6970812480566027	40.6200347	-74.5677171	91	Pingry, NJ, United States of America
1.6970812480566027	38.9829602	-76.9423133773692	91	Calvert Hall, MD, United States of America
1.6849496246042182	40.916255	-73.0744567809568	93	Ward Melville, NY, United States of America
1.679013169248136	42.28696755	-71.2316980574263	94	Needham, MA, United States of America
1.6731601195969859	39.07779085	-76.5605181555464	95	Severna Park, MD, United States of America
1.6673884441942295	40.7076001	-73.4440122	96	Farmingdale, NY, United States of America
1.6616961815665559	42.1850346	-71.297188	97	Medfield, MA, United States of America
1.6560814371210548	40.97768845	-74.10647155	98	Ridgewood, NJ, United States of America
1.650542380210023	42.3990754	-71.4001700040642	99	Lincoln-Sudbury, MA, United States of America
1.645077241352745	39.6493139	-105.0561646	100	Kent Denver, CO, United States of America
1.6396843096043783	35.1876781	-80.7333527	101	Charlotte Cou Day, NC, United States of America
1.6343619300627878	40.81222	-73.3894399	102	St Anthony's, NY, United States of America
1.6291085015048208	33.50419249999999	-117.6507716	103	Saint Margaret's, CA, United States of America
1.6239224741441143	40.7304267	-74.1863283	104	Montgomery, NJ, United States of America
1.6188023475030962	40.7208073	-74.370989196874	105	Summit, NJ, United States of America
1.6087540289907953	40.7586111	-73.5263888	107	Hicksville, NY, United States of America
1.6038230650213192	47.57189185	-122.219308569378	108	Mercer Island, WA, United States of America
1.5989524540153517	32.99885645	-117.025898955243	109	Poway, CA, United States of America
1.5941409136621967	40.8043899	-74.4480122	110	Morristown Beard, NJ, United States of America
1.5846901071079813	26.3835793	-80.1455623	112	Saint Andrews, FL, United States of America
1.5800484633038712	40.6456522	-74.3501630118898	113	Westfield, NJ, United States of America
1.5754611321623102	40.82316305	-74.2131656036377	114	Montclair, NJ, United States of America
1.5709270100308177	35.9607794	-79.0289107808845	115	East Chapel Hill, NC, United States of America
1.566445025031694	40.5170362	-74.8518362	116	Hunterdon Central, NJ, United States of America
1.5576333307710422	39.7023341	-75.6954872	118	Choate, CT, United States of America
1.5533016262782189	40.6397222	-73.6972221	119	Hewlett, NY, United States of America
1.5490180663523836	40.04778665	-75.4537537294326	120	Conestoga, PA, United States of America
1.5447817213263788	41.2045404	-73.4328986	121	Wilton, CT, United States of America
1.5405916869786789	45.39734995	-122.692798822972	122	Lakeridge, OR, United States of America
1.5323470553095735	41.70903195	-70.7679425178418	124	Tabor Academy, MA, United States of America
1.5282907688807894	43.7939687	-70.1947715	125	Yarmouth, ME, United States of America
1.5242774133049135	43.1745123	-76.1038116	126	Cicero-North Syracuse, NY, United States of America
1.520306198860577	42.7387379	-71.4739405136301	127	Bishop Guertin, NH, United States of America
1.516376356425726	33.63697335	-117.687751613223	128	El Toro, CA, United States of America
1.5124871367843755	36.1289469	-86.8369442	129	Montgomery Bell Acad, TN, United States of America
1.5086378099618594	40.6536111	-73.6727777	130	Lynbrook, NY, United States of America
1.5048276645871967	38.7572962	-75.1494885	131	Cape Henlopen, DE, United States of America
1.5010560072812704	41.16031295	-73.2547531312219	132	Fairfield Prep, CT, United States of America
1.4973221620695891	42.0984089	-75.9193626	133	Binghamton, NY, United States of America
1.4899652876935023	42.08600405	-76.0457894938925	135	Vestal, NY, United States of America
1.4863409886393792	39.9169129	-75.4207639	136	Penn Charter, PA, United States of America
1.4827519608798925	41.0716191	-74.1362282	137	Don Bosco Prep, NJ, United States of America
1.4791976074373816	47.6262626	-122.5204512	138	Bainbridge Island, WA, United States of America
1.4756773456706151	40.6894488	-73.5132704684335	139	Wantagh, NY, United States of America
1.472190606830314	39.8559543	-74.7761224	140	Shawnee, NJ, United States of America
1.4687368356315196	35.7974777	-95.2754973	141	Rivers, MA, United States of America
1.4653154898420475	40.591955	-80.0758425	142	North Allegheny, PA, United States of America
1.4619260398863223	42.6999184	-71.1163794	143	Andover HS, MA, United States of America
1.4585679684639046	40.5885116	-73.6578609	144	Long Beach, NY, United States of America
1.4552407701820766	40.99684405	-74.3765669112669	145	Kinnelon, NJ, United States of America
1.451943951201873	33.57609025	-111.932588487677	146	Chaparral, AZ, United States of America
1.4486770288969713	42.09447385	-87.7198764776642	147	New Trier, IL, United States of America
1.4454395315248993	39.800199	-75.5210476	148	Brandywine, DE, United States of America
1.442230997910028	47.60570065	-122.301242318436	149	Garfield, WA, United States of America
1.4390509771378568	41.12858455	-73.489421231771	150	New Canaan, CT, United States of America
1.43589902826011	41.8975977	-71.9625735	151	Pomfret, CT, United States of America
1.4327747200102012	40.8098887	-74.7285183	152	West Morris Central, NJ, United States of America
1.429677630528631	43.2035647	-77.4681161	153	Webster Schroeder, NY, United States of America
1.4266073470979062	38.9581808	-76.9421547433805	154	DeMatha, MD, United States of America
1.4235634658866005	40.7149252	-73.70631809999999	155	Floral Park, NY, United States of America
1.4205455917021734	40.580602	-74.6178548	156	Immaculata, NJ, United States of America
1.4175533377522007	40.5925865	-74.6343546	157	Bridgewater-Raritan, NJ, United States of America
1.4145863254136777	40.9598203	-74.0493067	158	Bergen Catholic, NJ, United States of America
1.4087265505958095	41.292594	-73.8029119	160	Yorktown, NY, United States of America
1.4058330697479389	38.4836465	-90.5007414	161	Cranbrook, MI, United States of America
1.4029633933646244	39.9678804	-75.5991665	162	West Chester Henderson, PA, United States of America
1.3972940970269903	42.0554269	-72.5607093	164	Longmeadow, MA, United States of America
1.3944938157521563	43.1414449	-78.9233736	165	Niagara Wheatfield, NY, United States of America
1.3917160159418493	39.44732665	-76.8180679854226	166	Franklin, MD, United States of America
1.3889603832999342	33.874266	-118.389538927327	167	Mira Costa, CA, United States of America
1.3862266097725748	41.2961798	-73.3369952714363	168	Barlow-Redding, CT, United States of America
1.3835143933879803	42.23256415	-70.8092798421583	169	Cohasset, MA, United States of America
1.37815345364367	32.9573985	-117.224896678294	171	Torrey Pines, CA, United States of America
1.375504155377669	40.3382193	-74.6846029	172	Hun School, NJ, United States of America
1.3728752641549526	32.951447	-97.153255	173	Southlake Carroll I, TX, United States of America
1.3676776128771055	40.1219539	-83.0989496709546	175	Dublin Scioto, OH, United States of America
1.3651083207621033	41.05535205	-74.6239956149296	176	Sparta, NJ, United States of America
1.3625583713171845	39.8670558	-75.5032557	177	Garnet Valley, PA, United States of America
1.3600275108700532	35.9444845	-79.078599237112	178	Chapel Hill, NC, United States of America
1.3575154904764533	42.9791148	-70.9516775992823	179	Phillips Exeter, NH, United States of America
1.3550220658062184	40.6743513	-73.5643147	180	Calhoun, NY, United States of America
1.3525469970326869	42.9514554	-76.420768	181	Skaneateles, NY, United States of America
1.3500900487253586	29.9062331	-95.6686189	182	Episcopal Houston, TX, United States of America
1.3476509897456845	40.3746091	-80.051505429267	183	Mount Lebanon, PA, United States of America
1.3452295931458815	38.9751925	-76.48887789999999	184	St Mary's Annapolis, MD, United States of America
1.3428256360706659	39.8894	-75.3336999	185	Ridley, PA, United States of America
1.3380691689654227	40.6676022	-73.6051284	187	Baldwin, NY, United States of America
1.3357162328418646	41.24575245	-74.4892742947106	188	Vernon Township, NJ, United States of America
1.3333798838782052	40.8782306	-73.3421004166701	189	Northport, NY, United States of America
1.331059918303145	40.3351571	-80.0706422	190	Upper St Clair, PA, United States of America
1.328756135904313	47.52245525	-122.028659288438	191	Issaquah, WA, United States of America
1.326468339947862	35.9084044	-79.0902385361288	192	Pace Academy, GA, United States of America
1.3241963371002945	40.71418145	-73.6685791139288	193	Carey, NY, United States of America
1.3219399373524328	42.56106895	-71.2739867812867	194	Billerica, MA, United States of America
1.319698953945478	34.4047169	-119.4798433	195	Cate School, CA, United States of America
1.3174732032990761	40.9320429	-74.1251427	196	Fair Lawn, NJ, United States of America
1.315262504941341	41.9767633	-72.4606399	197	Somers, CT, United States of America
1.3130666814407557	33.753195	-118.009772394229	198	Westminster, GA, United States of America
1.3108855583399113	41.3278708	-73.5303072630782	199	Ridgefield, CT, United States of America
1.3087189640910044	40.9731712	-73.6865301	200	Rye HS, NY, United States of America
1.3065667299930546	44.9757459	-93.1939289	201	Blake, MN, United States of America
1.3044286901307787	42.6982304	-73.9654422842923	202	Guilderland, NY, United States of America
1.3001945430250526	40.15311415	-75.1997546310871	204	Upper Dublin, PA, United States of America
1.298098117351603	42.442884	-71.2332039805502	205	Lexington HS, MA, United States of America
1.2960152489423897	40.0416337	-75.660066940317	206	Downingtown East, PA, United States of America
1.2939457849482896	33.0136764	-96.6925095	207	Plano West I, TX, United States of America
1.2918895749711967	39.8496978	-74.9670539897655	208	Eastern Regional, NJ, United States of America
1.2898464710131614	39.9232086	-75.4314683	209	Penncrest, PA, United States of America
1.287816327426821	39.9796447	-75.5653868	210	West Chester East, PA, United States of America
1.2857990008670863	39.8945915	-75.3719465493986	211	Strath Haven, PA, United States of America
1.2818022366770354	39.9306677	-75.32018780000001	213	Springfield-Delco, PA, United States of America
1.2798225234498959	40.7548218	-73.4829018	214	Bethpage, NY, United States of America
1.2778550759672818	42.4272548	-71.0465998521096	215	Malden Catholic, MA, United States of America
1.2758997617120966	38.8787187	-77.2820454957048	216	Oakton, VA, United States of America
1.2720250129586712	35.0304484	-85.2599951	218	McCallie, TN, United States of America
1.27010532344872	42.9084609	-77.27235259999999	219	Canandaigua, NY, United States of America
1.2681972570646776	45.4750373	-122.7571329	220	Oregon Episcopal, OR, United States of America
1.2663006910775774	42.9482232	-85.6129143967942	221	East Grand Rapids, MI, United States of America
1.2644155046021794	45.5188593	-122.689574989586	222	Lincoln, OR, United States of America
1.2625415785611152	40.6967728	-74.8835206652834	223	Voorhees, NJ, United States of America
1.2606787956498888	33.77951045	-118.419564342899	224	Palos Verdes, CA, United States of America
1.2588270403027086	42.96228	-78.7903109	225	Amherst, NY, United States of America
1.2569861986591244	40.0399648	-75.360608025	226	Radnor, PA, United States of America
1.2551561585314495	41.06880875	-73.6996917065398	227	Brunswick School, CT, United States of America
1.2533368093729476	41.7009328	-72.5934232	228	Glastonbury, CT, United States of America
1.2515280422467578	38.14698415	-85.568372218277	229	Louisville Trinity, KY, United States of America
1.2497297497955444	41.3126651	-73.7140545837215	230	Somers, NY, United States of America
1.2479418262118442	43.158679	-76.3327099	231	Baldwinsville, NY, United States of America
1.2461641672090995	42.2001203	-70.7681266828954	232	Scituate, MA, United States of America
1.2443966699933522	42.2251225	-70.8776890401925	233	Hingham, MA, United States of America
1.2408917570446931	30.63259635	-87.0453117621274	235	Milton, GA, United States of America
1.239154142941057	41.8912631	-72.7959463000224	236	Westminster School, CT, United States of America
1.2374262938307268	40.88895955	-73.5918714747227	237	Locust Valley, NY, United States of America
1.2339995089915972	41.1217847	-73.3896352521464	239	Norwalk, CT, United States of America
1.2323003857788186	34.1805605	-118.7631463	240	Oak Park, CA, United States of America
1.2306106525436555	40.3692196	-74.0015620226967	241	Rumson-Fair Haven, NJ, United States of America
1.228930218752858	40.6855452	-73.4937671507594	242	Seaford, NY, United States of America
1.227258995115535	39.5829291	-104.962775007037	243	Arapahoe, CO, United States of America
1.2255968935610764	42.6283244	-70.8482769	244	Hamilton-Wenham, MA, United States of America
1.2239438272175585	28.58374845	-81.3201033014906	245	Winter Park, FL, United States of America
1.2222997103906137	44.3445624	-73.1099672	246	Champlain Valley, VT, United States of America
1.2206644585427615	38.3495624	-75.5732569	247	Parkside, MD, United States of America
1.2190379882731817	42.13498935	-71.2484151099013	248	Walpole, MA, United States of America
1.2174202172979212	38.8019293	-107.715892	249	Hotchkiss, CT, United States of America
1.2158110644305242	39.03994495	-76.4534831848471	250	Broadneck, MD, United States of America
1.2142104495630732	39.9610427	-86.2738546677571	251	Zionsville, IN, United States of America
1.212618293647634	42.11058775	-72.4445531639882	252	Minnechaug, MA, United States of America
1.2110345186780878	43.0702133	-75.2856371	253	New Hartford, NY, United States of America
1.2094590476723497	40.7816605	-73.4587311	254	Plainview JFK, NY, United States of America
1.2078918046549563	42.08292405	-87.7600667611925	255	Loyola Academy, IL, United States of America
1.2063327146400171	43.7992465	-70.1850494	256	North Yarmouth Acad, ME, United States of America
1.2047817036145214	42.3157951	-71.0446890909555	257	Boston College HS, MA, United States of America
1.2032386985219867	44.6051884	-75.168457	258	Canton Central, NY, United States of America
1.2017036272464494	42.0297007	-71.2036696483533	259	Mansfield, MA, United States of America
1.1986570022913163	40.4964701	-74.6557896	261	Hillsborough, NJ, United States of America
1.1971453089428243	35.7457025	-78.8382514629026	262	Apex, NC, United States of America
1.1956412700437424	42.26099845	-83.7536588134033	263	Ann Arbor Pioneer, MI, United States of America
1.1941448179517395	42.2192249	-71.3231061	264	Dover-Sherborn, MA, United States of America
1.1926558858755603	38.9018713	-77.0101887	265	Gonzaga, DC, United States of America
1.1911744078611533	40.9714188	-73.717788	266	Webster Thomas, NY, United States of America
1.1897003187780752	39.8834425	-75.7196607	267	Unionville, PA, United States of America
1.188233554306169	37.612607	-122.4279914	268	Peninsula, CA, United States of America
1.186774050922504	41.6821461	-69.9598363	269	St Christopher's, VA, United States of America
1.1853217458885745	42.6268105	-70.9756707	270	Masconomet, MA, United States of America
1.181007405004717	32.6917186	-117.1817001	273	Coronado, CA, United States of America
1.1795832812391003	41.3652189	-73.7569963204998	274	Mahopac, NY, United States of America
1.178166053466356	42.9922222	-76.3433332	275	Marcellus, NY, United States of America
1.1767556633994232	41.28772765	-72.8004366413514	276	Branford, CT, United States of America
1.1753520534527975	38.0755077	-78.5005554	277	Albemarle, VA, United States of America
1.1739551667315928	42.45600145	-71.1341662183926	278	Winchester, MA, United States of America
1.17256494702081	40.09126335	-76.4140231496244	279	Hempfield, PA, United States of America
1.171181338774808	42.7964724	-76.1140658	280	Tully, NY, United States of America
1.1698042871069814	41.6039856	-73.1239992	281	Taft School, CT, United States of America
1.168433737779625	42.564178	-70.8790279	282	Beverly, MA, United States of America
1.1670696371939957	42.4323	-83.1538999	283	Univ Detroit Jesuit, MI, United States of America
1.1657119323805587	42.2281665	-72.5854986808637	284	South Hadley, MA, United States of America
1.164360570989417	43.0168412	-71.0003155511422	285	Exeter HS, NH, United States of America
1.1603440329493298	42.2132092	-71.5267901996232	288	Hopkinton, MA, United States of America
1.159017533816053	42.41865575	-71.161906560951	289	Arlington, MA, United States of America
1.1576971253274488	40.2454028	-75.6340730637132	290	Hill School, PA, United States of America
1.156382758660186	42.5477	-83.2617999	291	Detroit Country Day, MI, United States of America
1.1537719582752521	42.6471435	-71.1322910355567	293	Phillips Andover, MA, United States of America
1.1524754296652193	42.7667257	-78.8314216	294	Frontier, NY, United States of America
1.1511847530757549	40.3439248	-87.8247509	295	Covenant, VA, United States of America
1.1498998823896753	42.3457322	-71.2085588532235	296	Newton North, MA, United States of America
1.1486207720074542	39.7385784	-75.5554784	297	Tatnall, DE, United States of America
1.1460796522997176	40.01169005	-75.7178930752684	299	Downingtown West, PA, United States of America
1.1448175542963306	39.2992019	-76.8396083059577	300	Mount Hebron, MD, United States of America
1.1423100639691526	40.729291	-73.5254889375394	302	Division-Levittown, NY, United States of America
1.1410645858766986	39.2196122	-84.3592785378475	303	Archbishop Moeller, OH, United States of America
1.1398245627698538	39.60000985	-104.797958599554	304	Regis Jesuit, CO, United States of America
1.1385899529301995	33.98980905	-84.4400399453192	305	Walton, GA, United States of America
1.1373607150938105	37.8260372	-122.005794	306	San Ramon Valley, CA, United States of America
1.1361368084448376	38.8178183	-77.1011477	307	St Stephen/St Agnes, VA, United States of America
1.134918192609201	42.5446	-70.9742999	308	Peabody, MA, United States of America
1.1337048276483936	36.0454346	-80.2599087	309	St Peter's, CN, United States of America
1.1312936927386648	40.2907167	-111.6412338	311	Waterford, UT, United States of America
1.1300958450362972	41.833491	-71.3980237	312	Moses Brown, RI, United States of America
1.1289030926902017	43.1542731	-71.5477547	313	Bow, NH, United States of America
1.1277153978504344	40.8559314	-73.2006686	314	Smithtown East, NY, United States of America
1.126532723067606	41.6555757	-70.3206757785336	315	Barnstable, MA, United States of America
1.124182285845111	39.5414903	-76.9924814	317	Westminster, MD, United States of America
1.1230144504604522	43.2004366	-71.551175	318	Concord, NH, United States of America
1.1218514892322136	39.339125	-82.1008619	319	Troy Athens, MI, United States of America
1.1206933666331858	42.6305334	-76.1893646468257	320	Homer, NY, United States of America
1.1195400475050998	43.732406	-71.5889739	321	Holderness, NH, United States of America
1.1183914970536586	40.6539913	-73.601795	322	Freeport, NY, United States of America
1.117247680843654	43.1481445	-76.2158114319789	323	Liverpool, NY, United States of America
1.116108564794162	39.85490755	-75.1618107078676	324	West Deptford, NJ, United States of America
1.1149741151738184	42.47982085	-71.4583269841174	325	Acton Boxborough, MA, United States of America
1.113844298596171	40.6228095	-74.3140212	326	A.L.Johnson-Clark, NJ, United States of America
1.1127190820151067	42.5884618	-76.1742807	327	Cortland, NY, United States of America
1.111598432720356	38.2014433	-90.3928988	328	St Pius X, GA, United States of America
1.110482318333066	41.2642229	-73.19269	329	Trumbull, CT, United States of America
1.1093707068014498	42.3427122	-71.3758272580667	330	Wayland, MA, United States of America
1.1082635663965015	42.8669444	-76.9874999	331	Geneva, NY, United States of America
1.1071608657077832	39.6754963	-76.4010768878517	332	North Harford, MD, United States of America
1.1049686594053139	44.08206835	-123.072281600678	334	Sheldon, OR, United States of America
1.1038790925265376	29.852567	-95.3238879	335	Kinkaid, TX, United States of America
1.1027938428259758	42.2709264	-71.7967377	336	Belmont Hill, MA, United States of America
1.1017128804251386	42.5070435	-71.3203159501964	337	Concord Carlisle, MA, United States of America
1.1006361757401932	41.7508392	-99.297326	338	Kent School, CT, United States of America
1.0995636994781983	40.8650992	-73.5951263	339	Friends Academy, NY, United States of America
1.0984954226333936	41.53179895	-72.6203198874681	340	Xavier-Middletown, CT, United States of America
1.0974313164835516	40.8944444	-73.9033332	341	Fieldston, NY, United States of America
1.0963713525863825	40.2621002	-75.1630703100395	342	Central Bucks South, PA, United States of America
1.0953155027759987	39.8745176	-74.8974412277105	343	Cherokee, NJ, United States of America
1.09426373915943	41.2102192	-73.3782612998835	344	Weston, CT, United States of America
1.0932160341131978	32.9947515	-117.065010408639	345	Rancho Bernardo, CA, United States of America
1.0921723602799362	34.0628767	-84.3815932	346	Roswell, GA, United States of America
1.0900969981335435	40.8745177	-74.26920369999999	348	West Essex Regional, NJ, United States of America
1.089065256406592	41.5630556	-73.5969443	349	Trinity-Pawling, NY, United States of America
1.0880374390585736	40.00544155	-75.4228891134414	350	Episcopal Academy, PA, United States of America
1.0870135200138413	40.6998227	-73.4748467	351	Plainedge, NY, United States of America
1.0859934734436651	42.62164145	-71.3738803797843	352	Chelmsford, MA, United States of America
1.0849772737632004	40.201824	-77.1893887	353	Carlisle, PA, United States of America
1.0839648956285017	43.218001	-77.5983669	354	Irondequoit, NY, United States of America
1.0829563139335823	43.9864256	-75.6459341	355	Carthage, NY, United States of America
1.0819515038075167	41.5906968	-70.6088633914101	356	Falmouth HS, MA, United States of America
1.0809504406115868	41.87159675	-72.821883157628	357	Simsbury, CT, United States of America
1.0799530999364713	40.71980355	-74.3143352817316	358	Millburn, NJ, United States of America
1.0789594575994759	40.8043715	-74.3750623147417	359	Hanover Park, NJ, United States of America
1.0779694896418048	42.7427179	-84.47933585	360	East Lansing, MI, United States of America
1.0769831723258734	42.6999184	-71.1163794	361	North Andover, MA, United States of America
1.076000482132658	39.8267587	-77.8986091	362	Mercersburg Academy, PA, United States of America
1.0750213957590895	42.1166823	-73.4146878	363	Berkshire School, MA, United States of America
1.0740458901154786	42.2081552	-71.0058807	364	Thayer Academy, MA, United States of America
1.0730739423229845	41.36890625	-72.2127679540828	365	East Lyme, CT, United States of America
1.072105529711118	40.374194	-74.5634606	366	South Brunswick, NJ, United States of America
1.0711406298152788	40.8423218	-74.2962596	367	Caldwell, NJ, United States of America
1.0701792203743343	40.1372446	-75.21528769999999	368	Germantown Academy, PA, United States of America
1.069221279328227	40.8633333	-73.2430555	369	Smithtown West, NY, United States of America
1.0682667848156195	39.761971	-75.547721	370	Salesianum, DE, United States of America
1.0673157151715753	35.098424	-89.8570311	371	Memphis Univ School, TN, United States of America
1.0663680489252685	40.7995447	-74.2059787	372	Glen Ridge, NJ, United States of America
1.0654237647977285	42.18135865	-70.9439389174459	373	Weymouth, MA, United States of America
1.0644828416996184	41.2657181	-70.0683143	374	Nantucket, MA, United States of America
1.063545258729042	40.0570949	-75.567083	375	Great Valley, PA, United States of America
1.062610995169383	42.27815895	-71.1655042002054	376	Catholic Memorial, MA, United States of America
1.0616800304871767	35.95685825	-86.7654797381004	377	Ravenwood, TN, United States of America
1.060752344330009	42.9104522	-76.5507374	378	Auburn, NY, United States of America
1.0598279165244462	39.1245335	-76.64682719999999	379	Archbishop Spalding, MD, United States of America
1.0589067270739936	41.3513035	-73.97545509999999	380	O'Neil, NY, United States of America
1.0579887561570833	43.0174406	-76.1734319	381	Corcoran, NY, United States of America
1.05707398412509	45.4275204	-122.7024808	382	Lake Oswego, OR, United States of America
1.0561623915003728	43.1514749	-70.84089	383	St Thomas Aquinas, NH, United States of America
1.0552539589743462	39.59912935	-76.6596023713956	384	Hereford, MD, United States of America
1.0543486674055782	28.58795735	-81.3906581888158	385	Bishop Moore, FL, United States of America
1.0534464978179112	40.3225097	-74.6006179	386	West Windsor-PB So, NJ, United States of America
1.0525474313986132	42.12954225	-70.8713456313137	387	Hanover, MA, United States of America
1.051651449496552	41.5637057	-73.4134543	388	New Milford, CT, United States of America
1.0507585336203942	38.5890095	-76.6091255	389	Calverton, MD, United States of America
1.04986866543683	34.044734	-118.2956306	390	Loyola-Los Angeles, CA, United States of America
1.0489818267688218	43.6133556	-72.5454216	391	Woodstock, VT, United States of America
1.0480979995938764	47.60422605	-122.198430332444	392	Bellevue, WA, United States of America
1.0472171660423406	33.96717165	-84.6832395881206	393	Harrison, GA, United States of America
1.0463393083957206	39.5617737	-76.3302368	394	Milton, MA, United States of America
1.045464409085023	45.562432	-122.902156543943	395	Liberty, OR, United States of America
1.0445924506891189	42.0728919	-71.3323046456334	396	King Philip, MA, United States of America
1.0437234159331301	40.905315	-73.0124669	397	Comsewogue, NY, United States of America
1.0428572876868365	43.16418295	-73.0778494569867	398	Burr-Burton Academy, VT, United States of America
1.0419940489631043	30.2729495	-97.7669278345007	399	Austin, TX, United States of America
1.0411336829163373	32.8413139	-117.278217989881	400	Bishop's School, CA, United States of America
1.0402761728409455	35.1668118	-80.7514584	401	Woodberry Forest, VA, United States of America
1.038569654472928	40.83005379999999	-73.6795819	403	Port Washington, NY, United States of America
1.0368743629576187	43.05792515	-77.6063444861447	405	Rush-Henrietta, NY, United States of America
1.035190169539152	40.6906574	-73.6090172	407	Lawrence, NY, United States of America
1.0343521949554835	33.30888235	-111.843761622495	408	Chandler, AZ, United States of America
1.033516947561728	40.7356567	-74.2657026	409	Columbia, NJ, United States of America
1.032684411846774	39.4133502	-76.9531704	410	Liberty, MD, United States of America
1.0318545724252866	42.2644674	-87.8400694	411	Lake Forest, IL, United States of America
1.0310274140363842	40.57369705	-111.888123053518	412	Jordan, UT, United States of America
1.0302029215423338	42.7535148	-71.4957937	413	Nashua South, NH, United States of America
1.0293810799272602	44.4861515	-72.9619426	414	Mt Mansfield Union, VT, United States of America
1.028561874295876	39.25959465	-76.7292521365685	415	Catonsville, MD, United States of America
1.0277452898722221	37.9511624	-122.5365928	416	Marin Catholic, CA, United States of America
1.0269313119984314	41.4900972	-72.9064913	417	Cheshire HS, CT, United States of America
1.026119926133501	39.2750246	-77.0033637273565	418	Glenelg HS, MD, United States of America
1.0253111178520864	41.4178706	-70.595999	419	Martha's Vineyard, MA, United States of America
1.0245048728433064	41.1450544	-81.8506909	420	Medina, OH, United States of America
1.023701176909565	42.0952646	-71.4114805	421	Franklin, MA, United States of America
1.0229000159653892	42.15464885	-70.8401319665693	422	Norwell, MA, United States of America
1.0221013760362796	42.9513738	-77.5866728	423	Honeoye Falls-Lima, NY, United States of America
1.0213052432575762	42.49203215	-70.8687295336433	424	Marblehead, MA, United States of America
1.0205116038733384	39.1185163	-75.5410111845064	425	Caesar Rodney, DE, United States of America
1.019720444235239	33.970744	-84.216646	426	Wesleyan, GA, United States of America
1.0181455101356771	41.0384302	-74.1434769	428	Northern Highlands, NJ, United States of America
1.0173617089058677	39.2524068	-84.320758	429	Cincinnati Indian Hill, OH, United States of America
1.0165803338833859	40.68851595	-73.9024133515835	430	Holy Trinity, NY, United States of America
1.0158013719418602	41.2789753	-73.8584444	431	Lakeland/Panas, NY, United States of America
1.0150248100561798	39.0289815	-77.1981184	432	Bullis, MD, United States of America
1.0142506353014829	39.5220529	-76.4131134	433	Fallston, MD, United States of America
1.0134788348521533	33.58863425	-111.8109526	434	Desert Mountain, AZ, United States of America
1.0127093959808329	37.82299505	-122.233012819263	435	Piedmont, CA, United States of America
1.011942306057446	35.1108421	-80.76364819999999	436	Charlotte Providence, NC, United States of America
1.011177552548233	39.8569672	-74.717725	437	Seneca, NJ, United States of America
1.0104151230147982	40.4525163	-74.4766712	438	North Brunswick, NJ, United States of America
1.0096550051131694	32.77102425	-117.177697129025	439	Francis Parker, CA, United States of America
1.008897186592866	40.5348199	-75.5051837	440	Emmaus, PA, United States of America
1.0081416552959825	40.65247245	-74.4752436654308	441	Watchung Hills, NJ, United States of America
1.0073883991562793	36.7749397	-76.6200653271291	442	Nansemond-Suffolk Acad, VA, United States of America
1.0066374061982868	34.02384975	-84.4522261531746	443	Pope, GA, United States of America
1.005888664536419	40.6753793	-73.5429044	444	Mepham, NY, United States of America
1.005142162374099	41.7344469	-70.4597584352984	445	Sandwich, MA, United States of America
1.0043978880028939	43.5916176	-70.3371097	446	Scarborough, ME, United States of America
1.0036558298016598	40.7350984	-73.0940003	447	Sayville, NY, United States of America
1.0029159762356983	40.669459	-73.973348419	448	Poly Prep, NY, United States of America
1.0021783158559212	41.81131265	-87.8802093682677	449	Lyons Township, IL, United States of America
1.001442837298028	40.7287118	-73.5559599	450	East Meadow, NY, United States of America
1.000709529281689	43.0578253	-76.1190622	451	Henninger, NY, United States of America
0.9999783806097414	40.4468606	-79.9458211	452	Central Catholic, PA, United States of America
0.9992493801673938	40.97115555	-72.2002149483579	453	East Hampton, NY, United States of America
0.9985225169214405	40.7902778	-73.9713888	454	Trinity School, NY, United States of America
0.9977977799194829	42.78523105	-71.1065216729894	455	Haverhill, MA, United States of America
0.9970751582891633	38.9731554	-76.5674712347829	456	Annapolis, MD, United States of America
0.9963546412374054	38.9217797	-76.5599615	457	South River, MD, United States of America
0.9956362180496631	40.1970949	-75.163972524242	458	Hatboro-Horsham, PA, United States of America
0.9949198780891814	41.6001022	-71.2708822	459	Portsmouth Abbey, RI, United States of America
0.9942056107962616	39.7145405	-77.4033211	460	Friends, MD, United States of America
0.9934934056875384	39.3262047	-77.3407907	461	Urbana, MD, United States of America
0.9927832523552621	40.82248745	-73.2023491812515	462	Hauppauge, NY, United States of America
0.992075140466594	42.31885485	-71.403216109992	463	Framingham, MA, United States of America
0.9913690597629033	30.3267534	-97.7303170535767	464	McCallum, TX, United States of America
0.9899629512428412	43.0822349	-76.0276318	466	East Syracuse-Minoa, NY, United States of America
0.9892629032740735	40.9401412	-73.0271798	467	Mount Sinai, NY, United States of America
0.9885648461841463	28.6377762	-81.2733999	468	Lake Howell, FL, United States of America
0.9871746651197977	28.70418265	-81.2654721962129	470	Winter Springs, FL, United States of America
0.9864825215596655	36.8766111	-76.0292664	471	Cape Henry Collegiate, VA, United States of America
0.9857923297056684	38.8255028	-77.0943289	472	Episcopal HS, VA, United States of America
0.9851040799368712	41.03094825	-74.6676976012418	473	Pope John XXIII, NJ, United States of America
0.9844177626999772	40.43257195	-74.3985653684705	474	East Brunswick, NJ, United States of America
0.9837333685087108	41.14856015	-73.2637279923243	475	Fairfield-Ludlowe, CT, United States of America
0.9830508879432075	41.6798041	-83.5272714201053	476	Woodward, GA, United States of America
0.9823703116494098	36.3156103	-87.71752	477	Houston, TN, United States of America
0.9816916303384714	42.08901895	-87.8536262033248	478	Glenbrook South, IL, United States of America
0.9810148347861675	42.9434299	-85.52304079999999	479	Forest Hills Central, MI, United States of America
0.9796668643801756	39.8926823	-75.3060413010849	481	Interboro, PA, United States of America
0.9789956713959257	30.19432435	-95.5045786608027	482	The Woodlands, TX, United States of America
0.9783263279080512	40.1071378	-83.1311268	483	Dublin Coffman, OH, United States of America
0.9776588250068116	47.6134559	-122.0313908	484	Eastlake, WA, United States of America
0.9769931538436818	44.2460167	-88.3725996629461	485	Appleton, WI, United States of America
0.9763293056308076	39.57143665	-76.9768013304972	486	Winters Mill, MD, United States of America
0.9756672716404658	41.4420644	-73.6034463154583	487	Brewster, NY, United States of America
0.9750070432045301	43.5461828	-72.2581459	488	Kimball Union, NH, United States of America
0.9743486117139433	42.1067937	-70.73867489739	489	Marshfield, MA, United States of America
0.9736919686181942	32.798165	-116.914648005576	490	Granite Hills, CA, United States of America
0.9730371054248018	29.52802235	-98.4265190574598	491	St Mary's Hall, TX, United States of America
0.9723840136988042	32.96609835	-117.150068753275	492	Westview, CA, United States of America
0.9717326850622522	40.1867565	-74.1773812	493	Howell, NJ, United States of America
0.9710831111937102	42.6259385	-73.6913855456407	494	Columbia, NY, United States of America
0.9704352838277611	42.5352731	-71.1098491684049	495	Reading Memorial, MA, United States of America
0.9697891947545167	45.5494788	-122.865007426937	496	Westview, OR, United States of America
0.9691448358191346	40.2401673	-77.0615260049836	497	Cumberland Valley, PA, United States of America
0.9685021989213374	42.3282822	-71.6074425509687	498	Algonquin, MA, United States of America
0.9678612760149409	29.2666253	-82.1144588	499	Pine Crest, FL, United States of America
0.9672220591073839	41.6156339	-72.8611198766516	500	Southington, CT, United States of America
0.9659487115838863	39.44309765	-77.04142025	502	South Carroll, MD, United States of America
0.9653145652467922	42.5775266	-71.46351589999999	503	Westford Academy, MA, United States of America
0.9646820934653281	40.8006567	-73.7284646	504	Great Neck South, NY, United States of America
0.9634221426949965	40.52487065	-111.960689300668	506	Riverton, UT, United States of America
0.9627946483958305	39.6513889	-105.0366666	507	Mullen, CO, United States of America
0.9621687980308335	40.1281743	-74.0490478	508	Manasquan, NJ, United States of America
0.9615445840697654	37.29096990000001	-121.8735768	509	University-Cathedral, CA, United States of America
0.9609219990315869	43.2818508	-76.1498637	510	Central Square, NY, United States of America
0.960301035484042	41.15466715	-73.3276954327841	511	Staples-Westport, CT, United States of America
0.959681686043245	39.3302419	-84.4310758984263	512	Lakota West, OH, United States of America
0.959063943373272	40.1900811	-75.52644	513	Spring-Ford, PA, United States of America
0.9578332492394905	40.75271605	-73.1837394883089	515	East Islip, NY, United States of America
0.9572202833400261	40.6617543	-74.312622	516	Cranford, NJ, United States of America
0.9566088953392851	42.192683	-75.8548479	517	Chenango Forks, NY, United States of America
0.9559990781351718	40.208505	-75.096709653418	518	Archbishop Wood, PA, United States of America
0.9553908246711877	39.21605815	-76.9267008656082	519	River Hill, MD, United States of America
0.9541789809633284	34.0751245	-84.2561252	521	Alpharetta, GA, United States of America
0.9535753768310452	42.9879381	-77.4141449	522	Victor, NY, United States of America
0.9529733086613364	39.9802627	-86.1196065656726	523	Carmel, IN, United States of America
0.9523727696200704	38.9889604	-77.7852529	524	Notre Dame Academy, VA, United States of America
0.9517737529164919	40.7777808	-74.5912517090318	525	Mendham, NJ, United States of America
0.9511762518028638	41.3359272	-73.8740251	526	Putnam Valley, NY, United States of America
0.9505802595741141	40.9685405	-74.2372872145518	527	Wayne Hills, NJ, United States of America
0.9499857695674843	32.78238415	-116.988000974297	528	Grossmont, CA, United States of America
0.949392775162185	42.420374	-71.1094972	529	Medford, MA, United States of America
0.9488012697790509	37.7908735	-122.445576811572	530	University SF, CA, United States of America
0.9482112468802026	39.52953035	-76.3468870410099	531	Bel Air, MD, United States of America
0.9476226999687093	42.58331775	-70.9318685193334	532	Danvers, MA, United States of America
0.9470356225882564	40.0249231	-75.31523539999999	533	Shipley, PA, United States of America
0.9464500083228158	33.34623175	-111.766494829613	534	Gilbert, AZ, United States of America
0.94586585079632	39.4057672	-76.5621990790781	535	Loch Raven, MD, United States of America
0.9452831436723389	34.0070442	-84.290479	536	Centennial, GA, United States of America
0.9447018806537596	47.74830545	-121.98180455	537	Holy Innocents, GA, United States of America
0.9441220554824695	28.6823458	-81.4226193225388	538	Lake Brantley, FL, United States of America
0.9435436619390449	43.7891632	-75.4917439	539	Lowville, NY, United States of America
0.942966693842438	42.8619583	-73.8000404	540	Shenendehowa, NY, United States of America
0.9423911450496704	42.39280695	-82.9040665061426	541	Grosse Pointe South, MI, United States of America
0.9418170094555296	39.94757525	-75.3481673121681	542	Cardinal O'Hara, PA, United States of America
0.9412442809922672	39.0376119	-76.053277	543	Queen Annes County, MD, United States of America
0.9406729536292994	42.8256495	-71.5801458	544	Souhegan, NH, United States of America
0.9401030213729132	40.86177815	-74.640792943145	545	Roxbury, NJ, United States of America
0.9395344782659737	43.69874465	-72.2832153186343	546	Hanover, NH, United States of America
0.9389673183876327	35.0013626	-80.72542630000001	547	Weddington, NC, United States of America
0.9384015358530432	40.7739961	-73.4022992	548	Half Hollow Hills West, NY, United States of America
0.9378371248130754	40.6386744	-75.5491527302499	549	Parkland, PA, United States of America
0.9372740794540346	33.65422815	-117.8901391	550	Monte Vista, CA, United States of America
0.9367123939973829	42.3806752	-83.1098895	551	De La Salle, MI, United States of America
0.9361520626994636	44.1982814	-70.4106088	552	Hebron Academy, ME, United States of America
0.9355930798512274	41.92600185	-73.9969744875625	553	Kingston, NY, United States of America
0.9350354397779618	37.5457699	-122.3166361	554	Junipero Serra HS, CA, United States of America
0.934479136839023	39.9792137	-75.3852785	555	Marple Newtown, PA, United States of America
0.9339241654275707	45.5279622	-122.821174188664	556	Sunset, OR, United States of America
0.9333705199703054	37.9379802	-122.5241421	557	Redwood, CA, United States of America
0.9328181949272074	42.20554775	-71.4450314626025	558	Holliston, MA, United States of America
0.9317174840882891	42.66838615	-72.4851050486311	560	Northfield Mt Hermon, MA, United States of America
0.93116908737652	42.454775	-76.4970466746796	561	Ithaca, NY, United States of America
0.9295316672538194	40.844657	-73.0110356	564	Sachem East, NY, United States of America
0.9289884327313066	42.420573	-71.1279179	565	Brooks School, MA, United States of America
0.92844647547044	43.1236224	-77.5663994	566	Brighton, NY, United States of America
0.9273663717571812	41.1917153	-73.6777247905449	568	Fox Lane, NY, United States of America
0.9268282148933428	43.6507561	-116.336902104469	569	Centennial, ID, United States of America
0.9262913144677901	40.8853684	-81.3947501	570	Hoover/No. Canton, OH, United States of America
0.9257556653505385	40.94151859999999	-72.8672934	571	Shoreham-Wading River, NY, United States of America
0.9252212624414854	42.3938659	-71.2296977001954	572	Waltham, MA, United States of America
0.9246881006701855	42.1473471	-72.7537507	573	Westfield, MA, United States of America
0.9241561749956257	42.26265965	-71.6162400235663	574	Westborough, MA, United States of America
0.9236254804060043	43.34845565	-71.9043769497198	575	Kearsarge, NH, United States of America
0.9230960119185112	43.65761135	-72.3191744701832	576	Hartford, VT, United States of America
0.9225677645791095	42.93414445	-75.8577392568601	577	Cazenovia Central, NY, United States of America
0.9220407334623206	41.7939511	-72.7536243	578	Hall-West Hartford, CT, United States of America
0.9215149136710099	42.2607756	-71.4453561187979	579	Ashland, MA, United States of America
0.9209903003361761	40.62819115	-74.8835248925097	580	North Hunterdon, NJ, United States of America
0.9199446736993373	40.6849378	-111.822897438099	582	Olympus, UT, United States of America
0.9194236507981127	35.922502	-78.96258569999999	583	Durham Jordan, NC, United States of America
0.9189038151545166	39.9501097	-82.93343569999999	584	Columbus St Charles, OH, United States of America
0.9183851620371011	45.53887975	-122.627105486497	585	Grant, OR, United States of America
0.9178676867413208	38.81851229999999	-77.1687535	586	Thos Jefferson, VA, United States of America
0.9173513845893344	41.8420428	-72.5548099	587	South Windsor, CT, United States of America
0.9163222811377173	41.7362325	-72.7509292757843	589	Conard-West Hartford, CT, United States of America
0.9147873091064767	42.7360516	-73.7473709231484	592	Shaker, NY, United States of America
0.9142779490534222	43.3964738	-70.548664	593	Kennebunk, ME, United States of America
0.9137697301306701	42.4980678	-83.3467341068515	594	Farmington Hills, MI, United States of America
0.9132626478670727	41.0163671	-74.5519242440094	595	Jefferson Twp, NJ, United States of America
0.9127566978164775	39.5869266	-105.003629706601	596	Heritage, CO, United States of America
0.9122518755575468	40.26378655	-74.5221782963702	597	Peddie School, NJ, United States of America
0.9117481766935772	36.0834689	-79.8150319	598	Greensboro Grimsley, NC, United States of America
0.9112455968523202	42.6324478	-71.913257	599	Cushing Academy, MA, United States of America
0.9107441316858086	39.71276005	-74.258010495425	600	Southern Regional, NJ, United States of America
0.910243776870178	40.21924075	-75.4565339561885	601	Perkiomen Valley, PA, United States of America
0.9092463811155909	40.68263	-75.252749	603	Easton, PA, United States of America
0.9087493316478759	40.7206583	-74.5654945832302	604	Bernards, NJ, United States of America
0.9077585083856112	45.4497535	-122.808024240352	606	Southridge, OR, United States of America
0.9072647262023227	43.6531914	-72.2498886	607	Lebanon, NH, United States of America
0.906772024763417	42.63267155	-70.8739748345129	608	Pingree, MA, United States of America
0.9062803999317486	47.8330645	-122.2395798	609	Lynnwood, WA, United States of America
0.9057898475927693	30.09649455	-95.518566412152	610	Klein Oak, TX, United States of America
0.9053003636543675	37.3886526	-77.4947533	611	Richmond LC, VA, United States of America
0.9048119440467098	40.8384331	-73.6312389	612	North Shore, NY, United States of America
0.904324584722084	43.65898225	-70.2588437354691	613	Portland, ME, United States of America
0.9038382816547417	40.1120981	-75.131461	614	Abington, PA, United States of America
0.9033530308407447	40.7928793	-80.0758425	615	Seneca Valley, PA, United States of America
0.9028688282978112	39.6042071	-105.075487596242	616	Columbine, CO, United States of America
0.9023856700651639	43.4504806	-76.5246399	617	Oswego, NY, United States of America
0.9019035522033791	43.9105642	-69.8311364561996	618	Hyde-Bath, ME, United States of America
0.9014224707942374	44.45460625	-73.177851500599	619	South Burlington, VT, United States of America
0.9009424219405751	40.2980916	-75.3560416	620	Souderton, PA, United States of America
0.9004634017661378	42.2568317	-71.0693283	621	Milton Academy, MA, United States of America
0.8999854064154346	42.25414425	-71.0006282025798	622	Quincy, MA, United States of America
0.8995084320535938	43.0241781	-78.7366604	623	Williamsville North, NY, United States of America
0.8990324748662195	41.022448	-74.2314433	624	Indian Hills, NJ, United States of America
0.89855753105925	42.5600339	-83.2932663	625	Bloomfield Hills, MI, United States of America
0.8980835968588161	43.1239669	-77.5908975989522	626	McQuaid Jesuit, NY, United States of America
0.897610668511104	43.1409185	-70.9170031	627	Oyster River, NH, United States of America
0.8971387422822138	41.74752635	-71.3206242536853	628	Barrington, IL, United States of America
0.8966678144580242	42.613531	-70.6751419	629	Gloucester, MA, United States of America
0.8961978813440569	40.05072095	-76.3279413463355	630	Lancaster Country Day, PA, United States of America
0.8957289392653398	42.2574341	-89.049966	631	Rockford, MI, United States of America
0.8952609845662753	34.0484502	-84.2085954	632	Chattahoochee, GA, United States of America
0.8947940136105066	39.7421068	-75.0766802	633	Washington Twp, NJ, United States of America
0.8938630084788474	39.140745	-77.7005860443286	635	Loudoun Valley, VA, United States of America
0.8933989671252707	42.0582992	-72.5240620818223	636	East Longmeadow, MA, United States of America
0.89293589515936	40.9411788	-73.7435731	637	Mamaroneck, NY, United States of America
0.8924737890390141	42.3845334	-72.5108354524231	638	Amherst-Pelham, MA, United States of America
0.8920126452405993	38.90277075	-77.1407848998753	639	Yorktown, VA, United States of America
0.8915524602588264	40.651412	-73.5238933	640	Bellmore JFK, NY, United States of America
0.8910932306066252	27.62859005	-80.4035754155209	641	Vero Beach, FL, United States of America
0.8906349528150217	39.5926005	-77.133038	642	Francis Scott Key, MD, United States of America
0.8901776234330172	45.1201121	-93.4072239	643	Osseo, MN, United States of America
0.889721239027467	42.1664578	-71.1483234893135	644	Canton, MA, United States of America
0.8892657961829593	42.5931184	-71.5865252434644	645	Groton School, MA, United States of America
0.8888112915016981	41.461004	-73.5077322	646	New Fairfield, CT, United States of America
0.8883577216033833	42.68439675	-84.456141	647	Okemos, MI, United States of America
0.8879050831250963	44.8027504	-74.7642481	648	St Lawrence Central, NY, United States of America
0.8874533727211813	43.0300663	-76.2021481	649	Westhill, NY, United States of America
0.8870025870631313	38.01704695	-84.5342417882846	650	Lexington Catholic, KY, United States of America
0.8865527228394748	41.31216985	-72.7119570639331	651	Guilford, CT, United States of America
0.8861037767556614	47.423236	-122.4581298	652	Vashon Island, WA, United States of America
0.8856557455339505	41.35794595	-73.0053446589273	653	Amity Regional, CT, United States of America
0.8852086259132991	43.5909173	-70.2292137	654	Cape Elizabeth, ME, United States of America
0.8847624146492515	44.0394864	-123.15144578945	655	Churchill, OR, United States of America
0.8843171085138305	38.6660476	-121.250584091091	656	Bella Vista, CA, United States of America
0.8838727042954282	41.6984319	-71.9709074	657	Canterbury, CT, United States of America
0.8834291987986977	39.8399135	-75.7082784	658	Kennett, PA, United States of America
0.8829865888444476	42.63911075	-82.870399934627	659	L'Anse Creuse North, MI, United States of America
0.8825448712695343	38.7905226	-90.4889813	660	Saint Charles, IL, United States of America
0.882104042926758	41.1745396	-73.7576326	661	Horace Greeley, NY, United States of America
0.8816641006847588	40.09965205	-75.2701401888487	662	Plymouth-Whitemarsh, PA, United States of America
0.8812250414279105	34.851354	-82.3984881	663	Greenville, SC, United States of America
0.880349559485231	40.2678599	-80.1182008244671	665	Peters Township, PA, United States of America
0.8799131306459077	29.7071721	-95.5402493520622	666	Strake Jesuit, TX, United States of America
0.879477572484551	40.02106335	-74.9533997445549	667	Holy Cross-Delran, NJ, United States of America
0.8790428819626894	39.9828955	-74.1954193	668	Toms River North, NJ, United States of America
0.8786090560569849	43.8897803	-92.8364760807336	669	Hayfield, VA, United States of America
0.8781760917591322	43.09690115	-73.4974926605841	670	Greenwich, NY, United States of America
0.8777439860757636	41.8814931	-70.6166995	671	Plymouth, MA, United States of America
0.8768823386531134	38.4669229	-77.4561887	673	North Stafford, VA, United States of America
0.8764527910009178	33.008321	-117.2440957	674	San Dieguito, CA, United States of America
0.876024090137189	37.4531768	-122.191665178136	675	Menlo School, CA, United States of America
0.875596233141814	41.13353025	-74.1100881791337	676	Suffern, NY, United States of America
0.8751692171090508	39.4745548	-77.3610315	677	Walkersville, MD, United States of America
0.8738931859426433	40.1337269	-74.768781	680	Pennsbury, PA, United States of America
0.8734695049871152	30.2765551	-97.8144540122411	681	Westlake, TX, United States of America
0.8730466506778559	36.06528515	-78.94353323404	682	Durham Riverside, NC, United States of America
0.8726246201934424	42.9127778	-76.8688888	683	Waterloo, NY, United States of America
0.8722034107261951	45.4771686	-122.691128922746	684	Wilson, OR, United States of America
0.8717830194820887	40.534497	-75.3989016159337	685	Southern Lehigh, PA, United States of America
0.8713634436806686	43.03686545	-78.9333868519581	686	Grand Island, NY, United States of America
0.8705267273514024	39.9214361	-74.8554318	688	Lenape, NJ, United States of America
0.8692776999370759	40.9562092	-74.1212537	691	Glen Rock, NJ, United States of America
0.8688629591514105	42.7825801	-71.012465775361	692	Pentucket, MA, United States of America
0.8684490147180868	30.0792562	-81.4479872685438	693	Nease, FL, United States of America
0.8680358639621799	42.64748465	-71.311935522624	694	Lowell, MA, United States of America
0.8676235042215878	39.8520207	-86.0808139369425	695	Cathedral, IN, United States of America
0.8672119328469513	38.3662114	-75.600888	696	Salisbury, MD, United States of America
0.8668011472015751	34.1508386	-118.7487007	697	Agoura, CA, United States of America
0.8663911446613489	38.9386375	-77.0751267	698	Sidwell Friends, DC, United States of America
0.8659819226146698	38.9684958	-104.847213	699	Colorado Academy, CO, United States of America
0.8651658096176115	37.8671231	-122.271353388549	701	Berkeley, CA, United States of America
0.8647589135058683	43.4445263	-71.5892042	702	Tilton School, NH, United States of America
0.8643527875647912	39.5913883	-104.747298695684	703	Grandview, CO, United States of America
0.8639474292441639	39.2196122	-84.3592785378475	704	Cincinnati Sycamore, OH, United States of America
0.8635428360058209	39.25355915	-76.8702477135574	705	Centennial, MD, United States of America
0.863139005323574	39.9725895	-105.246221204107	706	Fairview, CO, United States of America
0.8627359346831398	44.00693375	-73.1639788874456	707	Middlebury Union, VT, United States of America
0.8623336215820657	40.8371414	-81.9463039	708	Wooster, OH, United States of America
0.8619320635296577	42.7336276	-71.5945673344011	709	Hollis-Brookline, NH, United States of America
0.8615312580469097	41.55623195	-71.4485952335191	710	North Kingstown, RI, United States of America
0.8611312026664316	40.7987107	-73.5426253	711	Jericho, NY, United States of America
0.8603333324003796	40.05130755	-83.1562758270621	713	Hilliard Davidson, OH, United States of America
0.8599355126374718	42.2813889	-83.70264300000001	714	Ann Arbor Huron, MI, United States of America
0.8591420917436846	29.9423267	-95.6527252569066	716	Cy-Fair, TX, United States of America
0.8587464858032856	41.7876875	-87.9338967063461	717	Hinsdale Central, IL, United States of America
0.8579574709952694	39.98391	-75.261518	719	Friends Central, PA, United States of America
0.8575640573847257	28.52816935	-81.146428740795	720	Timber Creek, FL, United States of America
0.8571713698261384	42.32390075	-72.6523225634159	721	Northampton, MA, United States of America
0.8567794059753429	33.4170959	-84.5627402	722	McIntosh, GA, United States of America
0.856388163498976	30.0168357	-95.5234161137608	723	Klein, TX, United States of America
0.855997640074412	33.6803727	-117.7934588	724	Eastlake, CA, United States of America
0.8556078333896981	42.8113889	-77.6663888	725	Livonia, NY, United States of America
0.8552187411434908	38.8802258	-77.4064865	726	Chantilly, VA, United States of America
0.8548303610449928	37.7532062	-122.154881820827	727	Bishop O'Dowd, CA, United States of America
0.8544426908138895	42.4639852	-70.9567162	728	Lynn-Classical, MA, United States of America
0.8540557281802884	42.67885735	-83.1555788752675	729	Rochester, MI, United States of America
0.8536694708846556	43.2111919	-71.5570167	730	Bishop Brady, NH, United States of America
0.8532839166777548	42.35158615	-71.8744573491523	731	Wachusett, MA, United States of America
0.8528990633205872	44.9224304	-123.039865417076	732	South Salem, OR, United States of America
0.8525149085843297	40.2640217	-75.6206345	733	Pottsgrove, PA, United States of America
0.8521314502502759	41.6763545	-86.25198979999999	734	St Joseph-South Bend, IN, United States of America
0.8517486861097763	45.3630189	-122.617653745817	735	West Linn, OR, United States of America
0.8513666139641782	42.7128687	-71.1711695	736	Central Catholic, MA, United States of America
0.8509852316247682	42.7268624	-78.8298435	737	Hamburg, NY, United States of America
0.8506045369127133	43.1163889	-75.2927777	738	Whitesboro, NY, United States of America
0.8502245276590025	35.80551335	-78.8668352256792	739	Green Hope, NC, United States of America
0.8498452017043904	42.88604305	-73.1909009635478	740	Mt Anthony Union, VT, United States of America
0.8494665568993389	42.6508927	-71.6607787	741	North Middlesex, MA, United States of America
0.8490885911039614	40.56279420000001	-75.005436	742	Delaware Valley, NJ, United States of America
0.8487113021879664	42.49140985	-71.285394206489	743	Bedford, MA, United States of America
0.8483346880306012	39.0770529	-77.1833137	744	Wootton, MD, United States of America
0.8479587465205967	40.7149336	-73.5817628272131	745	Kellenberg, NY, United States of America
0.8475834755561126	43.21498055	-123.353895932755	746	Roseburg, OR, United States of America
0.8468349369031583	45.6847194	-121.5465429	748	Hood River, OR, United States of America
0.8464616650576597	42.5878816	-83.1799472965292	749	Troy, MI, United States of America
0.846089055443517	40.74722	-73.5644399	750	Clarke, NY, United States of America
0.8457171060052204	31.2673967	-85.3810444	751	Northview, GA, United States of America
0.8453458146963657	42.8692408	-71.3793387200395	752	Londonderry, NH, United States of America
0.8449751794796029	40.8696671	-74.1633332	753	Clifton, NJ, United States of America
0.8446051983265834	35.9394422	-86.8773030254043	754	Franklin, TN, United States of America
0.8442358692179095	40.70063935	-74.408811561545	755	New Providence, NJ, United States of America
0.8438671901430821	36.0823583	-79.908091	756	Western  Guilford, NC, United States of America
0.8434991591004499	40.1717754	-75.2273981	757	Wissahickon, PA, United States of America
0.8431317740971592	41.82877585	-71.39734356005	758	Wheeler School, RI, United States of America
0.8427650331491037	34.3187653	-79.8811743	759	Darlington, GA, United States of America
0.8423989342808741	39.12927185	-84.4595157330493	760	Summit Country Day, OH, United States of America
0.8420334755257091	35.077439	-80.7746835868932	761	Charlotte Latin, NC, United States of America
0.8416686549254461	38.9364776	-77.1554318515203	762	Potomac School, VA, United States of America
0.8413044705304723	39.7458954	-74.9077306	763	Winslow Twp, NJ, United States of America
0.8409409203996766	35.2270869	-80.8431267	764	Charlotte North Meck, NC, United States of America
0.8405780026004008	46.5864939	-123.1115045	765	Curtis, WA, United States of America
0.8402157152083923	42.4639283	-83.4906800038312	766	Novi, MI, United States of America
0.839854056307756	34.8622058	-85.8347410061685	767	Stevenson, IL, United States of America
0.8394930239909086	38.3418227	-75.1906972	768	Stephen Decatur, MD, United States of America
0.8380551226979946	43.0453937	-76.4728887089275	772	Jordan-Elbridge, NY, United States of America
0.837339882560124	40.36307499999999	-74.687815	774	Princeton Day, NJ, United States of America
0.8366270962682503	42.12968015	-71.043622816625	776	Avon HS, CT, United States of America
0.8362716187125945	40.7842649	-74.3201451	777	Livingston, NJ, United States of America
0.8359167491118428	40.1070586	-74.3448699	778	Jackson Memorial, NJ, United States of America
0.835562485646811	43.0604242	-77.5189882	779	Pittsford, NY, United States of America
0.8352088265060847	40.7527937	-74.184769	780	Newark Academy, NJ, United States of America
0.8348557698859757	40.4066646	-74.2722247197172	781	Old Bridge, NJ, United States of America
0.8345033139904796	33.29576255	-112.01671306988	782	Desert Vista, AZ, United States of America
0.8341514570312343	42.576645	-71.781195	783	St Bernard-Fitchburg, MA, United States of America
0.8338001972274766	41.41706305	-73.4701842617439	784	Danbury, CT, United States of America
0.833449532806	42.0739637	-72.6450505172579	785	Agawam, MA, United States of America
0.8330994620011146	44.80852845	-73.0830665784586	786	Bellows Free Academy, VT, United States of America
0.8327499830546038	41.5931836	-70.9775741819829	787	Dartmouth, MA, United States of America
0.8324010942156849	42.1913486	-71.2152722347482	788	Norwood, MA, United States of America
0.8320527937409677	40.3874658	-75.2747359	789	Pennridge, PA, United States of America
0.8317050798944129	42.3497199	-83.4955795	790	Plymouth Canton-Salem, MI, United States of America
0.8313579509472938	43.1183946	-77.8344528	791	Churchville-Chili, NY, United States of America
0.831011405178155	42.91634465	-78.8699349368709	792	Canisius, NY, United States of America
0.8306654408727723	43.1857998	-77.7821076	793	Spencerport, NY, United States of America
0.8303200563241148	38.981785	-77.1275023330957	794	Whitman, MD, United States of America
0.8299752498323043	40.2197857	-74.2824682	795	Freehold Township, NJ, United States of America
0.8296310197045775	42.74834225	-70.919947575	796	Triton, MA, United States of America
0.8292873642552459	42.27650535	-71.3609922356681	797	Natick, MA, United States of America
0.8289442818056586	42.1169295	-76.2728687	798	Owego Free Academy, NY, United States of America
0.8286017706841641	42.496301	-71.0506772719111	799	Wakefield, MA, United States of America
0.8282598292260716	30.44883175	-97.7328155841018	800	McNeil, TX, United States of America
0.8279184557736137	41.70641645	-88.1994376638285	801	Neuqua Valley, IL, United States of America
0.8275776486759097	37.36882005	-121.838274997207	802	Foothill, CA, United States of America
0.8272374062889276	39.9348351	-75.0307263	803	Cherry Hill West, NJ, United States of America
0.8268977269754475	33.4778047	-117.7000608	804	Dana Hills, CA, United States of America
0.8265586091050249	41.3189871	-72.3273047	805	Old Lyme, CT, United States of America
0.8262200510539538	40.331132	-75.6299489	806	Boyertown, PA, United States of America
0.8258820512052322	39.9519199	-105.141794978828	807	Monarch, CO, United States of America
0.825544607948524	42.1885734	-83.74937	808	Saline, MI, United States of America
0.8252077196801245	40.71591375	-74.0406138853098	809	St Peter's Prep, NJ, United States of America
0.824871384802925	42.1933581	-87.8014551	810	Highland Park, IL, United States of America
0.8245356017263774	41.86156725	-69.9688825086343	811	Nauset, MA, United States of America
0.8242003688664586	41.0250849	-76.8421853	812	North Hills, PA, United States of America
0.8238656846456365	34.1616721	-118.815648	813	Westlake, CA, United States of America
0.8235315474928354	34.0616763	-118.4117452	814	Beverly Hills, CA, United States of America
0.8228649081390677	41.2545384	-73.9345831	816	Hendrick Hudson, NY, United States of America
0.8218690132091165	34.06421515	-84.5131368565291	819	Kell, GA, United States of America
0.8215381258290989	30.0460134	-95.1936560712822	820	Kingwood, TX, United States of America
0.8212077746974903	39.3905794	-76.6002762716028	821	Towson, MD, United States of America
0.8208779582936475	39.122609	-76.6282995	822	Old Mill, MD, United States of America
0.8205486751030828	41.2144444	-74.016111	823	North Rockland, NY, United States of America
0.8202199236174318	38.9098339	-76.919418	824	The Heights, MD, United States of America
0.8198917023344201	34.02508015	-118.826061191584	825	Malibu, CA, United States of America
0.8195640097578326	40.7356104	-73.9861587614155	826	St John Baptist, NY, United States of America
0.8189102047691735	33.5271688	-111.906611842548	828	Saguaro, AZ, United States of America
0.8185840893946815	43.187562	-77.6397246	829	Aquinas Institute, NY, United States of America
0.8182584968017096	42.3667625	-71.3031131	830	Weston, MA, United States of America
0.8179334255238655	39.6103807	-76.8610887	831	North Carroll, MD, United States of America
0.8176088741006273	35.9700577	-83.9553709	832	West Knoxville, TN, United States of America
0.8172848410773146	43.1544972	-77.706266878788	833	Gates-Chili, NY, United States of America
0.8169613250050571	38.7556716	-76.0654963	834	Easton, MD, United States of America
0.8166383244407662	39.24701	-84.3813509	835	Anderson Blue, OH, United States of America
0.8163158379471024	39.7614801	-75.2902098	836	Kingsway Regional, NJ, United States of America
0.8159938640924472	42.3131531	-71.1861651	837	Newton South, MA, United States of America
0.8156724014508737	42.6977761	-71.4084483972303	838	Tyngsborough, MA, United States of America
0.815351448602117	40.0078006	-75.2792733854084	839	Lower Merion, PA, United States of America
0.815031004131544	45.5156626	-122.8947721	840	Aloha Portland, OR, United States of America
0.8147110666301254	42.9398704	-76.247912	841	Onondaga Central, NY, United States of America
0.8143916346944071	40.6991667	-73.3252777	842	Babylon, NY, United States of America
0.8140727069264809	32.90851455	-117.112518961207	843	Scripps Ranch, CA, United States of America
0.8137542819339558	42.3024378	-71.7446637922589	844	Shrewsbury, MA, United States of America
0.8134363583299309	39.95721475	-75.2844390544217	845	Upper Darby, PA, United States of America
0.8131189347329659	40.63282405	-73.9523034573947	846	Midwood, NY, United States of America
0.8128020097670541	42.1621643	-76.8240741	847	Horseheads, NY, United States of America
0.8124855820615942	39.9837231	-75.3010194	848	Haverford HS, PA, United States of America
0.8121696502513629	43.95810705	-75.9113279893039	849	Watertown HS, NY, United States of America
0.811854212976488	39.3934504	-76.6747359074678	850	Park School, MD, United States of America
0.8115392688824198	38.8947006	-77.1609431407895	851	Bishop O'Connell, VA, United States of America
0.8112248166199058	39.5222817	-104.965641495822	852	Mountain Vista, CO, United States of America
0.8105973822188467	41.7822222	-73.6866666	854	Millbrook, NY, United States of America
0.810284397408036	33.9190653	-84.01674229999999	855	Gwinnett LC, GA, United States of America
0.8099718990841944	40.5902122	-105.0331632	856	Heritage Christian, IN, United States of America
0.8096598859241503	35.288348	-119.1080604	857	Branson, CA, United States of America
0.8090373098284281	40.1759388	-75.3976812	859	Methacton, PA, United States of America
0.80872674427199	42.83055585	-86.0260731076982	860	Zeeland, MI, United States of America
0.8084166586377779	42.1397222	-77.0563888	861	Corning West, NY, United States of America
0.8081070516280496	41.4339992	-81.7915139	862	Blessed Trinity, GA, United States of America
0.8077979219500725	40.88166555	-73.2438755673074	863	Kings Park, NY, United States of America
0.8074892683160976	40.7025073	-73.3447958	864	West Babylon, NY, United States of America
0.8071810894433363	41.7992663	-72.7523177	865	Northwest Catholic, CT, United States of America
0.8068733840539343	35.0882733	-80.849798	866	Charlotte Catholic, NC, United States of America
0.8065661508749463	39.9575461	-75.1586194	867	Roman Catholic, PA, United States of America
0.8062593886383139	42.604433	-71.5628435838169	868	Lawrence Academy, MA, United States of America
0.8059530960808386	40.7926392	-73.6395699524749	869	Roslyn, NY, United States of America
0.8056472719441595	43.8575797	-70.1089389	870	Freeport, ME, United States of America
0.805341914974728	40.04226555	-75.3165399284129	871	Harriton, PA, United States of America
0.8050370239237843	30.45588885	-97.7977960547478	872	Westwood, TX, United States of America
0.8047325975473345	41.4225938	-73.954583	873	Haldane, NY, United States of America
0.8044286346061256	45.45435575	-122.684953851246	874	Riverdale, OR, United States of America
0.8041251338656229	39.8765774	-82.7552766	875	Pickerington, OH, United States of America
0.8038220940959863	38.7344473	-77.80186	876	Highland School, VA, United States of America
0.8035195140720469	32.83405585	-117.272892092514	877	La Jolla HS, CA, United States of America
0.8032173925732853	43.0445708	-75.872947	878	Chittenango, NY, United States of America
0.8029157283838063	40.2313336	-74.9448065	879	Council Rock North, PA, United States of America
0.8026145202923188	41.4787051	-73.3893213484487	880	Brookfield, CT, United States of America
0.8023137670921112	40.93082355	-74.2305578215728	881	Wayne Valley, NJ, United States of America
0.8020134675810294	32.6486656	-117.0066923	882	Bonita Vista, CA, United States of America
0.8017136205614551	37.8404819	-122.1460765	883	Miramonte, CA, United States of America
0.8014142248402831	43.0831301	-73.7845651	884	Saratoga Spgs, NY, United States of America
0.8011152792288987	32.6761927	-114.643758383861	885	Tucson, AZ, United States of America
0.8008167825431568	35.8210049	-84.2529005	886	Brentwood LC, TN, United States of America
0.8005187336033593	40.986957	-74.9664125203994	887	Blair Academy, NJ, United States of America
0.8002211312342338	39.0721718	-76.6830553	888	Arundel, MD, United States of America
0.7999239742649114	40.72266825	-73.4932508353811	889	Island Trees, NY, United States of America
0.7996272615289064	39.7706491	-76.7344250311156	890	Susquehannock, PA, United States of America
0.7993309918640937	42.65144585	-71.540995750282	891	Groton-Dunstable, MA, United States of America
0.7990351641126888	41.3172398	-72.9738311644653	892	Hopkins School, CT, United States of America
0.798739777121226	40.2417733	-75.2687859	893	Lansdale Catholic, PA, United States of America
0.7984448297405375	42.937945	-70.8380649	894	Winnacunnet, NH, United States of America
0.7981503208257331	42.2046584	-71.0181333503979	895	Braintree, MA, United States of America
0.7978562492361789	42.505715	-70.910476339482	896	Salem, MA, United States of America
0.7975626138354773	40.5144946	-74.387214755138	897	Edison, NJ, United States of America
0.7972694134914459	42.4509118	-74.5776495	898	South Jefferson, NY, United States of America
0.7969766470760982	40.30530905	-75.1377394613682	899	Central Bucks West, PA, United States of America
0.7966843134656224	42.8431445	-71.1153364	900	Timberlane, NH, United States of America
0.7963924115403617	40.3653838	-74.9587786	901	New Hope/Solebury, PA, United States of America
0.7961009401847947	25.7231565	-80.2447719	902	Ransom Everglades, FL, United States of America
0.7958098982875149	41.4509	-71.4690999	903	Prout School, RI, United States of America
0.7952290984426493	40.67	-73.6608332	905	Malverne, NY, United States of America
0.7949393382926506	41.6365339	-70.9678925016017	906	Bishop Stang, MA, United States of America
0.7946500031960734	30.18813085	-97.8585696617832	907	Bowie, TX, United States of America
0.7943610920617941	40.8931047	-73.8977095	908	Horace Mann, NY, United States of America
0.7937845373356097	42.10342355	-72.5856957702823	910	Cathedral Springfield, MA, United States of America
0.7934968915813746	40.6790333	-75.3141021	911	Moravian Academy, PA, United States of America
0.79320966546474	39.02506835	-77.1301048813096	912	Walter Johnson, MD, United States of America
0.7929228579143865	41.36778095	-72.922737875568	913	Hamden, CT, United States of America
0.7926364678628988	42.12179065	-72.641446243102	914	West Springfield, MA, United States of America
0.7923504942467486	43.6798181	-70.277631	915	Cheverus, ME, United States of America
0.7920649360062745	39.5389726	-76.3331499	916	John Carroll, MD, United States of America
0.791779792085665	38.96819065	-104.84612191246	917	Air Academy, CO, United States of America
0.7914950614329398	40.7806544	-72.8495473	918	William Floyd, NY, United States of America
0.7912107429999318	42.5160058	-79.1461453	919	Silver Creek, NY, United States of America
0.7909268357422692	41.2636925	-75.8976968	920	Wyoming Seminary, PA, United States of America
0.7906433386193579	43.2659168	-70.8645038	921	Berwick, ME, United States of America
0.7903602505943632	40.8591544	-81.4913976	922	Massillon-Jackson, OH, United States of America
0.7900775706341925	40.9034322	-74.4037636	923	Boonton, NJ, United States of America
0.7897952977094773	40.176766	-75.6563054	924	Owen J Roberts, PA, United States of America
0.7895134307945575	40.0970507	-75.4696357	925	Valley Forge, PA, United States of America
0.7892319688674613	42.09420805	-87.9694251939445	926	Saint Viator, IL, United States of America
0.7886702559072001	39.81577685	-75.8151762647722	928	Avon Grove, PA, United States of America
0.7883900028483865	40.1178848	-82.9232433	929	Westerville South, OH, United States of America
0.7881101507260655	42.64597699999999	-73.787032	930	Albany Academy, NY, United States of America
0.7878306985364579	40.0484447	-75.0232263	931	Father Judge, PA, United States of America
0.7875516452793718	40.7316667	-73.2544443	932	Bay Shore, NY, United States of America
0.7872729899581875	34.1484162	-84.1710764	933	South Forsyth, GA, United States of America
0.7869947315798386	47.4069344	-122.0334405	934	Maple Valley, WA, United States of America
0.7867168691547971	41.1318755	-73.9558166381885	935	Clarkstown South, NY, United States of America
0.7864394016970577	42.73905575	-83.3919863584974	936	Clarkston, MI, United States of America
0.786162328224119	41.4098714	-73.2715494078504	937	Newtown, CT, United States of America
0.7858856477569696	33.954959	-117.328993	938	Canyon Crest, CA, United States of America
0.7856093593200716	39.74417505	-105.21164608271	939	Golden, CO, United States of America
0.7853334619413432	40.0462209	-75.3535211	940	ArchBishop Carroll, PA, United States of America
0.7850579546521452	33.9404936	-118.126206509993	941	Downey, CA, United States of America
0.7847828364872622	42.74378805	-84.6270287790457	942	Lansing Waverly, MI, United States of America
0.7845081064848898	41.8436493	-72.6557921107456	943	Windsor, CT, United States of America
0.7842337636866168	39.1669079	-76.8604564350845	944	Hammond, MD, United States of America
0.783959807137411	40.0848	-74.9868999	945	Archbishop Ryan, PA, United States of America
0.7836862358856027	40.8603759	-73.2890049	946	Commack, NY, United States of America
0.78341304898287	26.304503	-80.26945700000002	947	Douglas, FL, United States of America
0.7831402454842238	37.8404753	-94.34113889999999	948	Centennial/Meadows, NV, United States of America
0.7825957849358015	42.81248695	-70.8866003968382	950	Newburyport, MA, United States of America
0.7823241260125717	43.6716363	-70.2958929	951	Deering, ME, United States of America
0.7820528467464899	35.1716427	-80.8332355	952	Charlotte Myers Park, NC, United States of America
0.7817819462090019	39.8587232	-75.416583	953	Sun Valley, PA, United States of America
0.781511423474795	43.1670236	-71.828412	954	Proctor, NH, United States of America
0.7812412776217853	39.2985688	-76.9032763673401	955	Chapelgate Christian, MD, United States of America
0.7809715077311009	40.7351019	-73.6879081	956	New Hyde Park, NY, United States of America
0.7807021128870689	33.9755699	-118.2875741	957	Mount Carmel, CA, United States of America
0.7804330921772001	37.90488835	-122.097365786881	958	Acalanes, CA, United States of America
0.7801644446921753	28.6733304	-81.2183982	959	Oviedo, FL, United States of America
0.7798961695258297	39.39169255	-76.4655725464706	960	Perry Hall, MD, United States of America
0.7796282657751405	40.9378396	-73.8305366	961	Bronxville, NY, United States of America
0.7793607325402118	41.4770068	-78.3686258	962	Truman, PA, United States of America
0.7790935689242597	35.77128295	-78.7662437950008	963	Cary HS, NC, United States of America
0.7788267740336002	41.1073506	-73.9312991	964	Nyack, NY, United States of America
0.7785603469776341	37.3427658	-121.918110173237	965	Bellarmine Prep, CA, United States of America
0.7782942868688327	34.4658141	-119.181409740631	966	Thacher School, CA, United States of America
0.778028592822725	42.9906	-73.8559999	967	Ballston Spa, NY, United States of America
0.7777632639578843	40.68678035	-74.3874717167144	968	Governor Livingston, NJ, United States of America
0.7774982993959129	42.41570395	-71.1505745287741	969	Arlington Catholic, MA, United States of America
0.7772336982614307	39.9009334	-76.6058	970	Red Lion, PA, United States of America
0.7769694596820604	37.9707568	-122.5133085	971	San Rafael, CA, United States of America
0.7767055827884138	43.11631725	-88.3486190993024	972	Arrowhead, WI, United States of America
0.7764420667140801	38.5952295	-90.6375145525004	973	Lafayette, MO, United States of America
0.7761789105956112	40.2773649	-74.2100164	974	Colt's Neck, NJ, United States of America
0.7759161135725088	44.496664	-73.2357519325485	975	Burlington, VT, United States of America
0.7756536747872119	40.8092798	-72.9874046182782	976	Patchogue-Medford, NY, United States of America
0.7753915933850833	41.3003244	-72.53255639999999	977	Morgan-Clinton, CT, United States of America
0.775129868514397	45.4015777	-122.769195375787	978	Tigard, OR, United States of America
0.7748684993263245	35.9685936	-78.9446674	979	Durham Academy, NC, United States of America
0.7746074849749227	27.9236333	-82.5028731	980	Plant, FL, United States of America
0.7743468246171218	40.88179965	-73.627262143205	981	Glen Cove, NY, United States of America
0.7740865174127111	43.2306344	-71.7189656	982	Hopkinton, NH, United States of America
0.7738265625243269	39.0227062	-77.4906800773258	983	Broad Run, VA, United States of America
0.7735669591174413	44.094588	-123.132278282758	984	North Eugene, OR, United States of America
0.7733077063603477	33.4502206	-84.4802606	985	Fayette LC, GA, United States of America
0.7730488034241499	40.1806063	-76.1911028841402	986	Ephrata, PA, United States of America
0.7727902494827488	40.7648233	-73.6626294	987	Herricks, NY, United States of America
0.7725320437128309	36.7954163	-79.4941945	988	Flint Hill, VA, United States of America
0.7722741852938557	47.248404	-122.461667941409	989	Tacoma, WA, United States of America
0.7720166734080435	39.1453143	-84.364127405997	990	Mariemont, OH, United States of America
0.7717595072403636	40.5245332	-79.8884632352712	991	Shady Side Academy, PA, United States of America
0.7715026859785225	36.15359425	-115.236711276447	992	Bonanza, NV, United States of America
0.7712462088129505	33.7508535	-116.9639126	993	West Valley, CA, United States of America
0.7709900749367922	40.1556504	-76.3146795	994	Warwick, PA, United States of America
0.770734283545893	39.14681235	-77.0187069262227	995	Sherwood, MD, United States of America
0.7704788338387873	45.35663775	-122.849116691413	996	Sherwood, OR, United States of America
0.7702237250166886	40.1573811	-74.9485373269094	997	Neshaminy, PA, United States of America
0.7699689562834748	28.4977722	-81.5061208	998	Olympia, FL, United States of America
0.76971452684568	39.3842073	-88.9592429	999	Tower Hill, DE, United States of America
0.7694604359124804	41.3307535	-74.5393228201632	1000	Minisink Valley, NY, United States of America
0.7692066826956846	33.9990448	-80.9864796	1001	Heathwood Hall, SC, United States of America
0.7689532664097211	40.9525987	-72.9253804	1002	Rocky Point, NY, United States of America
0.7687001862716272	37.66803425	-121.875377099148	1003	Amador Valley, CA, United States of America
0.768447441501039	38.5772523	-90.5120413	1004	Parkway South, MO, United States of America
0.7681950313201779	39.9528902	-75.2818513	1005	Monsignor Bonner, PA, United States of America
0.767942954953841	33.7123327	-116.279708248284	1006	La Quinta, CA, United States of America
0.7676912116293905	40.03750465	-83.1679043786193	1007	Hilliard Darby, OH, United States of America
0.7669379722192059	40.58374395	-79.9401157147933	1010	Hampton, PA, United States of America
0.7666875533868184	38.990733	-76.3092282020402	1011	Kent Island, MD, United States of America
0.7661877026148892	42.2844674	-87.9664641	1013	Libertyville, IL, United States of America
0.7656891626626405	36.1092849	-79.7864417	1015	Greensboro Page, NC, United States of America
0.7654403823641458	32.7990229	-117.052100345347	1016	Patrick Henry, CA, United States of America
0.7651919275197965	41.5241667	-74.2166666	1017	Valley Central, NY, United States of America
0.7649437973844471	39.0439925	-77.172990652889	1018	Churchill, MD, United States of America
0.764448508272336	41.1915033	-81.4970808294655	1020	Walsh Jesuit, OH, United States of America
0.7639545091151823	30.2435737	-81.6259261	1022	Episcopal Jacksonville, FL, United States of America
0.7637079914325479	34.0175	-118.4263888	1023	Windward School, CA, United States of America
0.7634617940388351	43.0039254	-78.7082432229032	1024	Williamsville East, NY, United States of America
0.7632159162057338	42.6103375	-73.8566187238381	1025	Bethlehem, NY, United States of America
0.7629703572072993	42.1631589	-71.6166776	1026	Blackstone Valley, MA, United States of America
0.7627251163199412	40.2131617	-74.9760675	1027	Council Rock South, PA, United States of America
0.7624801928224139	42.04624425	-87.7021812492043	1028	Evanston, IL, United States of America
0.7622355859958064	45.50472695	-122.914472251832	1029	Century, OR, United States of America
0.761991295123533	42.05519195	-71.2507257418385	1030	Foxborough, MA, United States of America
0.761747319491323	42.1062245	-71.6475278371393	1031	Northbridge, MA, United States of America
0.7615036583872112	37.46227555	-122.174647701133	1032	Menlo-Atherton, CA, United States of America
0.7612603111015285	35.4648376	-82.48762	1033	Christ School, NC, United States of America
0.7610172769268918	41.14711945	-81.3478462628022	1034	University School, OH, United States of America
0.7607745551581948	33.654452	-117.651716780682	1035	Mission Viejo, CA, United States of America
0.7602900460295205	41.6970445	-73.8943944	1037	Arlington, NY, United States of America
0.7600482572706287	38.119642	-122.6105385	1038	San Marin, CA, United States of America
0.759806778119828	42.2135045	-85.799414493956	1039	Mattawan, MI, United States of America
0.7595656078832538	35.4050944	-80.6715056	1040	Cannon School, NC, United States of America
0.7593247458692617	38.04730895	-78.7052442724124	1041	Western Albemarle, VA, United States of America
0.7590841913884175	45.6203734	-122.534001544589	1042	Eastside, WA, United States of America
0.7588439437534905	40.782876	-73.1384456	1043	Connetquot, NY, United States of America
0.7583643662834149	42.8331151	-78.6050257	1045	Iroquois, NY, United States of America
0.7581250350847304	39.1896909	-76.8812352685969	1046	Atholton, MD, United States of America
0.7576472843674841	39.312885	-76.5652432	1048	Archbishop Curley, MD, United States of America
0.7574088634983532	34.1391776	-118.4135136	1049	Harvard-Westlake, CA, United States of America
0.7571707447254087	40.30331	-75.9600469124948	1050	Governor Mifflin, PA, United States of America
0.7569329273787089	40.208798	-74.9322679	1051	George School, PA, United States of America
0.7564581942948747	43.6217496	-70.2686591	1053	South Portland, ME, United States of America
0.7562212772284287	36.1849695	-115.1747241	1054	Faith Lutheran, NV, United States of America
0.7559846589295867	42.1112449	-87.8321866	1055	Glenbrook North, IL, United States of America
0.755748338738927	41.47356475	-81.5698558703001	1056	Shaker Heights, OH, United States of America
0.7555123159991057	40.80123595	-74.4861350017255	1057	Morristown, NJ, United States of America
0.7552765900548488	43.3305685	-73.6924559057056	1058	Queensbury, NY, United States of America
0.7550411602529429	39.4250375	-76.991008	1059	Century, MD, United States of America
0.7545711864735883	44.25404065	-72.7862737549447	1061	Harwood, VT, United States of America
0.7543366411999435	37.74769505	-121.945578573361	1062	California, CA, United States of America
0.7538684306594492	39.9483	-75.53830599999999	1064	Westtown, PA, United States of America
0.7536347641085456	40.965908	-73.7879579	1065	Iona Prep, NY, United States of America
0.7534013891845116	39.9559945	-74.1946860979362	1066	Toms River South, NJ, United States of America
0.7531683052503242	41.3732322	-72.8633704	1067	North Haven, CT, United States of America
0.7529355116709465	40.7263338	-73.3246519782362	1068	North Babylon, NY, United States of America
0.7527030078133204	40.99453015	-73.7932680034856	1069	Scarsdale, NY, United States of America
0.752470793046359	38.2701269	-76.6113486	1070	Leonardtown, MD, United States of America
0.7522388667409381	39.61412305	-104.985033909473	1071	Littleton, CO, United States of America
0.7520072282698882	40.0620556	-75.2082336	1072	Chestnut Hill Academy, PA, United States of America
0.7517758770079866	42.6861973	-72.0439685	1073	Winchendon, MA, United States of America
0.7515448123319507	39.2367211	-94.5697657511594	1074	Oak Park, IL, United States of America
0.7513140336204278	42.21701835	-71.2161230047884	1075	Westwood, MA, United States of America
0.7508533316151247	26.876959	-80.106357	1077	W.T. Dwyer, FL, United States of America
0.7506234070882277	43.288116	-77.7933419	1078	Hilton, NY, United States of America
0.7501644079174139	34.2979205	-77.8724518	1080	Wilmington Laney, NC, United States of America
0.7499353320517607	44.6749325	-74.9809037	1081	Potsdam, NY, United States of America
0.7497065378545863	43.0100575	-78.797256	1082	Sweet Home, NY, United States of America
0.7494780247197128	42.1162398	-75.963642	1083	Johnson City, NY, United States of America
0.7492497920428252	41.3814838	-73.4534555	1084	Immaculate Danbury, CT, United States of America
0.7490218392214631	40.1336993	-82.8974532631756	1085	Westerville North, OH, United States of America
0.7485667707447088	37.7221877	-122.449000526358	1087	Lick-Wilmerding, CA, United States of America
0.7483396538936066	41.0701861	-73.84337230000001	1088	Hackley, NY, United States of America
0.7481128145065957	32.75969685	-116.920893785159	1089	Valhalla, CA, United States of America
0.7478862519903828	47.6773046	-122.313806996056	1090	Roosevelt, WA, United States of America
0.7476599657534851	33.36133555	-111.698283919485	1091	Highland, AZ, United States of America
0.7474339552062249	38.8551253	-77.7752307	1092	Wakefield School, VA, United States of America
0.7472082197607209	42.6887514	-70.8518328	1093	Ipswich, MA, United States of America
0.7469827588308824	43.1447939	-72.5096977793302	1094	Vermont Academy, VT, United States of America
0.7467575718324013	43.534799	-71.4620174	1095	Laconia, NH, United States of America
0.7465326581827452	40.8174061	-74.1603536	1096	Nutley, NJ, United States of America
0.7463080173011508	43.0680158	-89.4362855	1097	Madison Regents, WI, United States of America
0.7460836486086168	35.9304062	-86.822293221926	1098	Centennial, TN, United States of America
0.7458595515278964	41.37832815	-73.393955376357	1099	Bethel, CT, United States of America
0.7454121699016433	40.35022725	-76.7599392379659	1101	Central Dauphin, PA, United States of America
0.74518888421033	40.2766445	-76.6411504076183	1102	Hershey, PA, United States of America
0.7449658678392559	42.00924	-77.2652559	1103	Nichols, NY, United States of America
0.7447431202198456	32.75495145	-117.037278347861	1104	Helix, CA, United States of America
0.7442984289702803	38.8961	-77.2792099	1106	Madison, VA, United States of America
0.7440764842115186	43.04065655	-76.097194577617	1107	Nottingham, NY, United States of America
0.7438548059471937	41.7509327	-72.8676002	1108	Farmington, CT, United States of America
0.7436333936172339	36.07431	-80.4342599	1109	Malvern Collegiate, CN, United States of America
0.7434122466632478	43.10108315	-89.5064422777431	1110	Middleton, WI, United States of America
0.7429707466579967	40.0502871	-76.2210363	1112	Conestoga Valley, PA, United States of America
0.7427503924982938	47.60020645	-122.031610630111	1113	Skyline, WA, United States of America
0.7425303014976768	41.5973999	-73.8921757	1114	JJ-Wappingers Falls, NY, United States of America
0.7423104731060604	34.1998549	-77.8921411	1115	Wilmington Hoggard, NC, United States of America
0.7420909067750009	42.5814233	-82.8535291	1116	L'Anse Creuse, MI, United States of America
0.7418716019576906	42.9718784	-78.6316321027381	1117	Clarence, NY, United States of America
0.741652558108951	39.1843661	-76.667445	1118	NorthEast AA, MD, United States of America
0.7414337746852263	42.9934143	-71.4533604	1119	Manchester Central, NH, United States of America
0.7412152511445768	40.8366091	-73.1014158157605	1120	Sachem North, NY, United States of America
0.740996986946674	42.41165125	-83.4948431221299	1121	Northville, MI, United States of America
0.7407789815527933	42.83943505	-78.7465028066232	1122	West Seneca West, NY, United States of America
0.7405612344258077	34.836476	-87.6780838	1123	Buckingham, MA, United States of America
0.7403437450301821	44.6013609	-72.6309496	1124	Lamoille, VT, United States of America
0.7401265128319673	39.0491051	-77.5094513630933	1125	Stone Bridge, VA, United States of America
0.7399095372987935	47.8086225	-117.559196925	1126	Lakeside, WA, United States of America
0.7396928178998642	32.287094	-110.8098421	1127	Tucson Tanque Verde, AZ, United States of America
0.7394763541059508	36.1531907	-79.4986343	1128	Western Alamance, NC, United States of America
0.7392601453893853	40.742423	-75.2984841	1129	Nazareth HS, PA, United States of America
0.7390441912240566	41.782546	-88.1571556109788	1130	Naperville North, IL, United States of America
0.7386130444504012	44.88253175	-93.3766693407895	1132	Edina, MN, United States of America
0.7383978507975744	46.4354623	-115.8876391	1133	Timberline, ID, United States of America
0.7381829096069719	42.43709245	-82.8892243741671	1134	Grosse Pointe North, MI, United States of America
0.7379682203601697	41.8012113	-71.4533915	1135	Rocky Hill, RI, United States of America
0.7377537825402648	40.6906581	-74.1062534	1136	Marist, GA, United States of America
0.7375395956318677	35.99512365	-115.111755090406	1137	Coronado, NV, United States of America
0.737325659121098	47.9188526	-122.100645089847	1138	Snohomish, WA, United States of America
0.7371119724955781	40.75501425	-111.86007872533	1139	Judge Memorial, UT, United States of America
0.7368985352444274	42.81216555	-72.01846675	1140	Conant, IL, United States of America
0.7366853468582567	39.9928771	-76.2324573	1141	Lampeter-Strasburg, PA, United States of America
0.7364724068291626	42.13000785	-88.0215931582149	1142	Palatine, IL, United States of America
0.7360472698179861	28.2562	-82.3099999	1144	Wesley Chapel, FL, United States of America
0.7358350718274755	29.7413401	-95.4263288	1145	Lamar Houston, TX, United States of America
0.7356231201771737	42.70833985	-73.8092678245316	1146	Colonie, NY, United States of America
0.7354114143665221	42.5316778	-71.7782125980605	1147	Leominster, MA, United States of America
0.7351999538964152	38.98734195	-77.3742492762203	1148	Herndon, VA, United States of America
0.7349887382691938	41.13250295	-73.7854452746053	1149	Pleasantville, NY, United States of America
0.7347777669886404	42.2280476	-71.0042797484757	1150	Archbishop Williams, MA, United States of America
0.7345670395599728	39.7419532	-75.5547268	1151	Wilmington Friends, DE, United States of America
0.7343565554898408	40.256776	-75.7974829	1152	Daniel Boone, PA, United States of America
0.7339363154589003	42.3941445	-71.1656459292873	1154	Belmont, MA, United States of America
0.733726558518495	40.0237189	-75.5177022	1155	Phelps, PA, United States of America
0.7335170429774207	44.0145017	-76.0199266	1156	General Brown, NY, United States of America
0.7333077683493996	41.5131082	-81.5003991	1157	Hawken School, OH, United States of America
0.7330987341495528	40.800125	-73.73995339999999	1158	Great Neck North, NY, United States of America
0.7328899398943948	42.14526845	-71.4072690747932	1159	Medway, MA, United States of America
0.7326813851018281	36.5541497	-121.908997208436	1160	Carmel, CA, United States of America
0.732473069291139	40.15536415	-75.1087911849992	1161	Upper Moreland, PA, United States of America
0.7322649919829916	39.3094276	-76.6776526754184	1162	Walbrook, MD, United States of America
0.7318495509638366	38.62122	-76.861963	1164	Sts Peter & Paul, MD, United States of America
0.7316421863010012	40.54474099999999	-80.189606	1165	Sewickley Academy, PA, United States of America
0.7314350582370408	40.7621137	-73.6161658	1166	Wheatley, NY, United States of America
0.7310215100170038	41.0078755	-73.7534648	1168	Archbishop Stepinac, NY, United States of America
0.7308150889199198	40.8070445	-74.2601471	1169	West Orange, NJ, United States of America
0.7306089025396866	40.0614886	-105.1066309	1170	Alexander Dawson, CO, United States of America
0.7304029504091419	42.304404	-71.815298	1171	Bancroft, MA, United States of America
0.7301972320624517	38.0895905	-122.571736	1172	Novato, CA, United States of America
0.7299917470351038	38.8618878	-77.2064165	1173	Falls Church, VA, United States of America
0.7297864948639052	36.19244465	-85.4862760789248	1174	Cookeville, TN, United States of America
0.7295814750869752	35.80381535	-78.6616436247377	1175	Wakefield-Raleigh, NC, United States of America
0.7293766872437414	40.09585915	-75.3792292741832	1176	Upper Merion, PA, United States of America
0.7287637107300173	38.99463295	-76.8695390779589	1179	Eleanor Roosevelt, MD, United States of America
0.7285598460418425	39.192098	-76.6375082395843	1180	North County, MD, United States of America
0.7283562110039585	28.73563115	-81.3366099738316	1181	Lake Mary, FL, United States of America
0.7281528051635422	41.02080695	-73.8324183659328	1182	Ardsley, NY, United States of America
0.7279496280690455	35.7158887	-83.7853081	1183	Webb-Knoxville, TN, United States of America
0.7277466792701903	42.2649238	-72.6742172426393	1184	Williston Northampton, MA, United States of America
0.7275439583179649	36.170923	-115.332996848657	1185	Palo Verde, NV, United States of America
0.7273414647646183	43.21148875	-75.4167069968766	1186	Rome Free Academy, NY, United States of America
0.7271391981636555	40.252299	-75.4501049	1187	Perkiomen School, PA, United States of America
0.7269371580698343	42.6377369	-84.5758553666614	1188	Holt, MI, United States of America
0.726735344039159	40.3243769	-75.9708502505258	1189	Wyomissing, PA, United States of America
0.7265337556288775	33.3256917	-111.991732185578	1190	Mountain Pointe, AZ, United States of America
0.7263323923974749	33.1636224	-117.3281231	1191	Carlsbad, CA, United States of America
0.7261312539046713	42.49801205	-71.1981901820925	1192	Burlington, MA, United States of America
0.7259303397114153	33.62418925	-117.911108535691	1193	Newport Harbor, CA, United States of America
0.7257296493798806	33.6403254	-117.8097451	1194	Hilltop, CA, United States of America
0.725529182473461	40.7739961	-73.4022992	1195	Half Hollow Hills East, NY, United States of America
0.7253289385567666	40.0492307	-83.0171283	1196	Watterson, OH, United States of America
0.7251289171956191	38.80294435	-104.857174793489	1197	Cheyenne Mountain, CO, United States of America
0.7249291179570471	40.697377	-73.3650873	1198	Lindenhurst, NY, United States of America
